"Interval"|"ms"|0|0|1,"Utc"|"ms"|0|0|1,"Analog1"|"Volts"|0.0|5.0|200,"Analog2"|"Volts"|0.0|5.0|200,"Analog3"|"Volts"|0.0|5.0|200,"Analog4"|"Volts"|0.0|5.0|200,"Analog5"|"Volts"|0.0|5.0|200,"Analog6"|"Volts"|0.0|5.0|200,"Analog7"|"Volts"|0.0|5.0|200,"Analog8"|"Volts"|0.0|5.0|200,"Battery"|"Volts"|0.0|20.0|1,"AccelX"|"G"|-3.0|3.0|200,"AccelY"|"G"|-3.0|3.0|200,"AccelZ"|"G"|-3.0|3.0|200,"Yaw"|"Deg/Sec"|-120|120|200,"Pitch"|"Deg/Sec"|-120|120|200,"Roll"|"Deg/Sec"|-120|120|200,"Gsum"|"G"|0.0|3.0|200,"RPM"|"rpm"|0|8000|500,"RPM2"|"rpm"|0|8000|500,"Latitude"|"Degrees"|-180.0|180.0|25,"Longitude"|"Degrees"|-180.0|180.0|25,"Speed"|"mph"|0.0|150.0|25,"Altitude"|"ft"|0.0|4000.0|25,"GPSSats"|""|0|20|25,"GPSQual"|""|0|5|25,"GPSDOP"|""|0.0|20.0|25
183,0,3.94,3.56,3.99,3.71,4.87,0.32,0.86,1.82,,0.08,-0.24,0.99,-29,-7,-16,0.25,3120,0,,,,,,,
185,0,,,,,,,,,,,,,,,,,3120,0,,,,,,,
187,0,,,,,,,,,,,,,,,,,3120,0,,,,,,,
189,0,,,,,,,,,,,,,,,,,3180,0,,,,,,,
191,0,,,,,,,,,,,,,,,,,3180,0,,,,,,,
193,0,3.94,3.57,3.99,3.75,4.95,0.36,0.98,1.79,,0.28,-0.1,0.84,-29,-20,-7,0.3,3180,0,,,,,,,
195,0,,,,,,,,,,,,,,,,,3180,0,,,,,,,
197,0,,,,,,,,,,,,,,,,,3180,0,,,,,,,
199,0,,,,,,,,,,,,,,,,,3180,0,,,,,,,
201,0,,,,,,,,,,,,,,,,,3180,0,,,,,,,
203,0,3.95,3.61,3.96,3.72,4.9,0.53,1.5,1.79,,0.11,0.01,0.47,-30,-26,3,0.11,3180,0,0.0,0.0,0.0,0.0,0,0,0.0
205,0,,,,,,,,,,,,,,,,,3180,0,,,,,,,
207,0,,,,,,,,,,,,,,,,,3120,0,,,,,,,
209,0,,,,,,,,,,,,,,,,,3120,0,,,,,,,
211,0,,,,,,,,,,,,,,,,,3120,0,,,,,,,
213,0,3.92,3.59,4.0,3.71,4.95,0.3,1.61,1.79,,0.2,-0.03,0.54,-30,-21,7,0.2,3120,0,,,,,,,
215,0,,,,,,,,,,,,,,,,,3120,0,,,,,,,
217,0,,,,,,,,,,,,,,,,,3120,0,,,,,,,
219,0,,,,,,,,,,,,,,,,,3120,0,,,,,,,
221,0,,,,,,,,,,,,,,,,,3120,0,,,,,,,
223,0,3.97,3.65,3.99,3.74,4.93,0.36,1.86,1.81,,0.19,-0.07,0.46,-30,-9,13,0.2,3120,0,,,,,,,
225,0,,,,,,,,,,,,,,,,,3120,0,,,,,,,
227,0,,,,,,,,,,,,,,,,,3240,0,,,,,,,
229,0,,,,,,,,,,,,,,,,,3240,0,,,,,,,
231,0,,,,,,,,,,,,,,,,,3240,0,,,,,,,
233,0,3.96,3.61,4.02,3.69,4.91,0.43,1.83,1.78,,0.01,-0.07,0.78,-29,0,14,0.07,3240,0,,,,,,,
235,0,,,,,,,,,,,,,,,,,3240,0,,,,,,,
237,0,,,,,,,,,,,,,,,,,3240,0,,,,,,,
239,0,,,,,,,,,,,,,,,,,3240,0,,,,,,,
241,0,,,,,,,,,,,,,,,,,3240,0,,,,,,,
243,0,3.97,3.67,3.99,3.72,4.91,0.39,1.87,1.78,,0.06,-0.24,0.47,-28,-15,15,0.24,3240,0,0.0,0.0,0.0,0.0,0,0,0.0
245,0,,,,,,,,,,,,,,,,,3180,0,,,,,,,
247,0,,,,,,,,,,,,,,,,,3180,0,,,,,,,
249,0,,,,,,,,,,,,,,,,,3180,0,,,,,,,
251,0,,,,,,,,,,,,,,,,,3180,0,,,,,,,
253,0,3.98,3.68,3.99,3.73,0.02,0.34,1.85,1.76,,0.07,-0.3,0.61,-26,4,12,0.31,3180,0,,,,,,,
255,0,,,,,,,,,,,,,,,,,3180,0,,,,,,,
257,0,,,,,,,,,,,,,,,,,3180,0,,,,,,,
259,0,,,,,,,,,,,,,,,,,3180,0,,,,,,,
261,0,,,,,,,,,,,,,,,,,3180,0,,,,,,,
263,0,3.97,3.68,3.98,3.73,4.93,0.46,2.02,1.74,,0.25,-0.5,0.96,-24,3,8,0.56,3240,0,,,,,,,
265,0,,,,,,,,,,,,,,,,,3240,0,,,,,,,
267,0,,,,,,,,,,,,,,,,,3240,0,,,,,,,
269,0,,,,,,,,,,,,,,,,,3240,0,,,,,,,
271,0,,,,,,,,,,,,,,,,,3240,0,,,,,,,
273,0,3.96,3.68,3.99,3.73,4.93,0.33,2.04,1.74,,-0.1,-0.5,1.06,-24,4,1,0.51,3240,0,,,,,,,
275,0,,,,,,,,,,,,,,,,,3240,0,,,,,,,
277,0,,,,,,,,,,,,,,,,,3240,0,,,,,,,
279,0,,,,,,,,,,,,,,,,,3240,0,,,,,,,
281,0,,,,,,,,,,,,,,,,,3180,0,,,,,,,
283,0,3.97,3.67,3.97,3.72,0.02,0.24,1.48,1.75,,0.1,-0.51,1.05,-23,5,-1,0.52,3180,0,0.0,0.0,0.0,0.0,0,0,0.0
285,0,,,,,,,,,,,,,,,,,3180,0,,,,,,,
287,0,,,,,,,,,,,,,,,,,3180,0,,,,,,,
289,0,,,,,,,,,,,,,,,,,3180,0,,,,,,,
291,0,,,,,,,,,,,,,,,,,3180,0,,,,,,,
293,0,3.94,3.64,3.93,3.68,4.88,0.27,0.16,1.72,,-0.04,-0.51,0.94,-22,0,-4,0.51,3180,0,,,,,,,
295,0,,,,,,,,,,,,,,,,,3180,0,,,,,,,
297,0,,,,,,,,,,,,,,,,,3180,0,,,,,,,
299,0,,,,,,,,,,,,,,,,,3180,0,,,,,,,
301,0,,,,,,,,,,,,,,,,,3240,0,,,,,,,
303,0,3.97,3.66,3.96,3.72,4.93,0.26,0.17,1.77,,0.4,-0.52,1.13,-21,15,-8,0.66,3240,0,,,,,,,
305,0,,,,,,,,,,,,,,,,,3240,0,,,,,,,
307,0,,,,,,,,,,,,,,,,,3240,0,,,,,,,
309,0,,,,,,,,,,,,,,,,,3240,0,,,,,,,
311,0,,,,,,,,,,,,,,,,,3240,0,,,,,,,
313,0,3.94,3.62,3.93,3.69,4.91,0.12,0.28,1.75,,-0.06,-0.47,1.01,-21,-6,-7,0.47,3240,0,,,,,,,
315,0,,,,,,,,,,,,,,,,,3240,0,,,,,,,
317,0,,,,,,,,,,,,,,,,,3240,0,,,,,,,
319,0,,,,,,,,,,,,,,,,,3120,0,,,,,,,
321,0,,,,,,,,,,,,,,,,,3120,0,,,,,,,
323,0,3.94,3.59,3.93,3.68,4.91,0.16,0.44,1.79,,0.31,-0.39,1.05,-21,15,-6,0.49,3120,0,0.0,0.0,0.0,0.0,0,0,0.0
325,0,,,,,,,,,,,,,,,,,3120,0,,,,,,,
327,0,,,,,,,,,,,,,,,,,3120,0,,,,,,,
329,0,,,,,,,,,,,,,,,,,3120,0,,,,,,,
331,0,,,,,,,,,,,,,,,,,3120,0,,,,,,,
333,0,3.96,3.61,3.95,3.72,4.92,0.18,0.33,1.84,,0.09,-0.28,1.13,-22,1,-4,0.29,3120,0,,,,,,,
335,0,,,,,,,,,,,,,,,,,3120,0,,,,,,,
337,0,,,,,,,,,,,,,,,,,3120,0,,,,,,,
339,0,,,,,,,,,,,,,,,,,3180,0,,,,,,,
341,0,,,,,,,,,,,,,,,,,3180,0,,,,,,,
343,0,3.97,3.61,3.97,3.72,4.93,0.18,0.27,1.86,,0.3,-0.08,0.7,-21,15,-1,0.31,3180,0,,,,,,,
345,0,,,,,,,,,,,,,,,,,3180,0,,,,,,,
347,0,,,,,,,,,,,,,,,,,3180,0,,,,,,,
349,0,,,,,,,,,,,,,,,,,3180,0,,,,,,,
351,0,,,,,,,,,,,,,,,,,3180,0,,,,,,,
353,0,3.96,3.62,3.96,3.71,4.9,0.14,0.51,1.84,,0.08,-0.06,0.88,-21,3,4,0.1,3180,0,,,,,,,
355,0,,,,,,,,,,,,,,,,,3180,0,,,,,,,
357,0,,,,,,,,,,,,,,,,,3120,0,,,,,,,
359,0,,,,,,,,,,,,,,,,,3120,0,,,,,,,
361,0,,,,,,,,,,,,,,,,,3120,0,,,,,,,
363,0,3.91,3.59,3.93,3.67,4.88,0.11,0.55,1.84,,0.28,-0.23,0.89,-21,6,6,0.36,3120,0,0.0,0.0,0.0,0.0,0,0,0.0
365,0,,,,,,,,,,,,,,,,,3120,0,,,,,,,
367,0,,,,,,,,,,,,,,,,,3120,0,,,,,,,
369,0,,,,,,,,,,,,,,,,,3120,0,,,,,,,
371,0,,,,,,,,,,,,,,,,,3120,0,,,,,,,
373,0,3.89,3.6,3.94,3.68,4.9,0.14,0.31,1.84,,0.33,-0.26,1.08,-20,12,4,0.42,3120,0,,,,,,,
375,0,,,,,,,,,,,,,,,,,3120,0,,,,,,,
377,0,,,,,,,,,,,,,,,,,3180,0,,,,,,,
379,0,,,,,,,,,,,,,,,,,3180,0,,,,,,,
381,0,,,,,,,,,,,,,,,,,3180,0,,,,,,,
383,0,3.92,3.66,4.0,3.73,4.94,0.22,0.25,1.88,,0.28,-0.35,1.12,-20,18,0,0.45,3180,0,,,,,,,
385,0,,,,,,,,,,,,,,,,,3180,0,,,,,,,
387,0,,,,,,,,,,,,,,,,,3180,0,,,,,,,
389,0,,,,,,,,,,,,,,,,,3180,0,,,,,,,
391,0,,,,,,,,,,,,,,,,,3180,0,,,,,,,
393,0,3.89,3.63,3.97,3.67,4.88,0.01,0.0,1.84,,0.18,-0.38,1.12,-20,-1,-3,0.42,3180,0,,,,,,,
395,0,,,,,,,,,,,,,,,,,3120,0,,,,,,,
397,0,,,,,,,,,,,,,,,,,3120,0,,,,,,,
399,0,,,,,,,,,,,,,,,,,3120,0,,,,,,,
401,0,,,,,,,,,,,,,,,,,3120,0,,,,,,,
403,0,3.9,3.62,3.98,3.7,4.9,0.02,0.03,1.84,,0.18,-0.45,0.94,-21,4,-5,0.49,3120,0,0.0,0.0,0.0,0.0,0,0,0.0
405,0,,,,,,,,,,,,,,,,,3120,0,,,,,,,
407,0,,,,,,,,,,,,,,,,,3120,0,,,,,,,
409,0,,,,,,,,,,,,,,,,,3120,0,,,,,,,
411,0,,,,,,,,,,,,,,,,,3120,0,,,,,,,
413,0,3.92,3.6,3.98,3.69,4.9,0.06,0.01,1.86,,0.29,-0.46,1.18,-22,7,-6,0.55,3120,0,,,,,,,
415,0,,,,,,,,,,,,,,,,,3180,0,,,,,,,
417,0,,,,,,,,,,,,,,,,,3180,0,,,,,,,
419,0,,,,,,,,,,,,,,,,,3180,0,,,,,,,
421,0,,,,,,,,,,,,,,,,,3180,0,,,,,,,
423,0,3.94,3.63,4.02,3.73,0.02,0.0,0.29,1.88,,-0.04,-0.29,1.25,-24,2,-12,0.3,3180,0,,,,,,,
425,0,,,,,,,,,,,,,,,,,3180,0,,,,,,,
427,0,,,,,,,,,,,,,,,,,3180,0,,,,,,,
429,0,,,,,,,,,,,,,,,,,3180,0,,,,,,,
431,0,,,,,,,,,,,,,,,,,3180,0,,,,,,,
433,0,3.91,3.61,4.0,3.71,4.92,0.08,0.33,1.88,,0.11,-0.28,1.0,-25,-5,-11,0.3,3120,0,,,,,,,
435,0,,,,,,,,,,,,,,,,,3120,0,,,,,,,
437,0,,,,,,,,,,,,,,,,,3120,0,,,,,,,
439,0,,,,,,,,,,,,,,,,,3120,0,,,,,,,
441,0,,,,,,,,,,,,,,,,,3120,0,,,,,,,
443,0,3.9,3.61,3.99,3.69,4.88,0.0,0.01,1.85,,0.12,-0.19,1.09,-25,-4,-8,0.22,3120,0,0.0,0.0,0.0,0.0,0,0,0.0
445,0,,,,,,,,,,,,,,,,,3120,0,,,,,,,
447,0,,,,,,,,,,,,,,,,,3120,0,,,,,,,
449,0,,,,,,,,,,,,,,,,,3120,0,,,,,,,
451,0,,,,,,,,,,,,,,,,,3180,0,,,,,,,
453,0,3.93,3.65,4.03,3.73,4.93,0.0,0.0,1.87,,0.26,-0.47,1.35,-24,-10,-13,0.54,3180,0,,,,,,,
455,0,,,,,,,,,,,,,,,,,3180,0,,,,,,,
457,0,,,,,,,,,,,,,,,,,3180,0,,,,,,,
459,0,,,,,,,,,,,,,,,,,3180,0,,,,,,,
461,0,,,,,,,,,,,,,,,,,3180,0,,,,,,,
463,0,3.9,3.63,3.99,3.68,4.91,0.0,0.49,1.84,,0.01,-0.17,1.0,-25,-15,-14,0.17,3180,0,,,,,,,
465,0,,,,,,,,,,,,,,,,,3180,0,,,,,,,
467,0,,,,,,,,,,,,,,,,,3180,0,,,,,,,
469,0,,,,,,,,,,,,,,,,,3180,0,,,,,,,
471,0,,,,,,,,,,,,,,,,,3120,0,,,,,,,
473,0,3.88,3.62,3.99,3.68,4.89,0.0,0.58,1.83,,0.18,-0.2,0.87,-24,-7,-15,0.27,3120,0,,,,,,,
475,0,,,,,,,,,,,,,,,,,3120,0,,,,,,,
477,0,,,,,,,,,,,,,,,,,3120,0,,,,,,,
479,0,,,,,,,,,,,,,,,,,3120,0,,,,,,,
481,0,,,,,,,,,,,,,,,,,3120,0,,,,,,,
483,0,3.9,3.68,4.01,3.7,4.9,0.0,0.4,1.83,,0.19,-0.13,0.69,-23,-17,-13,0.23,3120,0,0.0,0.0,0.0,0.0,0,0,0.0
485,0,,,,,,,,,,,,,,,,,3120,0,,,,,,,
487,0,,,,,,,,,,,,,,,,,3120,0,,,,,,,
489,0,,,,,,,,,,,,,,,,,3240,0,,,,,,,
491,0,,,,,,,,,,,,,,,,,3240,0,,,,,,,
493,0,3.91,3.68,4.01,3.71,4.93,0.03,0.01,1.86,,0.36,-0.18,1.04,-22,3,-12,0.41,3240,0,,,,,,,
495,0,,,,,,,,,,,,,,,,,3240,0,,,,,,,
497,0,,,,,,,,,,,,,,,,,3240,0,,,,,,,
499,0,,,,,,,,,,,,,,,,,3240,0,,,,,,,
501,0,,,,,,,,,,,,,,,,,3240,0,,,,,,,
503,0,3.93,3.69,4.02,3.72,4.94,0.04,0.0,1.85,,0.24,-0.09,0.93,-22,-27,-4,0.26,3240,0,,,,,,,
505,0,,,,,,,,,,,,,,,,,3240,0,,,,,,,
507,0,,,,,,,,,,,,,,,,,3120,0,,,,,,,
509,0,,,,,,,,,,,,,,,,,3120,0,,,,,,,
511,0,,,,,,,,,,,,,,,,,3120,0,,,,,,,
513,0,3.95,3.69,4.02,3.72,4.93,0.08,0.22,1.85,,0.15,-0.06,0.72,-22,-10,-3,0.16,3120,0,,,,,,,
515,0,,,,,,,,,,,,,,,,,3120,0,,,,,,,
517,0,,,,,,,,,,,,,,,,,3120,0,,,,,,,
519,0,,,,,,,,,,,,,,,,,3120,0,,,,,,,
521,0,,,,,,,,,,,,,,,,,3120,0,,,,,,,
523,0,3.97,3.7,4.03,3.72,4.93,0.27,0.35,1.86,,0.33,0.1,0.68,-23,-14,3,0.34,3120,0,0.0,0.0,0.0,0.0,0,0,0.0
525,0,,,,,,,,,,,,,,,,,3120,0,,,,,,,
527,0,,,,,,,,,,,,,,,,,3240,0,,,,,,,
529,0,,,,,,,,,,,,,,,,,3240,0,,,,,,,
531,0,,,,,,,,,,,,,,,,,3240,0,,,,,,,
533,0,3.98,3.71,4.02,3.72,4.94,0.25,0.32,1.86,,0.01,-0.09,0.73,-23,7,5,0.09,3240,0,,,,,,,
535,0,,,,,,,,,,,,,,,,,3240,0,,,,,,,
537,0,,,,,,,,,,,,,,,,,3240,0,,,,,,,
539,0,,,,,,,,,,,,,,,,,3240,0,,,,,,,
541,0,,,,,,,,,,,,,,,,,3240,0,,,,,,,
543,0,3.99,3.72,4.02,3.72,4.94,0.42,0.65,1.85,,0.17,-0.14,0.37,-22,-12,5,0.22,3240,0,,,,,,,
545,0,,,,,,,,,,,,,,,,,3180,0,,,,,,,
547,0,,,,,,,,,,,,,,,,,3180,0,,,,,,,
549,0,,,,,,,,,,,,,,,,,3180,0,,,,,,,
551,0,,,,,,,,,,,,,,,,,3180,0,,,,,,,
553,0,3.99,3.73,4.02,3.72,4.93,0.37,0.85,1.82,,-0.03,-0.09,0.54,-21,13,6,0.1,3180,0,,,,,,,
555,0,,,,,,,,,,,,,,,,,3180,0,,,,,,,
557,0,,,,,,,,,,,,,,,,,3180,0,,,,,,,
559,0,,,,,,,,,,,,,,,,,3180,0,,,,,,,
561,0,,,,,,,,,,,,,,,,,3180,0,,,,,,,
563,0,3.98,3.72,4.01,3.72,0.02,0.15,1.08,1.81,,0.22,-0.22,0.73,-21,-1,6,0.31,3240,0,0.0,0.0,0.0,0.0,0,0,0.0
565,0,,,,,,,,,,,,,,,,,3240,0,,,,,,,
567,0,,,,,,,,,,,,,,,,,3240,0,,,,,,,
569,0,,,,,,,,,,,,,,,,,3240,0,,,,,,,
571,0,,,,,,,,,,,,,,,,,3240,0,,,,,,,
573,0,3.96,3.7,3.99,3.7,4.9,0.3,1.26,1.81,,-0.12,-0.38,0.82,-21,18,6,0.4,3240,0,,,,,,,
575,0,,,,,,,,,,,,,,,,,3240,0,,,,,,,
577,0,,,,,,,,,,,,,,,,,3240,0,,,,,,,
579,0,,,,,,,,,,,,,,,,,3240,0,,,,,,,
581,0,,,,,,,,,,,,,,,,,3240,0,,,,,,,
583,0,3.94,3.66,3.98,3.68,0.02,0.08,1.11,1.8,,0.15,-0.43,1.09,-22,7,7,0.46,3180,0,,,,,,,
585,0,,,,,,,,,,,,,,,,,3180,0,,,,,,,
587,0,,,,,,,,,,,,,,,,,3180,0,,,,,,,
589,0,,,,,,,,,,,,,,,,,3180,0,,,,,,,
591,0,,,,,,,,,,,,,,,,,3180,0,,,,,,,
593,0,3.94,3.64,3.97,3.7,0.01,0.03,0.52,1.79,,0.07,-0.69,0.92,-21,-7,6,0.7,3180,0,,,,,,,
595,0,,,,,,,,,,,,,,,,,3180,0,,,,,,,
597,0,,,,,,,,,,,,,,,,,3180,0,,,,,,,
599,0,,,,,,,,,,,,,,,,,3180,0,,,,,,,
601,0,,,,,,,,,,,,,,,,,3180,0,,,,,,,
603,0,3.98,3.65,3.98,3.73,0.02,0.25,0.13,1.83,,0.33,-0.64,1.06,-22,16,-0,0.72,3180,0,0.0,0.0,0.0,0.0,0,0,0.0
605,0,,,,,,,,,,,,,,,,,3180,0,,,,,,,
607,0,,,,,,,,,,,,,,,,,3180,0,,,,,,,
609,0,,,,,,,,,,,,,,,,,3180,0,,,,,,,
611,0,,,,,,,,,,,,,,,,,3180,0,,,,,,,
613,0,3.98,3.63,3.97,3.73,0.02,0.34,0.52,1.83,,-0.17,-0.4,0.97,-23,-8,-3,0.43,3180,0,,,,,,,
615,0,,,,,,,,,,,,,,,,,3180,0,,,,,,,
617,0,,,,,,,,,,,,,,,,,3180,0,,,,,,,
619,0,,,,,,,,,,,,,,,,,3120,0,,,,,,,
621,0,,,,,,,,,,,,,,,,,3120,0,,,,,,,
623,0,3.98,3.62,3.95,3.73,4.93,0.6,0.39,1.83,,0.31,-0.23,0.5,-21,5,-4,0.39,3120,0,,,,,,,
625,0,,,,,,,,,,,,,,,,,3120,0,,,,,,,
627,0,,,,,,,,,,,,,,,,,3120,0,,,,,,,
629,0,,,,,,,,,,,,,,,,,3120,0,,,,,,,
631,0,,,,,,,,,,,,,,,,,3120,0,,,,,,,
633,0,3.97,3.61,3.92,3.71,4.91,0.44,0.43,1.8,,-0.02,-0.35,1.07,-21,9,-10,0.35,3120,0,,,,,,,
635,0,,,,,,,,,,,,,,,,,3120,0,,,,,,,
637,0,,,,,,,,,,,,,,,,,3120,0,,,,,,,
639,0,,,,,,,,,,,,,,,,,3180,0,,,,,,,
641,0,,,,,,,,,,,,,,,,,3180,0,,,,,,,
643,0,3.97,3.61,3.92,3.71,4.91,0.28,0.27,1.82,,0.28,-0.35,0.83,-19,0,-12,0.45,3180,0,0.0,0.0,0.0,0.0,0,0,0.0
645,0,,,,,,,,,,,,,,,,,3180,0,,,,,,,
647,0,,,,,,,,,,,,,,,,,3180,0,,,,,,,
649,0,,,,,,,,,,,,,,,,,3180,0,,,,,,,
651,0,,,,,,,,,,,,,,,,,3180,0,,,,,,,
653,0,3.95,3.59,3.9,3.68,4.88,0.36,0.54,1.8,,0.03,-0.13,0.49,-18,-2,-11,0.14,3180,0,,,,,,,
655,0,,,,,,,,,,,,,,,,,3180,0,,,,,,,
657,0,,,,,,,,,,,,,,,,,3120,0,,,,,,,
659,0,,,,,,,,,,,,,,,,,3120,0,,,,,,,
661,0,,,,,,,,,,,,,,,,,3120,0,,,,,,,
663,0,3.95,3.59,3.9,3.68,4.91,0.33,0.86,1.8,,0.16,-0.19,0.75,-17,8,-13,0.25,3120,0,,,,,,,
665,0,,,,,,,,,,,,,,,,,3120,0,,,,,,,
667,0,,,,,,,,,,,,,,,,,3120,0,,,,,,,
669,0,,,,,,,,,,,,,,,,,3120,0,,,,,,,
671,0,,,,,,,,,,,,,,,,,3120,0,,,,,,,
673,0,3.94,3.57,3.93,3.7,4.9,0.29,0.8,1.81,,0.06,-0.09,0.82,-16,11,-8,0.11,3120,0,,,,,,,
675,0,,,,,,,,,,,,,,,,,3120,0,,,,,,,
677,0,,,,,,,,,,,,,,,,,3180,0,,,,,,,
679,0,,,,,,,,,,,,,,,,,3180,0,,,,,,,
681,0,,,,,,,,,,,,,,,,,3180,0,,,,,,,
683,0,3.94,3.59,3.94,3.7,4.9,0.46,1.03,1.82,,0.03,-0.1,0.68,-17,18,-2,0.1,3180,0,0.0,0.0,0.0,0.0,0,0,0.0
685,0,,,,,,,,,,,,,,,,,3180,0,,,,,,,
687,0,,,,,,,,,,,,,,,,,3180,0,,,,,,,
689,0,,,,,,,,,,,,,,,,,3180,0,,,,,,,
691,0,,,,,,,,,,,,,,,,,3180,0,,,,,,,
693,0,3.93,3.57,3.94,3.69,4.91,0.45,1.14,1.85,,0.07,-0.05,0.85,-17,-2,5,0.09,3180,0,,,,,,,
695,0,,,,,,,,,,,,,,,,,3120,0,,,,,,,
697,0,,,,,,,,,,,,,,,,,3120,0,,,,,,,
699,0,,,,,,,,,,,,,,,,,3120,0,,,,,,,
701,0,,,,,,,,,,,,,,,,,3120,0,,,,,,,
703,0,3.93,3.56,3.94,3.68,4.88,0.42,1.19,1.83,,0.1,-0.23,0.62,-19,9,8,0.25,3120,0,,,,,,,
705,0,,,,,,,,,,,,,,,,,3120,0,,,,,,,
707,0,,,,,,,,,,,,,,,,,3120,0,,,,,,,
709,0,,,,,,,,,,,,,,,,,3120,0,,,,,,,
711,0,,,,,,,,,,,,,,,,,3120,0,,,,,,,
713,0,3.92,3.54,3.92,3.67,4.88,0.31,1.37,1.84,,0.14,-0.43,1.11,-20,10,8,0.45,3120,0,,,,,,,
715,0,,,,,,,,,,,,,,,,,3180,0,,,,,,,
717,0,,,,,,,,,,,,,,,,,3180,0,,,,,,,
719,0,,,,,,,,,,,,,,,,,3180,0,,,,,,,
721,0,,,,,,,,,,,,,,,,,3180,0,,,,,,,
723,0,3.92,3.52,3.93,3.68,4.9,0.36,1.08,1.86,,-0.09,-0.44,0.91,-21,8,6,0.45,3180,0,0.0,0.0,0.0,0.0,0,0,0.0
725,0,,,,,,,,,,,,,,,,,3180,0,,,,,,,
727,0,,,,,,,,,,,,,,,,,3180,0,,,,,,,
729,0,,,,,,,,,,,,,,,,,3180,0,,,,,,,
731,0,,,,,,,,,,,,,,,,,3180,0,,,,,,,
733,0,3.94,3.54,3.96,3.68,4.9,0.3,0.33,1.88,,0.08,-0.46,1.01,-21,4,8,0.47,3120,0,,,,,,,
735,0,,,,,,,,,,,,,,,,,3120,0,,,,,,,
737,0,,,,,,,,,,,,,,,,,3120,0,,,,,,,
739,0,,,,,,,,,,,,,,,,,3120,0,,,,,,,
741,0,,,,,,,,,,,,,,,,,3120,0,,,,,,,
743,0,3.95,3.54,3.95,3.7,4.92,0.27,0.12,1.89,,0.11,-0.33,1.19,-21,-3,9,0.35,3120,0,,,,,,,
745,0,,,,,,,,,,,,,,,,,3120,0,,,,,,,
747,0,,,,,,,,,,,,,,,,,3120,0,,,,,,,
749,0,,,,,,,,,,,,,,,,,3120,0,,,,,,,
751,0,,,,,,,,,,,,,,,,,3240,0,,,,,,,
753,0,3.94,3.56,3.98,3.72,0.02,0.36,0.0,1.89,,0.23,-0.32,1.11,-21,-10,5,0.39,3240,0,,,,,,,
755,0,,,,,,,,,,,,,,,,,3240,0,,,,,,,
757,0,,,,,,,,,,,,,,,,,3240,0,,,,,,,
759,0,,,,,,,,,,,,,,,,,3240,0,,,,,,,
761,0,,,,,,,,,,,,,,,,,3240,0,,,,,,,
763,0,3.92,3.57,3.97,3.71,0.02,0.48,0.23,1.86,,0.1,-0.05,0.94,-19,0,3,0.11,3240,0,0.0,0.0,0.0,0.0,0,0,0.0
765,0,,,,,,,,,,,,,,,,,3240,0,,,,,,,
767,0,,,,,,,,,,,,,,,,,3240,0,,,,,,,
769,0,,,,,,,,,,,,,,,,,3240,0,,,,,,,
771,0,,,,,,,,,,,,,,,,,3120,0,,,,,,,
773,0,3.88,3.56,3.93,3.67,0.02,0.26,0.18,1.81,,0.2,-0.47,1.2,-17,-2,0,0.51,3120,0,,,,,,,
775,0,,,,,,,,,,,,,,,,,3120,0,,,,,,,
777,0,,,,,,,,,,,,,,,,,3120,0,,,,,,,
779,0,,,,,,,,,,,,,,,,,3120,0,,,,,,,
781,0,,,,,,,,,,,,,,,,,3120,0,,,,,,,
783,0,3.87,3.58,3.93,3.67,0.02,0.42,0.09,1.79,,0.21,-0.3,0.88,-17,-14,-4,0.37,3120,0,,,,,,,
785,0,,,,,,,,,,,,,,,,,3120,0,,,,,,,
787,0,,,,,,,,,,,,,,,,,3120,0,,,,,,,
789,0,,,,,,,,,,,,,,,,,3240,0,,,,,,,
791,0,,,,,,,,,,,,,,,,,3240,0,,,,,,,
793,0,3.87,3.6,3.93,3.67,4.88,0.47,0.2,1.77,,0.18,-0.26,0.85,-15,4,-8,0.32,3240,0,,,,,,,
795,0,,,,,,,,,,,,,,,,,3240,0,,,,,,,
797,0,,,,,,,,,,,,,,,,,3240,0,,,,,,,
799,0,,,,,,,,,,,,,,,,,3240,0,,,,,,,
801,0,,,,,,,,,,,,,,,,,3240,0,,,,,,,
803,0,3.92,3.66,3.99,3.72,0.02,0.37,0.53,1.81,,0.05,-0.36,0.9,-15,-10,-7,0.37,3240,0,0.0,0.0,0.0,0.0,0,0,0.0
805,0,,,,,,,,,,,,,,,,,3240,0,,,,,,,
807,0,,,,,,,,,,,,,,,,,3120,0,,,,,,,
809,0,,,,,,,,,,,,,,,,,3120,0,,,,,,,
811,0,,,,,,,,,,,,,,,,,3120,0,,,,,,,
813,0,3.91,3.65,3.99,3.71,0.02,0.48,0.81,1.8,,0.14,-0.28,0.66,-14,-4,-11,0.31,3120,0,,,,,,,
815,0,,,,,,,,,,,,,,,,,3120,0,,,,,,,
817,0,,,,,,,,,,,,,,,,,3120,0,,,,,,,
819,0,,,,,,,,,,,,,,,,,3120,0,,,,,,,
821,0,,,,,,,,,,,,,,,,,3120,0,,,,,,,
823,0,3.92,3.65,3.98,3.69,0.02,0.6,1.0,1.79,,0.17,-0.31,0.92,-15,6,-9,0.36,3120,0,,,,,,,
825,0,,,,,,,,,,,,,,,,,3120,0,,,,,,,
827,0,,,,,,,,,,,,,,,,,3240,0,,,,,,,
829,0,,,,,,,,,,,,,,,,,3240,0,,,,,,,
831,0,,,,,,,,,,,,,,,,,3240,0,,,,,,,
833,0,3.93,3.62,3.99,3.7,0.02,0.5,0.94,1.85,,0.03,-0.33,0.95,-17,4,-3,0.33,3240,0,,,,,,,
835,0,,,,,,,,,,,,,,,,,3240,0,,,,,,,
837,0,,,,,,,,,,,,,,,,,3240,0,,,,,,,
839,0,,,,,,,,,,,,,,,,,3240,0,,,,,,,
841,0,,,,,,,,,,,,,,,,,3240,0,,,,,,,
843,0,3.95,3.61,3.99,3.7,0.02,0.42,1.0,1.87,,0.1,-0.21,0.63,-19,-8,3,0.23,3240,0,0.0,0.0,0.0,0.0,0,0,0.0
845,0,,,,,,,,,,,,,,,,,3180,0,,,,,,,
847,0,,,,,,,,,,,,,,,,,3180,0,,,,,,,
849,0,,,,,,,,,,,,,,,,,3180,0,,,,,,,
851,0,,,,,,,,,,,,,,,,,3180,0,,,,,,,
853,0,3.98,3.63,4.01,3.72,0.02,0.32,1.35,1.87,,0.01,0.12,0.81,-20,9,6,0.12,3180,0,,,,,,,
855,0,,,,,,,,,,,,,,,,,3180,0,,,,,,,
857,0,,,,,,,,,,,,,,,,,3180,0,,,,,,,
859,0,,,,,,,,,,,,,,,,,3180,0,,,,,,,
861,0,,,,,,,,,,,,,,,,,3180,0,,,,,,,
863,0,3.95,3.62,3.98,3.71,0.02,0.4,1.37,1.86,,0.34,-0.13,0.81,-20,4,15,0.36,3240,0,,,,,,,
865,0,,,,,,,,,,,,,,,,,3240,0,,,,,,,
867,0,,,,,,,,,,,,,,,,,3240,0,,,,,,,
869,0,,,,,,,,,,,,,,,,,3240,0,,,,,,,
871,0,,,,,,,,,,,,,,,,,3240,0,,,,,,,
873,0,3.93,3.6,3.95,3.68,4.89,0.55,1.45,1.85,,-0.04,-0.21,0.95,-20,6,16,0.22,3240,0,,,,,,,
875,0,,,,,,,,,,,,,,,,,3240,0,,,,,,,
877,0,,,,,,,,,,,,,,,,,3240,0,,,,,,,
879,0,,,,,,,,,,,,,,,,,3240,0,,,,,,,
881,0,,,,,,,,,,,,,,,,,3240,0,,,,,,,
883,0,3.97,3.66,4.0,3.72,0.02,0.35,1.5,1.87,,0.09,-0.22,0.74,-19,11,16,0.24,3180,0,0.0,0.0,0.0,0.0,0,0,0.0
885,0,,,,,,,,,,,,,,,,,3180,0,,,,,,,
887,0,,,,,,,,,,,,,,,,,3180,0,,,,,,,
889,0,,,,,,,,,,,,,,,,,3180,0,,,,,,,
891,0,,,,,,,,,,,,,,,,,3180,0,,,,,,,
893,0,3.92,3.63,3.95,3.66,0.02,0.37,1.18,1.83,,0.08,-0.28,0.66,-18,4,17,0.29,3180,0,,,,,,,
895,0,,,,,,,,,,,,,,,,,3180,0,,,,,,,
897,0,,,,,,,,,,,,,,,,,3180,0,,,,,,,
899,0,,,,,,,,,,,,,,,,,3180,0,,,,,,,
901,0,,,,,,,,,,,,,,,,,3240,0,,,,,,,
903,0,3.93,3.65,3.94,3.67,4.88,0.61,0.93,1.79,,0.27,-0.36,0.86,-16,17,11,0.45,3240,0,,,,,,,
905,0,,,,,,,,,,,,,,,,,3240,0,,,,,,,
907,0,,,,,,,,,,,,,,,,,3240,0,,,,,,,
909,0,,,,,,,,,,,,,,,,,3240,0,,,,,,,
911,0,,,,,,,,,,,,,,,,,3240,0,,,,,,,
913,0,3.98,3.7,3.99,3.73,0.02,0.54,0.67,1.8,,-0.04,-0.39,0.68,-15,-3,11,0.39,3240,0,,,,,,,
915,0,,,,,,,,,,,,,,,,,3240,0,,,,,,,
917,0,,,,,,,,,,,,,,,,,3240,0,,,,,,,
919,0,,,,,,,,,,,,,,,,,3180,0,,,,,,,
921,0,,,,,,,,,,,,,,,,,3180,0,,,,,,,
923,0,3.93,3.64,3.94,3.69,4.9,0.73,0.37,1.74,,0.23,-0.73,0.94,-16,28,-1,0.76,3180,0,0.0,0.0,0.0,0.0,0,0,0.0
925,0,,,,,,,,,,,,,,,,,3180,0,,,,,,,
927,0,,,,,,,,,,,,,,,,,3180,0,,,,,,,
929,0,,,,,,,,,,,,,,,,,3180,0,,,,,,,
931,0,,,,,,,,,,,,,,,,,3180,0,,,,,,,
933,0,3.96,3.64,3.97,3.72,4.93,0.6,0.46,1.77,,0.2,-0.83,1.32,-16,3,-9,0.85,3180,0,,,,,,,
935,0,,,,,,,,,,,,,,,,,3180,0,,,,,,,
937,0,,,,,,,,,,,,,,,,,3180,0,,,,,,,
939,0,,,,,,,,,,,,,,,,,3240,0,,,,,,,
941,0,,,,,,,,,,,,,,,,,3240,0,,,,,,,
943,0,3.96,3.59,3.95,3.7,0.02,0.52,0.45,1.79,,0.22,-0.93,1.31,-17,8,-17,0.95,3240,0,,,,,,,
945,0,,,,,,,,,,,,,,,,,3240,0,,,,,,,
947,0,,,,,,,,,,,,,,,,,3240,0,,,,,,,
949,0,,,,,,,,,,,,,,,,,3240,0,,,,,,,
951,0,,,,,,,,,,,,,,,,,3240,0,,,,,,,
953,0,3.94,3.54,3.96,3.72,4.91,0.55,0.49,1.79,,0.02,-0.76,1.39,-19,-2,-24,0.76,3240,0,,,,,,,
955,0,,,,,,,,,,,,,,,,,3240,0,,,,,,,
957,0,,,,,,,,,,,,,,,,,3120,0,,,,,,,
959,0,,,,,,,,,,,,,,,,,3120,0,,,,,,,
961,0,,,,,,,,,,,,,,,,,3120,0,,,,,,,
963,0,3.95,3.49,3.97,3.72,4.93,0.39,0.54,1.82,,0.19,-0.56,1.47,-21,1,-30,0.59,3120,0,0.0,0.0,0.0,0.0,0,0,0.0
965,0,,,,,,,,,,,,,,,,,3120,0,,,,,,,
967,0,,,,,,,,,,,,,,,,,3120,0,,,,,,,
969,0,,,,,,,,,,,,,,,,,3120,0,,,,,,,
971,0,,,,,,,,,,,,,,,,,3120,0,,,,,,,
973,0,3.95,3.47,3.96,3.71,0.02,0.33,0.49,1.84,,0.11,-0.15,1.32,-22,-11,-25,0.18,3120,0,,,,,,,
975,0,,,,,,,,,,,,,,,,,3120,0,,,,,,,
977,0,,,,,,,,,,,,,,,,,3060,0,,,,,,,
979,0,,,,,,,,,,,,,,,,,3060,0,,,,,,,
981,0,,,,,,,,,,,,,,,,,3060,0,,,,,,,
983,0,3.94,3.46,3.98,3.71,4.93,0.25,0.47,1.85,,0.08,0.08,1.21,-22,-7,-19,0.11,3060,0,,,,,,,
985,0,,,,,,,,,,,,,,,,,3060,0,,,,,,,
987,0,,,,,,,,,,,,,,,,,3060,0,,,,,,,
989,0,,,,,,,,,,,,,,,,,3060,0,,,,,,,
991,0,,,,,,,,,,,,,,,,,3060,0,,,,,,,
993,0,3.95,3.48,3.99,3.72,4.92,0.28,0.87,1.86,,0.03,0.07,0.95,-21,-15,-6,0.08,3060,0,,,,,,,
995,0,,,,,,,,,,,,,,,,,3060,0,,,,,,,
997,0,,,,,,,,,,,,,,,,,3000,0,,,,,,,
999,0,,,,,,,,,,,,,,,,,3000,0,,,,,,,
1001,0,,,,,,,,,,,,,,,,,3000,0,,,,,,,
1003,0,3.97,3.49,4.03,3.72,4.95,0.27,1.08,1.86,,0.06,-0.03,0.93,-21,-4,-1,0.07,3000,0,0.0,0.0,0.0,0.0,0,0,0.0
1005,0,,,,,,,,,,,,,,,,,3000,0,,,,,,,
1007,0,,,,,,,,,,,,,,,,,3000,0,,,,,,,
1009,0,,,,,,,,,,,,,,,,,3000,0,,,,,,,
1011,0,,,,,,,,,,,,,,,,,3000,0,,,,,,,
1013,0,3.93,3.47,3.98,3.67,4.88,0.42,1.36,1.8,,0.05,0.12,0.56,-21,-17,12,0.13,3000,0,,,,,,,
1015,0,,,,,,,,,,,,,,,,,3000,0,,,,,,,
1017,0,,,,,,,,,,,,,,,,,3000,0,,,,,,,
1019,0,,,,,,,,,,,,,,,,,2940,0,,,,,,,
1021,0,,,,,,,,,,,,,,,,,2940,0,,,,,,,
1023,0,3.98,3.53,4.03,3.73,4.93,0.5,1.56,1.82,,0.06,-0.07,0.58,-21,0,17,0.09,2940,0,,,,,,,
1025,0,,,,,,,,,,,,,,,,,2940,0,,,,,,,
1027,0,,,,,,,,,,,,,,,,,2940,0,,,,,,,
1029,0,,,,,,,,,,,,,,,,,2940,0,,,,,,,
1031,0,,,,,,,,,,,,,,,,,2940,0,,,,,,,
1033,0,3.93,3.49,3.98,3.67,4.88,0.42,1.77,1.76,,0.03,0.02,0.26,-21,-12,24,0.03,2940,0,,,,,,,
1035,0,,,,,,,,,,,,,,,,,2940,0,,,,,,,
1037,0,,,,,,,,,,,,,,,,,2940,0,,,,,,,
1039,0,,,,,,,,,,,,,,,,,2880,0,,,,,,,
1041,0,,,,,,,,,,,,,,,,,2880,0,,,,,,,
1043,0,3.97,3.56,4.02,3.73,4.92,0.48,1.98,1.76,13.47,0.09,-0.22,0.52,-20,10,23,0.23,2880,0,0.0,0.0,0.0,0.0,0,0,0.0
1045,0,,,,,,,,,,,,,,,,,2880,0,,,,,,,
1047,0,,,,,,,,,,,,,,,,,2880,0,,,,,,,
1049,0,,,,,,,,,,,,,,,,,2880,0,,,,,,,
1051,0,,,,,,,,,,,,,,,,,2880,0,,,,,,,
1053,0,3.97,3.58,4.03,3.75,0.02,0.31,1.95,1.74,,0.05,-0.4,0.58,-19,-12,20,0.41,2880,0,,,,,,,
1055,0,,,,,,,,,,,,,,,,,2880,0,,,,,,,
1057,0,,,,,,,,,,,,,,,,,2880,0,,,,,,,
1059,0,,,,,,,,,,,,,,,,,2880,0,,,,,,,
1061,0,,,,,,,,,,,,,,,,,2880,0,,,,,,,
1063,0,3.96,3.6,4.03,3.75,4.92,0.57,2.11,1.71,,0.06,-0.6,0.67,-19,9,10,0.6,2880,0,,,,,,,
1065,0,,,,,,,,,,,,,,,,,2880,0,,,,,,,
1067,0,,,,,,,,,,,,,,,,,2880,0,,,,,,,
1069,0,,,,,,,,,,,,,,,,,2880,0,,,,,,,
1071,0,,,,,,,,,,,,,,,,,2880,0,,,,,,,
1073,0,3.95,3.6,4.01,3.7,4.91,0.52,1.95,1.7,,-0.19,-0.43,0.7,-19,-2,5,0.47,2880,0,,,,,,,
1075,0,,,,,,,,,,,,,,,,,2880,0,,,,,,,
1077,0,,,,,,,,,,,,,,,,,2880,0,,,,,,,
1079,0,,,,,,,,,,,,,,,,,2880,0,,,,,,,
1081,0,,,,,,,,,,,,,,,,,2820,0,,,,,,,
1083,0,3.95,3.58,3.99,3.71,0.02,0.33,1.84,1.7,,-0.19,-0.49,0.85,-20,7,1,0.53,2820,0,0.0,0.0,0.0,0.0,0,0,0.0
1085,0,,,,,,,,,,,,,,,,,2820,0,,,,,,,
1087,0,,,,,,,,,,,,,,,,,2820,0,,,,,,,
1089,0,,,,,,,,,,,,,,,,,2820,0,,,,,,,
1091,0,,,,,,,,,,,,,,,,,2820,0,,,,,,,
1093,0,3.92,3.57,3.99,3.7,0.02,0.37,1.6,1.71,,-0.33,-0.58,0.95,-20,2,-2,0.66,2820,0,,,,,,,
1095,0,,,,,,,,,,,,,,,,,2820,0,,,,,,,
1097,0,,,,,,,,,,,,,,,,,2820,0,,,,,,,
1099,0,,,,,,,,,,,,,,,,,2820,0,,,,,,,
1101,0,,,,,,,,,,,,,,,,,2820,0,,,,,,,
1103,0,3.92,3.56,3.99,3.69,0.02,0.39,1.27,1.73,,-0.28,-0.62,1.03,-21,10,-5,0.68,2760,0,,,,,,,
1105,0,,,,,,,,,,,,,,,,,2760,0,,,,,,,
1107,0,,,,,,,,,,,,,,,,,2760,0,,,,,,,
1109,0,,,,,,,,,,,,,,,,,2760,0,,,,,,,
1111,0,,,,,,,,,,,,,,,,,2760,0,,,,,,,
1113,0,3.96,3.56,4.02,3.72,0.02,0.44,0.27,1.75,,-0.41,-0.55,1.21,-21,7,-6,0.69,2760,0,,,,,,,
1115,0,,,,,,,,,,,,,,,,,2760,0,,,,,,,
1117,0,,,,,,,,,,,,,,,,,2760,0,,,,,,,
1119,0,,,,,,,,,,,,,,,,,2760,0,,,,,,,
1121,0,,,,,,,,,,,,,,,,,2760,0,,,,,,,
1123,0,3.91,3.5,3.98,3.68,4.91,0.51,0.47,1.73,,-0.31,-0.51,1.2,-22,16,-7,0.6,2760,0,0.0,0.0,0.0,0.0,0,0,0.0
1125,0,,,,,,,,,,,,,,,,,2760,0,,,,,,,
1127,0,,,,,,,,,,,,,,,,,2760,0,,,,,,,
1129,0,,,,,,,,,,,,,,,,,2760,0,,,,,,,
1131,0,,,,,,,,,,,,,,,,,2760,0,,,,,,,
1133,0,3.93,3.5,4.0,3.69,4.92,0.52,0.43,1.78,,-0.31,-0.46,1.22,-22,6,-3,0.56,2760,0,,,,,,,
1135,0,,,,,,,,,,,,,,,,,2760,0,,,,,,,
1137,0,,,,,,,,,,,,,,,,,2760,0,,,,,,,
1139,0,,,,,,,,,,,,,,,,,2760,0,,,,,,,
1141,0,,,,,,,,,,,,,,,,,2760,0,,,,,,,
1143,0,3.93,3.49,4.02,3.71,0.02,0.24,0.67,1.8,,-0.24,-0.51,1.33,-22,14,-4,0.56,2760,0,,,,,,,
1145,0,,,,,,,,,,,,,,,,,2760,0,,,,,,,
1147,0,,,,,,,,,,,,,,,,,2700,0,,,,,,,
1149,0,,,,,,,,,,,,,,,,,2700,0,,,,,,,
1151,0,,,,,,,,,,,,,,,,,2700,0,,,,,,,
1153,0,3.93,3.47,4.02,3.72,0.02,0.51,0.56,1.81,,-0.22,-0.46,1.4,-22,7,-4,0.5,2700,0,,,,,,,
1155,0,,,,,,,,,,,,,,,,,2700,0,,,,,,,
1157,0,,,,,,,,,,,,,,,,,2700,0,,,,,,,
1159,0,,,,,,,,,,,,,,,,,2700,0,,,,,,,
1161,0,,,,,,,,,,,,,,,,,2700,0,,,,,,,
1163,0,3.9,3.44,4.0,3.69,0.02,0.45,0.76,1.81,,-0.13,-0.22,0.99,-21,13,1,0.25,2700,0,0.0,0.0,0.0,0.0,0,0,0.0
1165,0,,,,,,,,,,,,,,,,,2700,0,,,,,,,
1167,0,,,,,,,,,,,,,,,,,2700,0,,,,,,,
1169,0,,,,,,,,,,,,,,,,,2700,0,,,,,,,
1171,0,,,,,,,,,,,,,,,,,2700,0,,,,,,,
1173,0,3.93,3.48,4.04,3.72,0.02,0.48,0.89,1.82,,-0.06,-0.18,1.08,-21,9,3,0.19,2700,0,,,,,,,
1175,0,,,,,,,,,,,,,,,,,2700,0,,,,,,,
1177,0,,,,,,,,,,,,,,,,,2700,0,,,,,,,
1179,0,,,,,,,,,,,,,,,,,2700,0,,,,,,,
1181,0,,,,,,,,,,,,,,,,,2700,0,,,,,,,
1183,0,3.89,3.43,4.0,3.67,0.02,0.51,0.98,1.78,,-0.01,-0.19,0.87,-21,15,5,0.19,2700,0,,,,,,,
1185,0,,,,,,,,,,,,,,,,,2700,0,,,,,,,
1187,0,,,,,,,,,,,,,,,,,2700,0,,,,,,,
1189,0,,,,,,,,,,,,,,,,,2700,0,,,,,,,
1191,0,,,,,,,,,,,,,,,,,2700,0,,,,,,,
1193,0,3.94,3.49,4.05,3.73,0.02,0.63,1.1,1.82,,0.07,-0.38,1.01,-21,10,3,0.39,2700,0,,,,,,,
1195,0,,,,,,,,,,,,,,,,,2700,0,,,,,,,
1197,0,,,,,,,,,,,,,,,,,2700,0,,,,,,,
1199,0,,,,,,,,,,,,,,,,,2700,0,,,,,,,
1201,0,,,,,,,,,,,,,,,,,2700,0,,,,,,,
1203,0,3.9,3.45,4.01,3.72,0.02,0.59,1.02,1.79,,0.02,-0.45,0.86,-21,15,1,0.45,2700,0,0.0,0.0,0.0,0.0,0,0,0.0
1205,0,,,,,,,,,,,,,,,,,2700,0,,,,,,,
1207,0,,,,,,,,,,,,,,,,,2700,0,,,,,,,
1209,0,,,,,,,,,,,,,,,,,2700,0,,,,,,,
1211,0,,,,,,,,,,,,,,,,,2700,0,,,,,,,
1213,0,3.9,3.46,4.05,3.73,4.91,0.64,0.42,1.79,,-0.03,-0.55,1.23,-22,14,-4,0.55,2700,0,,,,,,,
1215,0,,,,,,,,,,,,,,,,,2700,0,,,,,,,
1217,0,,,,,,,,,,,,,,,,,2700,0,,,,,,,
1219,0,,,,,,,,,,,,,,,,,2700,0,,,,,,,
1221,0,,,,,,,,,,,,,,,,,2700,0,,,,,,,
1223,0,3.92,3.49,4.07,3.75,0.02,0.51,0.31,1.81,,0.07,-0.51,1.03,-23,1,-8,0.51,2700,0,,,,,,,
1225,0,,,,,,,,,,,,,,,,,2700,0,,,,,,,
1227,0,,,,,,,,,,,,,,,,,2700,0,,,,,,,
1229,0,,,,,,,,,,,,,,,,,2700,0,,,,,,,
1231,0,,,,,,,,,,,,,,,,,2700,0,,,,,,,
1233,0,3.9,3.47,4.05,3.72,0.02,0.47,0.17,1.78,,-0.02,-0.6,1.24,-24,6,-12,0.6,2700,0,,,,,,,
1235,0,,,,,,,,,,,,,,,,,2700,0,,,,,,,
1237,0,,,,,,,,,,,,,,,,,2700,0,,,,,,,
1239,0,,,,,,,,,,,,,,,,,2700,0,,,,,,,
1241,0,,,,,,,,,,,,,,,,,2700,0,,,,,,,
1243,0,3.93,3.5,4.08,3.75,4.94,0.53,0.2,1.82,,-0.02,-0.37,1.02,-24,-11,-14,0.37,2700,0,0.0,0.0,0.0,0.0,0,0,0.0
1245,0,,,,,,,,,,,,,,,,,2700,0,,,,,,,
1247,0,,,,,,,,,,,,,,,,,2700,0,,,,,,,
1249,0,,,,,,,,,,,,,,,,,2700,0,,,,,,,
1251,0,,,,,,,,,,,,,,,,,2700,0,,,,,,,
1253,0,3.9,3.46,4.03,3.69,0.02,0.48,0.49,1.78,,-0.08,-0.24,0.93,-24,4,-13,0.25,2700,0,,,,,,,
1255,0,,,,,,,,,,,,,,,,,2700,0,,,,,,,
1257,0,,,,,,,,,,,,,,,,,2700,0,,,,,,,
1259,0,,,,,,,,,,,,,,,,,2640,0,,,,,,,
1261,0,,,,,,,,,,,,,,,,,2640,0,,,,,,,
1263,0,3.96,3.5,4.07,3.74,0.02,0.37,0.65,1.8,,-0.1,-0.08,0.82,-24,-17,-6,0.13,2640,0,,,,,,,
1265,0,,,,,,,,,,,,,,,,,2640,0,,,,,,,
1267,0,,,,,,,,,,,,,,,,,2640,0,,,,,,,
1269,0,,,,,,,,,,,,,,,,,2640,0,,,,,,,
1271,0,,,,,,,,,,,,,,,,,2640,0,,,,,,,
1273,0,3.92,3.45,4.03,3.71,0.02,0.32,1.14,1.77,,-0.16,0.0,0.5,-24,2,1,0.16,2640,0,,,,,,,
1275,0,,,,,,,,,,,,,,,,,2640,0,,,,,,,
1277,0,,,,,,,,,,,,,,,,,2640,0,,,,,,,
1279,0,,,,,,,,,,,,,,,,,2640,0,,,,,,,
1281,0,,,,,,,,,,,,,,,,,2640,0,,,,,,,
1283,0,3.98,3.51,4.07,3.74,0.02,0.32,1.37,1.81,,-0.15,0.04,0.77,-24,-9,8,0.16,2640,0,0.0,0.0,0.0,0.0,0,0,0.0
1285,0,,,,,,,,,,,,,,,,,2640,0,,,,,,,
1287,0,,,,,,,,,,,,,,,,,2640,0,,,,,,,
1289,0,,,,,,,,,,,,,,,,,2640,0,,,,,,,
1291,0,,,,,,,,,,,,,,,,,2640,0,,,,,,,
1293,0,3.96,3.49,4.07,3.73,0.02,0.15,1.69,1.79,,-0.2,-0.04,0.45,-23,2,14,0.21,2640,0,,,,,,,
1295,0,,,,,,,,,,,,,,,,,2640,0,,,,,,,
1297,0,,,,,,,,,,,,,,,,,2640,0,,,,,,,
1299,0,,,,,,,,,,,,,,,,,2640,0,,,,,,,
1301,0,,,,,,,,,,,,,,,,,2640,0,,,,,,,
1303,0,3.95,3.47,4.05,3.76,4.91,0.36,1.77,1.78,,-0.27,-0.3,0.94,-23,10,17,0.4,2640,0,,,,,,,
1305,0,,,,,,,,,,,,,,,,,2640,0,,,,,,,
1307,0,,,,,,,,,,,,,,,,,2640,0,,,,,,,
1309,0,,,,,,,,,,,,,,,,,2640,0,,,,,,,
1311,0,,,,,,,,,,,,,,,,,2640,0,,,,,,,
1313,0,3.93,3.51,4.08,3.73,0.02,0.37,1.58,1.78,,-0.17,-0.5,1.06,-23,3,14,0.53,2640,0,,,,,,,
1315,0,,,,,,,,,,,,,,,,,2640,0,,,,,,,
1317,0,,,,,,,,,,,,,,,,,2640,0,,,,,,,
1319,0,,,,,,,,,,,,,,,,,2640,0,,,,,,,
1321,0,,,,,,,,,,,,,,,,,2640,0,,,,,,,
1323,0,3.91,3.48,4.06,3.72,0.01,0.44,1.19,1.79,,-0.05,-0.61,1.07,-22,-1,11,0.61,2640,0,0.0,0.0,0.0,0.0,0,0,0.0
1325,0,,,,,,,,,,,,,,,,,2640,0,,,,,,,
1327,0,,,,,,,,,,,,,,,,,2640,0,,,,,,,
1329,0,,,,,,,,,,,,,,,,,2640,0,,,,,,,
1331,0,,,,,,,,,,,,,,,,,2640,0,,,,,,,
1333,0,3.92,3.49,4.07,3.74,4.93,0.41,0.16,1.8,,-0.07,-0.59,1.27,-22,-5,4,0.59,2640,0,,,,,,,
1335,0,,,,,,,,,,,,,,,,,2640,0,,,,,,,
1337,0,,,,,,,,,,,,,,,,,2640,0,,,,,,,
1339,0,,,,,,,,,,,,,,,,,2640,0,,,,,,,
1341,0,,,,,,,,,,,,,,,,,2640,0,,,,,,,
1343,0,3.92,3.49,4.07,3.75,0.02,0.37,0.03,1.8,,-0.13,-0.54,1.13,-21,-7,1,0.55,2640,0,,,,,,,
1345,0,,,,,,,,,,,,,,,,,2640,0,,,,,,,
1347,0,,,,,,,,,,,,,,,,,2640,0,,,,,,,
1349,0,,,,,,,,,,,,,,,,,2640,0,,,,,,,
1351,0,,,,,,,,,,,,,,,,,2640,0,,,,,,,
1353,0,3.93,3.49,4.07,3.75,0.02,0.41,0.2,1.8,,0.03,-0.56,1.23,-22,-4,-4,0.56,2640,0,,,,,,,
1355,0,,,,,,,,,,,,,,,,,2640,0,,,,,,,
1357,0,,,,,,,,,,,,,,,,,2640,0,,,,,,,
1359,0,,,,,,,,,,,,,,,,,2640,0,,,,,,,
1361,0,,,,,,,,,,,,,,,,,2640,0,,,,,,,
1363,0,3.89,3.46,4.04,3.71,0.02,0.44,0.37,1.8,,-0.1,-0.48,1.19,-21,-14,-6,0.49,2640,0,0.0,0.0,0.0,0.0,0,0,0.0
1365,0,,,,,,,,,,,,,,,,,2640,0,,,,,,,
1367,0,,,,,,,,,,,,,,,,,2640,0,,,,,,,
1369,0,,,,,,,,,,,,,,,,,2640,0,,,,,,,
1371,0,,,,,,,,,,,,,,,,,2640,0,,,,,,,
1373,0,3.88,3.47,4.05,3.72,0.02,0.44,0.33,1.8,,-0.05,-0.4,1.14,-21,-5,-7,0.4,2640,0,,,,,,,
1375,0,,,,,,,,,,,,,,,,,2640,0,,,,,,,
1377,0,,,,,,,,,,,,,,,,,2640,0,,,,,,,
1379,0,,,,,,,,,,,,,,,,,2640,0,,,,,,,
1381,0,,,,,,,,,,,,,,,,,2640,0,,,,,,,
1383,0,3.88,3.47,4.05,3.72,4.92,0.39,0.32,1.78,,-0.21,-0.41,1.16,-21,-11,-12,0.46,2640,0,,,,,,,
1385,0,,,,,,,,,,,,,,,,,2640,0,,,,,,,
1387,0,,,,,,,,,,,,,,,,,2640,0,,,,,,,
1389,0,,,,,,,,,,,,,,,,,2640,0,,,,,,,
1391,0,,,,,,,,,,,,,,,,,2640,0,,,,,,,
1393,0,3.87,3.46,4.03,3.69,4.88,0.37,0.35,1.78,,-0.1,-0.35,1.08,-21,-6,-14,0.37,2640,0,,,,,,,
1395,0,,,,,,,,,,,,,,,,,2580,0,,,,,,,
1397,0,,,,,,,,,,,,,,,,,2580,0,,,,,,,
1399,0,,,,,,,,,,,,,,,,,2580,0,,,,,,,
1401,0,,,,,,,,,,,,,,,,,2580,0,,,,,,,
1403,0,3.91,3.51,4.07,3.74,0.02,0.36,0.41,1.8,,-0.1,-0.33,0.99,-20,-12,-16,0.34,2580,0,0.0,0.0,0.0,0.0,0,0,0.0
1405,0,,,,,,,,,,,,,,,,,2580,0,,,,,,,
1407,0,,,,,,,,,,,,,,,,,2580,0,,,,,,,
1409,0,,,,,,,,,,,,,,,,,2580,0,,,,,,,
1411,0,,,,,,,,,,,,,,,,,2580,0,,,,,,,
1413,0,3.91,3.52,4.05,3.71,4.92,0.45,0.89,1.79,,-0.12,-0.13,0.63,-19,-7,-14,0.18,2580,0,,,,,,,
1415,0,,,,,,,,,,,,,,,,,2580,0,,,,,,,
1417,0,,,,,,,,,,,,,,,,,2580,0,,,,,,,
1419,0,,,,,,,,,,,,,,,,,2580,0,,,,,,,
1421,0,,,,,,,,,,,,,,,,,2580,0,,,,,,,
1423,0,3.91,3.54,4.07,3.73,4.92,0.46,1.11,1.79,,-0.2,0.01,0.78,-19,-7,-11,0.2,2580,0,,,,,,,
1425,0,,,,,,,,,,,,,,,,,2580,0,,,,,,,
1427,0,,,,,,,,,,,,,,,,,2580,0,,,,,,,
1429,0,,,,,,,,,,,,,,,,,2580,0,,,,,,,
1431,0,,,,,,,,,,,,,,,,,2580,0,,,,,,,
1433,0,3.95,3.56,4.09,3.74,0.02,0.33,1.44,1.79,,-0.17,0.06,0.35,-18,-6,-2,0.18,2580,0,,,,,,,
1435,0,,,,,,,,,,,,,,,,,2580,0,,,,,,,
1437,0,,,,,,,,,,,,,,,,,2580,0,,,,,,,
1439,0,,,,,,,,,,,,,,,,,2580,0,,,,,,,
1441,0,,,,,,,,,,,,,,,,,2580,0,,,,,,,
1443,0,3.93,3.57,4.08,3.72,0.02,0.38,1.66,1.8,,-0.19,-0.03,0.6,-17,5,4,0.19,2580,0,0.0,0.0,0.0,0.0,0,0,0.0
1445,0,,,,,,,,,,,,,,,,,2580,0,,,,,,,
1447,0,,,,,,,,,,,,,,,,,2580,0,,,,,,,
1449,0,,,,,,,,,,,,,,,,,2580,0,,,,,,,
1451,0,,,,,,,,,,,,,,,,,2580,0,,,,,,,
1453,0,3.96,3.59,4.09,3.74,0.02,0.24,1.94,1.79,,-0.28,-0.01,0.44,-17,2,10,0.29,2580,0,,,,,,,
1455,0,,,,,,,,,,,,,,,,,2580,0,,,,,,,
1457,0,,,,,,,,,,,,,,,,,2580,0,,,,,,,
1459,0,,,,,,,,,,,,,,,,,2580,0,,,,,,,
1461,0,,,,,,,,,,,,,,,,,2580,0,,,,,,,
1463,0,3.91,3.55,4.03,3.69,0.02,0.3,1.97,1.76,,-0.23,-0.24,0.75,-16,16,14,0.33,2580,0,,,,,,,
1465,0,,,,,,,,,,,,,,,,,2580,0,,,,,,,
1467,0,,,,,,,,,,,,,,,,,2580,0,,,,,,,
1469,0,,,,,,,,,,,,,,,,,2580,0,,,,,,,
1471,0,,,,,,,,,,,,,,,,,2580,0,,,,,,,
1473,0,3.91,3.54,4.03,3.7,4.89,0.44,1.88,1.77,,-0.21,-0.39,0.78,-16,10,16,0.45,2580,0,,,,,,,
1475,0,,,,,,,,,,,,,,,,,2580,0,,,,,,,
1477,0,,,,,,,,,,,,,,,,,2580,0,,,,,,,
1479,0,,,,,,,,,,,,,,,,,2580,0,,,,,,,
1481,0,,,,,,,,,,,,,,,,,2580,0,,,,,,,
1483,0,3.91,3.55,4.03,3.68,0.02,0.36,1.73,1.77,,-0.23,-0.54,1.05,-16,14,14,0.59,2580,0,0.0,0.0,0.0,0.0,0,0,0.0
1485,0,,,,,,,,,,,,,,,,,2580,0,,,,,,,
1487,0,,,,,,,,,,,,,,,,,2580,0,,,,,,,
1489,0,,,,,,,,,,,,,,,,,2580,0,,,,,,,
1491,0,,,,,,,,,,,,,,,,,2580,0,,,,,,,
1493,0,3.95,3.57,4.09,3.74,0.02,0.36,1.43,1.81,,-0.08,-0.61,1.08,-15,11,10,0.62,2580,0,,,,,,,
1495,0,,,,,,,,,,,,,,,,,2580,0,,,,,,,
1497,0,,,,,,,,,,,,,,,,,2580,0,,,,,,,
1499,0,,,,,,,,,,,,,,,,,2580,0,,,,,,,
1501,0,,,,,,,,,,,,,,,,,2580,0,,,,,,,
1503,0,3.94,3.56,4.08,3.74,0.02,0.37,0.94,1.81,,-0.16,-0.59,1.27,-16,15,7,0.62,2580,0,,,,,,,
1505,0,,,,,,,,,,,,,,,,,2580,0,,,,,,,
1507,0,,,,,,,,,,,,,,,,,2580,0,,,,,,,
1509,0,,,,,,,,,,,,,,,,,2580,0,,,,,,,
1511,0,,,,,,,,,,,,,,,,,2520,0,,,,,,,
1513,0,3.94,3.55,4.07,3.73,0.02,0.32,0.25,1.82,,-0.13,-0.6,1.24,-16,3,4,0.62,2520,0,,,,,,,
1515,0,,,,,,,,,,,,,,,,,2520,0,,,,,,,
1517,0,,,,,,,,,,,,,,,,,2520,0,,,,,,,
1519,0,,,,,,,,,,,,,,,,,2520,0,,,,,,,
1521,0,,,,,,,,,,,,,,,,,2520,0,,,,,,,
1523,0,3.94,3.54,4.07,3.73,0.02,0.38,0.2,1.82,,-0.15,-0.54,1.11,-17,18,-1,0.56,2520,0,0.0,0.0,0.0,0.0,0,0,0.0
1525,0,,,,,,,,,,,,,,,,,2520,0,,,,,,,
1527,0,,,,,,,,,,,,,,,,,2520,0,,,,,,,
1529,0,,,,,,,,,,,,,,,,,2520,0,,,,,,,
1531,0,,,,,,,,,,,,,,,,,2520,0,,,,,,,
1533,0,3.95,3.54,4.08,3.74,4.93,0.49,0.56,1.82,,-0.18,-0.54,1.3,-16,10,-5,0.57,2520,0,,,,,,,
1535,0,,,,,,,,,,,,,,,,,2520,0,,,,,,,
1537,0,,,,,,,,,,,,,,,,,2520,0,,,,,,,
1539,0,,,,,,,,,,,,,,,,,2520,0,,,,,,,
1541,0,,,,,,,,,,,,,,,,,2520,0,,,,,,,
1543,0,3.94,3.53,4.08,3.74,4.93,0.43,0.61,1.81,,-0.07,-0.41,1.14,-17,14,-8,0.42,2520,0,,,,,,,
1545,0,,,,,,,,,,,,,,,,,2520,0,,,,,,,
1547,0,,,,,,,,,,,,,,,,,2520,0,,,,,,,
1549,0,,,,,,,,,,,,,,,,,2520,0,,,,,,,
1551,0,,,,,,,,,,,,,,,,,2520,0,,,,,,,
1553,0,3.93,3.53,4.08,3.74,0.02,0.38,0.38,1.81,,-0.17,-0.37,1.27,-17,5,-12,0.4,2520,0,,,,,,,
1555,0,,,,,,,,,,,,,,,,,2520,0,,,,,,,
1557,0,,,,,,,,,,,,,,,,,2520,0,,,,,,,
1559,0,,,,,,,,,,,,,,,,,2520,0,,,,,,,
1561,0,,,,,,,,,,,,,,,,,2520,0,,,,,,,
1563,0,3.93,3.52,4.07,3.73,4.91,0.53,0.26,1.8,,0.15,-0.33,0.97,-18,9,-14,0.36,2520,0,0.0,0.0,0.0,0.0,0,0,0.0
1565,0,,,,,,,,,,,,,,,,,2520,0,,,,,,,
1567,0,,,,,,,,,,,,,,,,,2520,0,,,,,,,
1569,0,,,,,,,,,,,,,,,,,2520,0,,,,,,,
1571,0,,,,,,,,,,,,,,,,,2520,0,,,,,,,
1573,0,3.93,3.52,4.07,3.73,4.91,0.51,0.4,1.8,,-0.06,-0.42,1.13,-18,4,-15,0.42,2520,0,,,,,,,
1575,0,,,,,,,,,,,,,,,,,2520,0,,,,,,,
1577,0,,,,,,,,,,,,,,,,,2520,0,,,,,,,
1579,0,,,,,,,,,,,,,,,,,2520,0,,,,,,,
1581,0,,,,,,,,,,,,,,,,,2520,0,,,,,,,
1583,0,3.94,3.52,4.09,3.74,0.02,0.49,0.72,1.82,,0.05,-0.3,0.92,-19,2,-14,0.3,2520,0,,,,,,,
1585,0,,,,,,,,,,,,,,,,,2520,0,,,,,,,
1587,0,,,,,,,,,,,,,,,,,2520,0,,,,,,,
1589,0,,,,,,,,,,,,,,,,,2520,0,,,,,,,
1591,0,,,,,,,,,,,,,,,,,2520,0,,,,,,,
1593,0,3.91,3.49,4.06,3.72,4.91,0.36,1.09,1.79,,-0.04,-0.22,1.04,-20,6,-16,0.22,2520,0,,,,,,,
1595,0,,,,,,,,,,,,,,,,,2520,0,,,,,,,
1597,0,,,,,,,,,,,,,,,,,2520,0,,,,,,,
1599,0,,,,,,,,,,,,,,,,,2520,0,,,,,,,
1601,0,,,,,,,,,,,,,,,,,2520,0,,,,,,,
1603,0,3.93,3.5,4.08,3.75,0.02,0.39,1.34,1.81,,0.05,-0.18,0.88,-21,-5,-11,0.18,2520,0,0.0,0.0,0.0,0.0,0,0,0.0
1605,0,,,,,,,,,,,,,,,,,2520,0,,,,,,,
1607,0,,,,,,,,,,,,,,,,,2460,0,,,,,,,
1609,0,,,,,,,,,,,,,,,,,2460,0,,,,,,,
1611,0,,,,,,,,,,,,,,,,,2460,0,,,,,,,
1613,0,3.93,3.5,4.06,3.71,0.02,0.26,1.47,1.8,,0.04,-0.22,0.87,-22,-1,-7,0.22,2460,0,,,,,,,
1615,0,,,,,,,,,,,,,,,,,2460,0,,,,,,,
1617,0,,,,,,,,,,,,,,,,,2460,0,,,,,,,
1619,0,,,,,,,,,,,,,,,,,2460,0,,,,,,,
1621,0,,,,,,,,,,,,,,,,,2460,0,,,,,,,
1623,0,3.95,3.48,4.06,3.72,0.02,0.31,1.66,1.81,,-0.06,-0.09,0.76,-23,-14,-3,0.11,2460,0,,,,,,,
1625,0,,,,,,,,,,,,,,,,,2460,0,,,,,,,
1627,0,,,,,,,,,,,,,,,,,2460,0,,,,,,,
1629,0,,,,,,,,,,,,,,,,,2460,0,,,,,,,
1631,0,,,,,,,,,,,,,,,,,2460,0,,,,,,,
1633,0,3.94,3.49,4.07,3.72,0.02,0.3,1.71,1.78,,-0.02,-0.08,0.54,-24,-6,1,0.08,2460,0,,,,,,,
1635,0,,,,,,,,,,,,,,,,,2460,0,,,,,,,
1637,0,,,,,,,,,,,,,,,,,2460,0,,,,,,,
1639,0,,,,,,,,,,,,,,,,,2460,0,,,,,,,
1641,0,,,,,,,,,,,,,,,,,2460,0,,,,,,,
1643,0,3.95,3.51,4.08,3.73,0.02,0.27,1.86,1.78,,-0.11,-0.11,0.68,-24,-3,6,0.15,2460,0,0.0,0.0,0.0,0.0,0,0,0.0
1645,0,,,,,,,,,,,,,,,,,2460,0,,,,,,,
1647,0,,,,,,,,,,,,,,,,,2460,0,,,,,,,
1649,0,,,,,,,,,,,,,,,,,2460,0,,,,,,,
1651,0,,,,,,,,,,,,,,,,,2460,0,,,,,,,
1653,0,3.95,3.52,4.09,3.74,4.9,0.28,2.04,1.8,,-0.09,-0.18,0.87,-24,-4,8,0.2,2460,0,,,,,,,
1655,0,,,,,,,,,,,,,,,,,2460,0,,,,,,,
1657,0,,,,,,,,,,,,,,,,,2460,0,,,,,,,
1659,0,,,,,,,,,,,,,,,,,2460,0,,,,,,,
1661,0,,,,,,,,,,,,,,,,,2460,0,,,,,,,
1663,0,3.95,3.53,4.09,3.74,0.02,0.23,1.9,1.81,,-0.08,-0.23,0.76,-23,-5,11,0.25,2460,0,,,,,,,
1665,0,,,,,,,,,,,,,,,,,2460,0,,,,,,,
1667,0,,,,,,,,,,,,,,,,,2460,0,,,,,,,
1669,0,,,,,,,,,,,,,,,,,2460,0,,,,,,,
1671,0,,,,,,,,,,,,,,,,,2460,0,,,,,,,
1673,0,3.96,3.56,4.11,3.77,0.02,0.18,1.84,1.82,,-0.21,-0.31,0.9,-22,-6,10,0.37,2460,0,,,,,,,
1675,0,,,,,,,,,,,,,,,,,2460,0,,,,,,,
1677,0,,,,,,,,,,,,,,,,,2460,0,,,,,,,
1679,0,,,,,,,,,,,,,,,,,2400,0,,,,,,,
1681,0,,,,,,,,,,,,,,,,,2400,0,,,,,,,
1683,0,3.96,3.58,4.11,3.77,0.02,0.29,1.59,1.8,,-0.14,-0.25,0.73,-20,-8,10,0.29,2400,0,0.0,0.0,0.0,0.0,0,0,0.0
1685,0,,,,,,,,,,,,,,,,,2400,0,,,,,,,
1687,0,,,,,,,,,,,,,,,,,2400,0,,,,,,,
1689,0,,,,,,,,,,,,,,,,,2400,0,,,,,,,
1691,0,,,,,,,,,,,,,,,,,2400,0,,,,,,,
1693,0,3.97,3.59,4.11,3.77,0.02,0.32,1.5,1.8,,-0.23,-0.27,0.72,-19,6,7,0.35,2400,0,,,,,,,
1695,0,,,,,,,,,,,,,,,,,2400,0,,,,,,,
1697,0,,,,,,,,,,,,,,,,,2400,0,,,,,,,
1699,0,,,,,,,,,,,,,,,,,2400,0,,,,,,,
1701,0,,,,,,,,,,,,,,,,,2400,0,,,,,,,
1703,0,3.96,3.6,4.09,3.75,0.02,0.36,1.25,1.77,,-0.23,-0.37,0.71,-17,-6,3,0.44,2460,0,,,,,,,
1705,0,,,,,,,,,,,,,,,,,2460,0,,,,,,,
1707,0,,,,,,,,,,,,,,,,,2460,0,,,,,,,
1709,0,,,,,,,,,,,,,,,,,2460,0,,,,,,,
1711,0,,,,,,,,,,,,,,,,,2460,0,,,,,,,
1713,0,3.96,3.6,4.09,3.75,0.02,0.39,1.1,1.77,,-0.18,-0.28,0.57,-16,11,1,0.34,2460,0,,,,,,,
1715,0,,,,,,,,,,,,,,,,,2460,0,,,,,,,
1717,0,,,,,,,,,,,,,,,,,2460,0,,,,,,,
1719,0,,,,,,,,,,,,,,,,,2460,0,,,,,,,
1721,0,,,,,,,,,,,,,,,,,2460,0,,,,,,,
1723,0,3.94,3.58,4.06,3.72,0.02,0.33,0.81,1.77,,-0.29,-0.49,1.08,-16,6,-3,0.57,2460,0,0.0,0.0,0.0,0.0,0,0,0.0
1725,0,,,,,,,,,,,,,,,,,2460,0,,,,,,,
1727,0,,,,,,,,,,,,,,,,,2460,0,,,,,,,
1729,0,,,,,,,,,,,,,,,,,2460,0,,,,,,,
1731,0,,,,,,,,,,,,,,,,,2460,0,,,,,,,
1733,0,3.94,3.59,4.08,3.74,0.02,0.26,0.37,1.79,,-0.11,-0.62,0.91,-16,2,-7,0.63,2460,0,,,,,,,
1735,0,,,,,,,,,,,,,,,,,2460,0,,,,,,,
1737,0,,,,,,,,,,,,,,,,,2460,0,,,,,,,
1739,0,,,,,,,,,,,,,,,,,2460,0,,,,,,,
1741,0,,,,,,,,,,,,,,,,,2460,0,,,,,,,
1743,0,3.95,3.58,4.09,3.76,0.02,0.36,0.39,1.8,,-0.3,-0.49,1.21,-16,12,-11,0.57,2460,0,,,,,,,
1745,0,,,,,,,,,,,,,,,,,2460,0,,,,,,,
1747,0,,,,,,,,,,,,,,,,,2460,0,,,,,,,
1749,0,,,,,,,,,,,,,,,,,2460,0,,,,,,,
1751,0,,,,,,,,,,,,,,,,,2460,0,,,,,,,
1753,0,3.95,3.58,4.09,3.77,0.02,0.32,0.59,1.81,,-0.22,-0.45,1.02,-16,5,-14,0.5,2400,0,,,,,,,
1755,0,,,,,,,,,,,,,,,,,2400,0,,,,,,,
1757,0,,,,,,,,,,,,,,,,,2400,0,,,,,,,
1759,0,,,,,,,,,,,,,,,,,2400,0,,,,,,,
1761,0,,,,,,,,,,,,,,,,,2400,0,,,,,,,
1763,0,3.96,3.57,4.1,3.76,0.02,0.27,0.72,1.83,,-0.22,-0.4,1.04,-16,20,-15,0.46,2400,0,0.0,0.0,0.0,0.0,0,0,0.0
1765,0,,,,,,,,,,,,,,,,,2400,0,,,,,,,
1767,0,,,,,,,,,,,,,,,,,2400,0,,,,,,,
1769,0,,,,,,,,,,,,,,,,,2400,0,,,,,,,
1771,0,,,,,,,,,,,,,,,,,2400,0,,,,,,,
1773,0,3.94,3.57,4.1,3.77,4.94,0.42,0.84,1.84,,-0.25,-0.27,1.19,-17,5,-15,0.37,2400,0,,,,,,,
1775,0,,,,,,,,,,,,,,,,,2400,0,,,,,,,
1777,0,,,,,,,,,,,,,,,,,2400,0,,,,,,,
1779,0,,,,,,,,,,,,,,,,,2400,0,,,,,,,
1781,0,,,,,,,,,,,,,,,,,2400,0,,,,,,,
1783,0,3.92,3.56,4.11,3.77,0.02,0.32,0.72,1.85,,-0.06,-0.19,1.04,-16,16,-15,0.2,2400,0,,,,,,,
1785,0,,,,,,,,,,,,,,,,,2400,0,,,,,,,
1787,0,,,,,,,,,,,,,,,,,2400,0,,,,,,,
1789,0,,,,,,,,,,,,,,,,,2400,0,,,,,,,
1791,0,,,,,,,,,,,,,,,,,2400,0,,,,,,,
1793,0,3.85,3.52,4.07,3.73,0.02,0.32,0.66,1.82,,-0.17,-0.23,1.26,-16,9,-12,0.29,2400,0,,,,,,,
1795,0,,,,,,,,,,,,,,,,,2400,0,,,,,,,
1797,0,,,,,,,,,,,,,,,,,2400,0,,,,,,,
1799,0,,,,,,,,,,,,,,,,,2400,0,,,,,,,
1801,0,,,,,,,,,,,,,,,,,2400,0,,,,,,,
1803,0,3.84,3.52,4.07,3.73,0.02,0.29,0.8,1.83,,-0.04,-0.33,1.03,-17,10,-9,0.33,2400,0,0.0,0.0,0.0,0.0,0,0,0.0
1805,0,,,,,,,,,,,,,,,,,2400,0,,,,,,,
1807,0,,,,,,,,,,,,,,,,,2400,0,,,,,,,
1809,0,,,,,,,,,,,,,,,,,2400,0,,,,,,,
1811,0,,,,,,,,,,,,,,,,,2400,0,,,,,,,
1813,0,3.88,3.54,4.1,3.76,0.02,0.27,0.96,1.87,,-0.11,-0.23,1.24,-17,10,-5,0.25,2400,0,,,,,,,
1815,0,,,,,,,,,,,,,,,,,2400,0,,,,,,,
1817,0,,,,,,,,,,,,,,,,,2400,0,,,,,,,
1819,0,,,,,,,,,,,,,,,,,2400,0,,,,,,,
1821,0,,,,,,,,,,,,,,,,,2400,0,,,,,,,
1823,0,3.88,3.49,4.07,3.73,0.02,0.33,1.15,1.86,,-0.03,-0.21,0.96,-17,6,-1,0.21,2400,0,,,,,,,
1825,0,,,,,,,,,,,,,,,,,2400,0,,,,,,,
1827,0,,,,,,,,,,,,,,,,,2400,0,,,,,,,
1829,0,,,,,,,,,,,,,,,,,2400,0,,,,,,,
1831,0,,,,,,,,,,,,,,,,,2400,0,,,,,,,
1833,0,3.9,3.53,4.11,3.76,0.02,0.31,1.22,1.87,,-0.01,-0.26,1.05,-18,6,3,0.27,2400,0,,,,,,,
1835,0,,,,,,,,,,,,,,,,,2400,0,,,,,,,
1837,0,,,,,,,,,,,,,,,,,2400,0,,,,,,,
1839,0,,,,,,,,,,,,,,,,,2400,0,,,,,,,
1841,0,,,,,,,,,,,,,,,,,2400,0,,,,,,,
1843,0,3.86,3.49,4.07,3.73,0.02,0.37,1.33,1.85,,0.02,-0.12,0.78,-19,1,9,0.13,2400,0,0.0,0.0,0.0,0.0,0,0,0.0
1845,0,,,,,,,,,,,,,,,,,2400,0,,,,,,,
1847,0,,,,,,,,,,,,,,,,,2400,0,,,,,,,
1849,0,,,,,,,,,,,,,,,,,2400,0,,,,,,,
1851,0,,,,,,,,,,,,,,,,,2400,0,,,,,,,
1853,0,3.92,3.54,4.13,3.77,0.02,0.42,1.36,1.87,,0.02,-0.24,0.87,-19,4,9,0.24,2400,0,,,,,,,
1855,0,,,,,,,,,,,,,,,,,2400,0,,,,,,,
1857,0,,,,,,,,,,,,,,,,,2400,0,,,,,,,
1859,0,,,,,,,,,,,,,,,,,2400,0,,,,,,,
1861,0,,,,,,,,,,,,,,,,,2400,0,,,,,,,
1863,0,3.89,3.52,4.09,3.73,0.02,0.47,1.42,1.82,,-0.03,-0.19,0.54,-19,4,10,0.19,2400,0,,,,,,,
1865,0,,,,,,,,,,,,,,,,,2400,0,,,,,,,
1867,0,,,,,,,,,,,,,,,,,2400,0,,,,,,,
1869,0,,,,,,,,,,,,,,,,,2400,0,,,,,,,
1871,0,,,,,,,,,,,,,,,,,2400,0,,,,,,,
1873,0,3.94,3.57,4.14,3.78,0.02,0.52,1.51,1.84,,0.04,-0.25,0.86,-19,7,9,0.25,2400,0,,,,,,,
1875,0,,,,,,,,,,,,,,,,,2400,0,,,,,,,
1877,0,,,,,,,,,,,,,,,,,2400,0,,,,,,,
1879,0,,,,,,,,,,,,,,,,,2400,0,,,,,,,
1881,0,,,,,,,,,,,,,,,,,2400,0,,,,,,,
1883,0,3.9,3.55,4.12,3.75,0.02,0.47,1.4,1.81,,-0.02,-0.33,0.76,-19,-5,7,0.33,2400,0,0.0,0.0,0.0,0.0,0,0,0.0
1885,0,,,,,,,,,,,,,,,,,2400,0,,,,,,,
1887,0,,,,,,,,,,,,,,,,,2400,0,,,,,,,
1889,0,,,,,,,,,,,,,,,,,2400,0,,,,,,,
1891,0,,,,,,,,,,,,,,,,,2400,0,,,,,,,
1893,0,3.94,3.58,4.13,3.77,0.02,0.4,1.41,1.84,,-0.08,-0.41,0.91,-20,5,5,0.42,2400,0,,,,,,,
1895,0,,,,,,,,,,,,,,,,,2400,0,,,,,,,
1897,0,,,,,,,,,,,,,,,,,2400,0,,,,,,,
1899,0,,,,,,,,,,,,,,,,,2400,0,,,,,,,
1901,0,,,,,,,,,,,,,,,,,2400,0,,,,,,,
1903,0,3.93,3.6,4.14,3.78,0.02,0.38,1.01,1.84,,-0.03,-0.53,1.09,-20,-12,0,0.53,2400,0,,,,,,,
1905,0,,,,,,,,,,,,,,,,,2400,0,,,,,,,
1907,0,,,,,,,,,,,,,,,,,2400,0,,,,,,,
1909,0,,,,,,,,,,,,,,,,,2400,0,,,,,,,
1911,0,,,,,,,,,,,,,,,,,2400,0,,,,,,,
1913,0,3.93,3.6,4.14,3.78,0.02,0.43,0.46,1.84,,-0.1,-0.59,0.83,-20,5,-7,0.6,2400,0,,,,,,,
1915,0,,,,,,,,,,,,,,,,,2400,0,,,,,,,
1917,0,,,,,,,,,,,,,,,,,2400,0,,,,,,,
1919,0,,,,,,,,,,,,,,,,,2400,0,,,,,,,
1921,0,,,,,,,,,,,,,,,,,2400,0,,,,,,,
1923,0,3.94,3.6,4.14,3.78,0.02,0.43,0.38,1.84,,-0.12,-0.5,1.13,-21,-4,-12,0.52,2400,0,0.0,0.0,0.0,0.0,0,0,0.0
1925,0,,,,,,,,,,,,,,,,,2400,0,,,,,,,
1927,0,,,,,,,,,,,,,,,,,2400,0,,,,,,,
1929,0,,,,,,,,,,,,,,,,,2400,0,,,,,,,
1931,0,,,,,,,,,,,,,,,,,2400,0,,,,,,,
1933,0,3.94,3.61,4.14,3.78,4.94,0.42,0.42,1.85,,-0.1,-0.38,0.88,-21,-7,-15,0.4,2400,0,,,,,,,
1935,0,,,,,,,,,,,,,,,,,2400,0,,,,,,,
1937,0,,,,,,,,,,,,,,,,,2400,0,,,,,,,
1939,0,,,,,,,,,,,,,,,,,2400,0,,,,,,,
1941,0,,,,,,,,,,,,,,,,,2400,0,,,,,,,
1943,0,3.94,3.61,4.13,3.78,0.02,0.32,0.56,1.84,,-0.24,-0.45,1.05,-21,-6,-20,0.51,2400,0,,,,,,,
1945,0,,,,,,,,,,,,,,,,,2400,0,,,,,,,
1947,0,,,,,,,,,,,,,,,,,2400,0,,,,,,,
1949,0,,,,,,,,,,,,,,,,,2400,0,,,,,,,
1951,0,,,,,,,,,,,,,,,,,2400,0,,,,,,,
1953,0,3.94,3.61,4.12,3.78,4.93,0.31,0.5,1.85,,-0.16,-0.39,0.96,-21,-12,-23,0.43,2400,0,,,,,,,
1955,0,,,,,,,,,,,,,,,,,2400,0,,,,,,,
1957,0,,,,,,,,,,,,,,,,,2400,0,,,,,,,
1959,0,,,,,,,,,,,,,,,,,2400,0,,,,,,,
1961,0,,,,,,,,,,,,,,,,,2400,0,,,,,,,
1963,0,3.95,3.62,4.11,3.77,4.94,0.3,0.61,1.85,,-0.24,-0.25,0.75,-20,4,-27,0.35,2400,0,0.0,0.0,0.0,0.0,0,0,0.0
1965,0,,,,,,,,,,,,,,,,,2400,0,,,,,,,
1967,0,,,,,,,,,,,,,,,,,2400,0,,,,,,,
1969,0,,,,,,,,,,,,,,,,,2400,0,,,,,,,
1971,0,,,,,,,,,,,,,,,,,2400,0,,,,,,,
1973,0,3.96,3.63,4.11,3.77,0.02,0.24,0.83,1.84,,-0.28,-0.17,0.8,-19,-2,-26,0.33,2400,0,,,,,,,
1975,0,,,,,,,,,,,,,,,,,2400,0,,,,,,,
1977,0,,,,,,,,,,,,,,,,,2340,0,,,,,,,
1979,0,,,,,,,,,,,,,,,,,2340,0,,,,,,,
1981,0,,,,,,,,,,,,,,,,,2340,0,,,,,,,
1983,0,3.96,3.62,4.1,3.76,0.02,0.14,1.08,1.83,,-0.3,-0.11,0.6,-18,7,-22,0.32,2340,0,,,,,,,
1985,0,,,,,,,,,,,,,,,,,2340,0,,,,,,,
1987,0,,,,,,,,,,,,,,,,,2340,0,,,,,,,
1989,0,,,,,,,,,,,,,,,,,2340,0,,,,,,,
1991,0,,,,,,,,,,,,,,,,,2340,0,,,,,,,
1993,0,3.95,3.6,4.08,3.73,0.02,0.16,1.46,1.83,,-0.29,0.08,0.49,-17,9,-14,0.3,2340,0,,,,,,,
1995,0,,,,,,,,,,,,,,,,,2340,0,,,,,,,
1997,0,,,,,,,,,,,,,,,,,2340,0,,,,,,,
1999,0,,,,,,,,,,,,,,,,,2340,0,,,,,,,
2001,0,,,,,,,,,,,,,,,,,2340,0,,,,,,,
2003,0,3.92,3.54,4.04,3.68,0.01,0.12,1.69,1.83,,-0.3,-0.03,0.65,-17,14,-7,0.3,2340,0,0.0,0.0,0.0,0.0,0,0,0.0
2005,0,,,,,,,,,,,,,,,,,2340,0,,,,,,,
2007,0,,,,,,,,,,,,,,,,,2340,0,,,,,,,
2009,0,,,,,,,,,,,,,,,,,2340,0,,,,,,,
2011,0,,,,,,,,,,,,,,,,,2340,0,,,,,,,
2013,0,3.94,3.56,4.1,3.72,0.02,0.17,1.87,1.85,,-0.25,-0.1,0.67,-17,17,1,0.27,2340,0,,,,,,,
2015,0,,,,,,,,,,,,,,,,,2340,0,,,,,,,
2017,0,,,,,,,,,,,,,,,,,2340,0,,,,,,,
2019,0,,,,,,,,,,,,,,,,,2340,0,,,,,,,
2021,0,,,,,,,,,,,,,,,,,2340,0,,,,,,,
2023,0,3.96,3.56,4.12,3.77,0.02,0.18,1.93,1.88,,-0.1,-0.18,0.98,-18,20,9,0.2,2340,0,,,,,,,
2025,0,,,,,,,,,,,,,,,,,2340,0,,,,,,,
2027,0,,,,,,,,,,,,,,,,,2340,0,,,,,,,
2029,0,,,,,,,,,,,,,,,,,2340,0,,,,,,,
2031,0,,,,,,,,,,,,,,,,,2340,0,,,,,,,
2033,0,3.94,3.52,4.11,3.75,0.02,0.16,1.84,1.86,,-0.05,-0.16,0.91,-17,10,16,0.16,2340,0,,,,,,,
2035,0,,,,,,,,,,,,,,,,,2340,0,,,,,,,
2037,0,,,,,,,,,,,,,,,,,2340,0,,,,,,,
2039,0,,,,,,,,,,,,,,,,,2340,0,,,,,,,
2041,0,,,,,,,,,,,,,,,,,2340,0,,,,,,,
2043,0,3.93,3.5,4.12,3.75,0.02,0.25,1.65,1.86,13.46,-0.09,-0.37,1.09,-18,17,19,0.38,2340,0,0.0,0.0,0.0,0.0,0,0,0.0
2045,0,,,,,,,,,,,,,,,,,2340,0,,,,,,,
2047,0,,,,,,,,,,,,,,,,,2340,0,,,,,,,
2049,0,,,,,,,,,,,,,,,,,2340,0,,,,,,,
2051,0,,,,,,,,,,,,,,,,,2340,0,,,,,,,
2053,0,3.94,3.5,4.15,3.78,4.94,0.38,1.28,1.88,,0.08,-0.39,1.23,-19,1,17,0.4,2340,0,,,,,,,
2055,0,,,,,,,,,,,,,,,,,2340,0,,,,,,,
2057,0,,,,,,,,,,,,,,,,,2340,0,,,,,,,
2059,0,,,,,,,,,,,,,,,,,2340,0,,,,,,,
2061,0,,,,,,,,,,,,,,,,,2340,0,,,,,,,
2063,0,3.89,3.46,4.1,3.73,0.02,0.39,0.33,1.85,,0.07,-0.47,1.03,-19,11,14,0.48,2340,0,,,,,,,
2065,0,,,,,,,,,,,,,,,,,2340,0,,,,,,,
2067,0,,,,,,,,,,,,,,,,,2340,0,,,,,,,
2069,0,,,,,,,,,,,,,,,,,2340,0,,,,,,,
2071,0,,,,,,,,,,,,,,,,,2340,0,,,,,,,
2073,0,3.92,3.51,4.14,3.78,0.02,0.38,0.21,1.87,,-0.0,-0.52,1.33,-20,1,9,0.52,2340,0,,,,,,,
2075,0,,,,,,,,,,,,,,,,,2340,0,,,,,,,
2077,0,,,,,,,,,,,,,,,,,2340,0,,,,,,,
2079,0,,,,,,,,,,,,,,,,,2340,0,,,,,,,
2081,0,,,,,,,,,,,,,,,,,2340,0,,,,,,,
2083,0,3.92,3.53,4.13,3.77,0.02,0.46,0.39,1.86,,0.1,-0.44,0.87,-19,-3,3,0.46,2340,0,0.0,0.0,0.0,0.0,0,0,0.0
2085,0,,,,,,,,,,,,,,,,,2340,0,,,,,,,
2087,0,,,,,,,,,,,,,,,,,2340,0,,,,,,,
2089,0,,,,,,,,,,,,,,,,,2340,0,,,,,,,
2091,0,,,,,,,,,,,,,,,,,2340,0,,,,,,,
2093,0,3.92,3.53,4.14,3.78,0.02,0.47,0.44,1.84,,-0.05,-0.57,1.16,-19,3,-5,0.57,2340,0,,,,,,,
2095,0,,,,,,,,,,,,,,,,,2340,0,,,,,,,
2097,0,,,,,,,,,,,,,,,,,2340,0,,,,,,,
2099,0,,,,,,,,,,,,,,,,,2340,0,,,,,,,
2101,0,,,,,,,,,,,,,,,,,2340,0,,,,,,,
2103,0,3.91,3.53,4.13,3.76,0.02,0.43,0.41,1.81,,-0.07,-0.52,0.96,-19,-11,-13,0.53,2340,0,,,,,,,
2105,0,,,,,,,,,,,,,,,,,2340,0,,,,,,,
2107,0,,,,,,,,,,,,,,,,,2340,0,,,,,,,
2109,0,,,,,,,,,,,,,,,,,2340,0,,,,,,,
2111,0,,,,,,,,,,,,,,,,,2340,0,,,,,,,
2113,0,3.92,3.52,4.12,3.77,4.93,0.5,0.57,1.81,,-0.07,-0.48,0.94,-19,6,-20,0.48,2340,0,,,,,,,
2115,0,,,,,,,,,,,,,,,,,2340,0,,,,,,,
2117,0,,,,,,,,,,,,,,,,,2340,0,,,,,,,
2119,0,,,,,,,,,,,,,,,,,2340,0,,,,,,,
2121,0,,,,,,,,,,,,,,,,,2340,0,,,,,,,
2123,0,3.9,3.49,4.09,3.73,0.02,0.35,0.62,1.78,,-0.09,-0.39,1.05,-19,-9,-22,0.4,2340,0,0.0,0.0,0.0,0.0,0,0,0.0
2125,0,,,,,,,,,,,,,,,,,2340,0,,,,,,,
2127,0,,,,,,,,,,,,,,,,,2340,0,,,,,,,
2129,0,,,,,,,,,,,,,,,,,2340,0,,,,,,,
2131,0,,,,,,,,,,,,,,,,,2340,0,,,,,,,
2133,0,3.9,3.48,4.08,3.73,0.02,0.34,0.8,1.78,,-0.07,-0.32,0.72,-20,-2,-23,0.32,2340,0,,,,,,,
2135,0,,,,,,,,,,,,,,,,,2340,0,,,,,,,
2137,0,,,,,,,,,,,,,,,,,2340,0,,,,,,,
2139,0,,,,,,,,,,,,,,,,,2340,0,,,,,,,
2141,0,,,,,,,,,,,,,,,,,2340,0,,,,,,,
2143,0,3.97,3.52,4.14,3.76,4.93,0.31,1.19,1.83,,-0.17,-0.26,0.99,-20,-5,-23,0.31,2340,0,,,,,,,
2145,0,,,,,,,,,,,,,,,,,2340,0,,,,,,,
2147,0,,,,,,,,,,,,,,,,,2340,0,,,,,,,
2149,0,,,,,,,,,,,,,,,,,2340,0,,,,,,,
2151,0,,,,,,,,,,,,,,,,,2340,0,,,,,,,
2153,0,3.93,3.48,4.08,3.71,0.01,0.2,1.4,1.81,,-0.05,-0.18,0.85,-20,-9,-19,0.19,2340,0,,,,,,,
2155,0,,,,,,,,,,,,,,,,,2340,0,,,,,,,
2157,0,,,,,,,,,,,,,,,,,2340,0,,,,,,,
2159,0,,,,,,,,,,,,,,,,,2340,0,,,,,,,
2161,0,,,,,,,,,,,,,,,,,2340,0,,,,,,,
2163,0,3.92,3.46,4.09,3.72,0.01,0.17,1.66,1.82,,-0.22,-0.17,0.8,-20,1,-15,0.27,2340,0,0.0,0.0,0.0,0.0,0,0,0.0
2165,0,,,,,,,,,,,,,,,,,2340,0,,,,,,,
2167,0,,,,,,,,,,,,,,,,,2340,0,,,,,,,
2169,0,,,,,,,,,,,,,,,,,2340,0,,,,,,,
2171,0,,,,,,,,,,,,,,,,,2340,0,,,,,,,
2173,0,3.95,3.47,4.1,3.74,0.01,0.24,1.84,1.82,,-0.19,-0.0,0.85,-20,-8,-7,0.19,2340,0,,,,,,,
2175,0,,,,,,,,,,,,,,,,,2340,0,,,,,,,
2177,0,,,,,,,,,,,,,,,,,2340,0,,,,,,,
2179,0,,,,,,,,,,,,,,,,,2340,0,,,,,,,
2181,0,,,,,,,,,,,,,,,,,2340,0,,,,,,,
2183,0,3.97,3.49,4.13,3.77,0.02,0.18,1.81,1.86,,-0.13,-0.07,0.77,-19,-4,-0,0.15,2340,0,,,,,,,
2185,0,,,,,,,,,,,,,,,,,2340,0,,,,,,,
2187,0,,,,,,,,,,,,,,,,,2340,0,,,,,,,
2189,0,,,,,,,,,,,,,,,,,2340,0,,,,,,,
2191,0,,,,,,,,,,,,,,,,,2340,0,,,,,,,
2193,0,3.96,3.49,4.12,3.75,0.02,0.27,1.88,1.84,,-0.3,-0.12,0.73,-18,-2,7,0.32,2340,0,,,,,,,
2195,0,,,,,,,,,,,,,,,,,2340,0,,,,,,,
2197,0,,,,,,,,,,,,,,,,,2340,0,,,,,,,
2199,0,,,,,,,,,,,,,,,,,2340,0,,,,,,,
2201,0,,,,,,,,,,,,,,,,,2340,0,,,,,,,
2203,0,3.96,3.51,4.12,3.76,4.93,0.31,1.87,1.83,,-0.25,-0.07,0.7,-17,2,10,0.26,2340,0,0.0,0.0,0.0,0.0,0,0,0.0
2205,0,,,,,,,,,,,,,,,,,2340,0,,,,,,,
2207,0,,,,,,,,,,,,,,,,,2340,0,,,,,,,
2209,0,,,,,,,,,,,,,,,,,2340,0,,,,,,,
2211,0,,,,,,,,,,,,,,,,,2340,0,,,,,,,
2213,0,3.97,3.53,4.13,3.77,4.94,0.38,1.77,1.83,,-0.23,-0.2,0.7,-15,10,13,0.31,2340,0,,,,,,,
2215,0,,,,,,,,,,,,,,,,,2340,0,,,,,,,
2217,0,,,,,,,,,,,,,,,,,2340,0,,,,,,,
2219,0,,,,,,,,,,,,,,,,,2340,0,,,,,,,
2221,0,,,,,,,,,,,,,,,,,2340,0,,,,,,,
2223,0,3.97,3.55,4.12,3.76,0.02,0.29,1.64,1.83,,-0.22,-0.28,0.69,-13,8,16,0.35,2340,0,,,,,,,
2225,0,,,,,,,,,,,,,,,,,2340,0,,,,,,,
2227,0,,,,,,,,,,,,,,,,,2340,0,,,,,,,
2229,0,,,,,,,,,,,,,,,,,2340,0,,,,,,,
2231,0,,,,,,,,,,,,,,,,,2340,0,,,,,,,
2233,0,3.91,3.51,4.08,3.72,0.02,0.35,1.22,1.8,,-0.1,-0.4,0.9,-11,14,14,0.41,2340,0,,,,,,,
2235,0,,,,,,,,,,,,,,,,,2340,0,,,,,,,
2237,0,,,,,,,,,,,,,,,,,2340,0,,,,,,,
2239,0,,,,,,,,,,,,,,,,,2340,0,,,,,,,
2241,0,,,,,,,,,,,,,,,,,2340,0,,,,,,,
2243,0,3.92,3.52,4.09,3.73,0.01,0.32,0.66,1.77,,-0.18,-0.52,1.06,-11,14,9,0.55,2340,0,0.0,0.0,0.0,0.0,0,0,0.0
2245,0,,,,,,,,,,,,,,,,,2340,0,,,,,,,
2247,0,,,,,,,,,,,,,,,,,2340,0,,,,,,,
2249,0,,,,,,,,,,,,,,,,,2340,0,,,,,,,
2251,0,,,,,,,,,,,,,,,,,2340,0,,,,,,,
2253,0,3.9,3.5,4.08,3.71,0.01,0.35,0.15,1.78,,-0.05,-0.63,1.12,-10,14,2,0.63,2340,0,,,,,,,
2255,0,,,,,,,,,,,,,,,,,2340,0,,,,,,,
2257,0,,,,,,,,,,,,,,,,,2340,0,,,,,,,
2259,0,,,,,,,,,,,,,,,,,2340,0,,,,,,,
2261,0,,,,,,,,,,,,,,,,,2340,0,,,,,,,
2263,0,3.92,3.53,4.13,3.77,0.02,0.37,0.22,1.82,,-0.08,-0.62,1.24,-10,17,-5,0.63,2340,0,,,,,,,
2265,0,,,,,,,,,,,,,,,,,2340,0,,,,,,,
2267,0,,,,,,,,,,,,,,,,,2340,0,,,,,,,
2269,0,,,,,,,,,,,,,,,,,2340,0,,,,,,,
2271,0,,,,,,,,,,,,,,,,,2340,0,,,,,,,
2273,0,3.92,3.53,4.14,3.77,0.02,0.32,0.59,1.84,,-0.03,-0.57,1.35,-10,10,-9,0.57,2340,0,,,,,,,
2275,0,,,,,,,,,,,,,,,,,2340,0,,,,,,,
2277,0,,,,,,,,,,,,,,,,,2340,0,,,,,,,
2279,0,,,,,,,,,,,,,,,,,2340,0,,,,,,,
2281,0,,,,,,,,,,,,,,,,,2340,0,,,,,,,
2283,0,3.9,3.52,4.09,3.73,0.02,0.37,0.5,1.83,,0.01,-0.46,1.12,-11,4,-11,0.46,2340,0,0.0,0.0,0.0,0.0,0,0,0.0
2285,0,,,,,,,,,,,,,,,,,2340,0,,,,,,,
2287,0,,,,,,,,,,,,,,,,,2340,0,,,,,,,
2289,0,,,,,,,,,,,,,,,,,2340,0,,,,,,,
2291,0,,,,,,,,,,,,,,,,,2340,0,,,,,,,
2293,0,3.88,3.48,4.09,3.72,0.02,0.3,0.56,1.81,,-0.12,-0.33,1.03,-12,11,-12,0.35,2340,0,,,,,,,
2295,0,,,,,,,,,,,,,,,,,2340,0,,,,,,,
2297,0,,,,,,,,,,,,,,,,,2340,0,,,,,,,
2299,0,,,,,,,,,,,,,,,,,2340,0,,,,,,,
2301,0,,,,,,,,,,,,,,,,,2340,0,,,,,,,
2303,0,3.92,3.51,4.12,3.76,4.91,0.3,0.93,1.83,,-0.03,-0.28,0.95,-13,7,-12,0.28,2340,0,,,,,,,
2305,0,,,,,,,,,,,,,,,,,2340,0,,,,,,,
2307,0,,,,,,,,,,,,,,,,,2340,0,,,,,,,
2309,0,,,,,,,,,,,,,,,,,2340,0,,,,,,,
2311,0,,,,,,,,,,,,,,,,,2340,0,,,,,,,
2313,0,3.93,3.52,4.13,3.76,0.02,0.25,1.2,1.84,,-0.04,-0.11,0.92,-13,6,-9,0.12,2340,0,,,,,,,
2315,0,,,,,,,,,,,,,,,,,2340,0,,,,,,,
2317,0,,,,,,,,,,,,,,,,,2340,0,,,,,,,
2319,0,,,,,,,,,,,,,,,,,2340,0,,,,,,,
2321,0,,,,,,,,,,,,,,,,,2340,0,,,,,,,
2323,0,3.94,3.52,4.14,3.77,0.02,0.26,1.46,1.87,,-0.08,-0.18,0.95,-14,-3,-3,0.19,2340,0,0.0,0.0,0.0,0.0,0,0,0.0
2325,0,,,,,,,,,,,,,,,,,2340,0,,,,,,,
2327,0,,,,,,,,,,,,,,,,,2340,0,,,,,,,
2329,0,,,,,,,,,,,,,,,,,2340,0,,,,,,,
2331,0,,,,,,,,,,,,,,,,,2340,0,,,,,,,
2333,0,3.94,3.54,4.14,3.78,4.93,0.37,1.75,1.87,,-0.02,-0.22,0.93,-15,1,-0,0.23,2280,0,,,,,,,
2335,0,,,,,,,,,,,,,,,,,2280,0,,,,,,,
2337,0,,,,,,,,,,,,,,,,,2280,0,,,,,,,
2339,0,,,,,,,,,,,,,,,,,2280,0,,,,,,,
2341,0,,,,,,,,,,,,,,,,,2280,0,,,,,,,
2343,0,3.94,3.55,4.14,3.76,0.02,0.36,1.75,1.86,,-0.09,-0.23,0.96,-15,-0,-1,0.25,2280,0,,,,,,,
2345,0,,,,,,,,,,,,,,,,,2280,0,,,,,,,
2347,0,,,,,,,,,,,,,,,,,2280,0,,,,,,,
2349,0,,,,,,,,,,,,,,,,,2280,0,,,,,,,
2351,0,,,,,,,,,,,,,,,,,2280,0,,,,,,,
2353,0,3.93,3.56,4.14,3.78,0.02,0.42,1.79,1.85,,-0.1,-0.21,0.88,-14,2,-0,0.23,2280,0,,,,,,,
2355,0,,,,,,,,,,,,,,,,,2280,0,,,,,,,
2357,0,,,,,,,,,,,,,,,,,2280,0,,,,,,,
2359,0,,,,,,,,,,,,,,,,,2280,0,,,,,,,
2361,0,,,,,,,,,,,,,,,,,2280,0,,,,,,,
2363,0,3.91,3.56,4.12,3.76,0.02,0.33,1.63,1.84,,-0.01,-0.31,1.08,-14,-4,-3,0.31,2280,0,0.0,0.0,0.0,0.0,0,0,0.0
2365,0,,,,,,,,,,,,,,,,,2280,0,,,,,,,
2367,0,,,,,,,,,,,,,,,,,2280,0,,,,,,,
2369,0,,,,,,,,,,,,,,,,,2280,0,,,,,,,
2371,0,,,,,,,,,,,,,,,,,2280,0,,,,,,,
2373,0,3.88,3.55,4.09,3.72,0.01,0.38,1.36,1.79,,-0.13,-0.45,0.82,-14,-2,-2,0.47,2280,0,,,,,,,
2375,0,,,,,,,,,,,,,,,,,2280,0,,,,,,,
2377,0,,,,,,,,,,,,,,,,,2280,0,,,,,,,
2379,0,,,,,,,,,,,,,,,,,2280,0,,,,,,,
2381,0,,,,,,,,,,,,,,,,,2280,0,,,,,,,
2383,0,3.92,3.6,4.14,3.77,0.02,0.38,1.11,1.83,,-0.09,-0.4,0.93,-14,0,-5,0.41,2280,0,,,,,,,
2385,0,,,,,,,,,,,,,,,,,2280,0,,,,,,,
2387,0,,,,,,,,,,,,,,,,,2280,0,,,,,,,
2389,0,,,,,,,,,,,,,,,,,2280,0,,,,,,,
2391,0,,,,,,,,,,,,,,,,,2280,0,,,,,,,
2393,0,3.93,3.6,4.14,3.77,0.02,0.31,0.87,1.84,,-0.16,-0.31,0.75,-14,-0,-7,0.35,2280,0,,,,,,,
2395,0,,,,,,,,,,,,,,,,,2280,0,,,,,,,
2397,0,,,,,,,,,,,,,,,,,2280,0,,,,,,,
2399,0,,,,,,,,,,,,,,,,,2280,0,,,,,,,
2401,0,,,,,,,,,,,,,,,,,2280,0,,,,,,,
2403,0,3.95,3.58,4.14,3.77,0.02,0.32,0.99,1.83,,-0.18,-0.21,0.77,-14,0,-5,0.28,2280,0,0.0,0.0,0.0,0.0,0,0,0.0
2405,0,,,,,,,,,,,,,,,,,2280,0,,,,,,,
2407,0,,,,,,,,,,,,,,,,,2280,0,,,,,,,
2409,0,,,,,,,,,,,,,,,,,2280,0,,,,,,,
2411,0,,,,,,,,,,,,,,,,,2280,0,,,,,,,
2413,0,3.94,3.56,4.11,3.72,0.02,0.29,1.06,1.82,,-0.02,-0.2,0.75,-15,-3,0,0.21,2280,0,,,,,,,
2415,0,,,,,,,,,,,,,,,,,2280,0,,,,,,,
2417,0,,,,,,,,,,,,,,,,,2280,0,,,,,,,
2419,0,,,,,,,,,,,,,,,,,2280,0,,,,,,,
2421,0,,,,,,,,,,,,,,,,,2280,0,,,,,,,
2423,0,3.93,3.54,4.11,3.74,4.9,0.27,1.33,1.82,,-0.22,-0.08,0.57,-15,2,6,0.23,2280,0,,,,,,,
2425,0,,,,,,,,,,,,,,,,,2280,0,,,,,,,
2427,0,,,,,,,,,,,,,,,,,2280,0,,,,,,,
2429,0,,,,,,,,,,,,,,,,,2280,0,,,,,,,
2431,0,,,,,,,,,,,,,,,,,2280,0,,,,,,,
2433,0,3.95,3.58,4.13,3.77,4.93,0.26,1.48,1.86,,-0.13,-0.18,0.87,-15,4,7,0.22,2280,0,,,,,,,
2435,0,,,,,,,,,,,,,,,,,2280,0,,,,,,,
2437,0,,,,,,,,,,,,,,,,,2280,0,,,,,,,
2439,0,,,,,,,,,,,,,,,,,2280,0,,,,,,,
2441,0,,,,,,,,,,,,,,,,,2280,0,,,,,,,
2443,0,3.96,3.58,4.14,3.78,0.02,0.17,1.37,1.86,,-0.05,-0.41,0.92,-15,3,6,0.42,2280,0,0.0,0.0,0.0,0.0,0,0,0.0
2445,0,,,,,,,,,,,,,,,,,2280,0,,,,,,,
2447,0,,,,,,,,,,,,,,,,,2280,0,,,,,,,
2449,0,,,,,,,,,,,,,,,,,2280,0,,,,,,,
2451,0,,,,,,,,,,,,,,,,,2280,0,,,,,,,
2453,0,3.95,3.57,4.12,3.76,0.02,0.22,1.19,1.85,,-0.14,-0.44,1.08,-15,1,5,0.46,2280,0,,,,,,,
2455,0,,,,,,,,,,,,,,,,,2280,0,,,,,,,
2457,0,,,,,,,,,,,,,,,,,2280,0,,,,,,,
2459,0,,,,,,,,,,,,,,,,,2280,0,,,,,,,
2461,0,,,,,,,,,,,,,,,,,2280,0,,,,,,,
2463,0,3.9,3.52,4.08,3.72,0.02,0.31,0.75,1.82,,-0.03,-0.55,1.06,-15,-2,3,0.55,2280,0,,,,,,,
2465,0,,,,,,,,,,,,,,,,,2280,0,,,,,,,
2467,0,,,,,,,,,,,,,,,,,2280,0,,,,,,,
2469,0,,,,,,,,,,,,,,,,,2280,0,,,,,,,
2471,0,,,,,,,,,,,,,,,,,2280,0,,,,,,,
2473,0,3.93,3.56,4.13,3.77,0.02,0.31,0.2,1.84,,-0.17,-0.56,1.29,-16,4,-3,0.58,2280,0,,,,,,,
2475,0,,,,,,,,,,,,,,,,,2280,0,,,,,,,
2477,0,,,,,,,,,,,,,,,,,2280,0,,,,,,,
2479,0,,,,,,,,,,,,,,,,,2280,0,,,,,,,
2481,0,,,,,,,,,,,,,,,,,2280,0,,,,,,,
2483,0,3.94,3.57,4.13,3.78,0.02,0.33,0.28,1.85,,-0.15,-0.54,1.11,-16,-6,-8,0.56,2280,0,0.0,0.0,0.0,0.0,0,0,0.0
2485,0,,,,,,,,,,,,,,,,,2280,0,,,,,,,
2487,0,,,,,,,,,,,,,,,,,2280,0,,,,,,,
2489,0,,,,,,,,,,,,,,,,,2280,0,,,,,,,
2491,0,,,,,,,,,,,,,,,,,2280,0,,,,,,,
2493,0,3.95,3.57,4.14,3.78,4.94,0.38,0.43,1.86,,-0.0,-0.43,1.15,-17,-0,-9,0.43,2280,0,,,,,,,
2495,0,,,,,,,,,,,,,,,,,2280,0,,,,,,,
2497,0,,,,,,,,,,,,,,,,,2280,0,,,,,,,
2499,0,,,,,,,,,,,,,,,,,2280,0,,,,,,,
2501,0,,,,,,,,,,,,,,,,,2280,0,,,,,,,
2503,0,3.95,3.56,4.14,3.78,0.02,0.28,0.54,1.86,,-0.19,-0.28,1.02,-17,-9,-9,0.34,2280,0,,,,,,,
2505,0,,,,,,,,,,,,,,,,,2280,0,,,,,,,
2507,0,,,,,,,,,,,,,,,,,2280,0,,,,,,,
2509,0,,,,,,,,,,,,,,,,,2280,0,,,,,,,
2511,0,,,,,,,,,,,,,,,,,2280,0,,,,,,,
2513,0,3.96,3.56,4.13,3.77,0.02,0.33,0.77,1.84,,-0.13,-0.26,0.77,-17,1,-10,0.29,2280,0,,,,,,,
2515,0,,,,,,,,,,,,,,,,,2280,0,,,,,,,
2517,0,,,,,,,,,,,,,,,,,2280,0,,,,,,,
2519,0,,,,,,,,,,,,,,,,,2280,0,,,,,,,
2521,0,,,,,,,,,,,,,,,,,2280,0,,,,,,,
2523,0,3.96,3.54,4.12,3.75,4.91,0.22,1.05,1.84,,-0.09,-0.26,0.96,-17,-0,-12,0.27,2280,0,0.0,0.0,0.0,0.0,0,0,0.0
2525,0,,,,,,,,,,,,,,,,,2280,0,,,,,,,
2527,0,,,,,,,,,,,,,,,,,2280,0,,,,,,,
2529,0,,,,,,,,,,,,,,,,,2280,0,,,,,,,
2531,0,,,,,,,,,,,,,,,,,2280,0,,,,,,,
2533,0,3.92,3.5,4.07,3.73,0.02,0.15,1.28,1.8,,-0.18,-0.24,0.73,-17,1,-9,0.3,2280,0,,,,,,,
2535,0,,,,,,,,,,,,,,,,,2280,0,,,,,,,
2537,0,,,,,,,,,,,,,,,,,2280,0,,,,,,,
2539,0,,,,,,,,,,,,,,,,,2280,0,,,,,,,
2541,0,,,,,,,,,,,,,,,,,2280,0,,,,,,,
2543,0,3.97,3.55,4.12,3.78,0.02,0.2,1.42,1.84,,-0.14,-0.33,1.08,-17,4,-10,0.36,2280,0,,,,,,,
2545,0,,,,,,,,,,,,,,,,,2280,0,,,,,,,
2547,0,,,,,,,,,,,,,,,,,2280,0,,,,,,,
2549,0,,,,,,,,,,,,,,,,,2280,0,,,,,,,
2551,0,,,,,,,,,,,,,,,,,2280,0,,,,,,,
2553,0,3.92,3.49,4.09,3.74,4.89,0.22,1.37,1.8,,-0.09,-0.35,0.95,-17,-2,-12,0.36,2280,0,,,,,,,
2555,0,,,,,,,,,,,,,,,,,2280,0,,,,,,,
2557,0,,,,,,,,,,,,,,,,,2280,0,,,,,,,
2559,0,,,,,,,,,,,,,,,,,2280,0,,,,,,,
2561,0,,,,,,,,,,,,,,,,,2280,0,,,,,,,
2563,0,3.97,3.53,4.12,3.77,0.02,0.24,1.34,1.84,,-0.16,-0.21,0.91,-16,6,-10,0.26,2280,0,0.0,0.0,0.0,0.0,0,0,0.0
2565,0,,,,,,,,,,,,,,,,,2280,0,,,,,,,
2567,0,,,,,,,,,,,,,,,,,2280,0,,,,,,,
2569,0,,,,,,,,,,,,,,,,,2280,0,,,,,,,
2571,0,,,,,,,,,,,,,,,,,2280,0,,,,,,,
2573,0,3.97,3.53,4.13,3.78,0.02,0.29,1.31,1.84,,-0.11,-0.15,0.85,-16,-0,-6,0.19,2280,0,,,,,,,
2575,0,,,,,,,,,,,,,,,,,2280,0,,,,,,,
2577,0,,,,,,,,,,,,,,,,,2280,0,,,,,,,
2579,0,,,,,,,,,,,,,,,,,2280,0,,,,,,,
2581,0,,,,,,,,,,,,,,,,,2280,0,,,,,,,
2583,0,3.94,3.5,4.09,3.73,4.88,0.36,1.28,1.83,,-0.12,-0.06,0.63,-16,2,2,0.13,2280,0,,,,,,,
2585,0,,,,,,,,,,,,,,,,,2280,0,,,,,,,
2587,0,,,,,,,,,,,,,,,,,2280,0,,,,,,,
2589,0,,,,,,,,,,,,,,,,,2280,0,,,,,,,
2591,0,,,,,,,,,,,,,,,,,2280,0,,,,,,,
2593,0,3.93,3.51,4.1,3.75,0.02,0.23,1.34,1.82,,-0.21,-0.09,0.88,-16,1,6,0.23,2280,0,,,,,,,
2595,0,,,,,,,,,,,,,,,,,2280,0,,,,,,,
2597,0,,,,,,,,,,,,,,,,,2280,0,,,,,,,
2599,0,,,,,,,,,,,,,,,,,2280,0,,,,,,,
2601,0,,,,,,,,,,,,,,,,,2280,0,,,,,,,
2603,0,3.97,3.55,4.12,3.78,0.02,0.29,1.48,1.85,,-0.15,-0.23,0.57,-16,8,8,0.27,2280,0,0.0,0.0,0.0,0.0,0,0,0.0
2605,0,,,,,,,,,,,,,,,,,2280,0,,,,,,,
2607,0,,,,,,,,,,,,,,,,,2280,0,,,,,,,
2609,0,,,,,,,,,,,,,,,,,2280,0,,,,,,,
2611,0,,,,,,,,,,,,,,,,,2280,0,,,,,,,
2613,0,3.96,3.55,4.12,3.77,0.02,0.26,1.49,1.84,,-0.11,-0.37,0.97,-15,11,9,0.39,2280,0,,,,,,,
2615,0,,,,,,,,,,,,,,,,,2280,0,,,,,,,
2617,0,,,,,,,,,,,,,,,,,2280,0,,,,,,,
2619,0,,,,,,,,,,,,,,,,,2280,0,,,,,,,
2621,0,,,,,,,,,,,,,,,,,2280,0,,,,,,,
