"Interval"|"ms"|0|0|1,"Utc"|"ms"|0|0|1,"Analog1"|"V"|0.0|5.0|25,"Analog2"|""|0.0|5.0|25,"Battery"|"Volts"|0.0|20.0|1,"AccelX"|"G"|-3.0|3.0|200,"AccelY"|"G"|-3.0|3.0|200,"AccelZ"|"G"|-3.0|3.0|200,"Yaw"|"Deg/Sec"|-120|120|200,"Pitch"|"Deg/Sec"|-120|120|200,"Roll"|"Deg/Sec"|-120|120|200,"Gsum"|"G"|0.0|3.0|200,"RPM2"|"rpm"|0|8000|200,"Latitude"|"Degrees"|-180.0|180.0|10,"Longitude"|"Degrees"|-180.0|180.0|10,"Speed"|"mph"|0.0|150.0|10,"Altitude"|"ft"|0.0|4000.0|10,"GPSSats"|""|0|20|10,"GPSQual"|""|0|5|10,"GPSDOP"|""|0.0|20.0|10
,,,,,,,,,,,,,,,,,,,
438,0,,,,-0.03,-0.04,1.01,0,-0,-0,0.05,0,,,,,,,
443,0,2.53,3.918,,-0.05,-0.04,0.98,0,-0,-1,0.06,0,0.0,0.0,0.0,0.0,0,0,0.0
448,0,,,,-0.05,-0.03,0.97,0,-1,-0,0.06,0,,,,,,,
453,0,,,,-0.03,-0.03,1.01,0,-0,-0,0.04,0,,,,,,,
458,0,,,,-0.0,-0.03,0.99,0,-0,-1,0.03,0,,,,,,,
463,0,,,,0.0,-0.02,0.97,0,-0,-1,0.02,0,,,,,,,
468,0,,,,-0.01,-0.03,0.99,0,-0,-0,0.03,0,,,,,,,
473,0,,,,-0.05,-0.04,1.01,0,0,-1,0.06,0,,,,,,,
478,0,,,,-0.07,-0.04,0.98,0,0,-0,0.08,0,,,,,,,
483,0,2.49,3.357,,-0.06,-0.04,0.98,0,-0,-0,0.07,0,,,,,,,
583,0,,,,-0.05,-0.06,0.96,0,1,-0,0.07,0,,,,,,,
588,0,,,,-0.03,-0.05,0.99,0,1,-0,0.06,0,,,,,,,
593,0,,,,0.0,-0.04,1.0,0,1,-0,0.04,0,,,,,,,
598,0,,,,0.02,-0.04,0.97,0,1,-0,0.04,0,,,,,,,
603,0,2.55,3.553,,0.02,-0.04,1.0,0,1,-0,0.04,0,,,,,,,
608,0,,,,-0.02,-0.05,1.02,0,1,-0,0.05,0,,,,,,,
613,0,,,,-0.05,-0.05,0.99,0,1,-0,0.07,0,,,,,,,
618,0,,,,-0.05,-0.04,0.97,0,1,-0,0.06,0,,,,,,,
623,0,,,,-0.01,-0.03,1.01,0,0,-0,0.03,0,,,,,,,
628,0,,,,0.0,-0.03,0.99,0,1,-0,0.03,0,,,,,,,
633,0,,,,0.01,-0.02,0.94,0,1,-0,0.02,0,,,,,,,
733,0,,,,-0.01,-0.03,0.99,1,0,-0,0.03,0,,,,,,,
738,0,,,,0.0,-0.03,0.97,1,0,-0,0.03,0,,,,,,,
743,0,,,,-0.02,-0.04,1.01,0,0,-0,0.05,0,0.0,0.0,0.0,0.0,0,0,0.0
748,0,,,,-0.05,-0.05,1.01,0,1,-0,0.07,0,,,,,,,
753,0,,,,-0.07,-0.04,0.97,0,0,-0,0.08,0,,,,,,,
758,0,,,,-0.05,-0.03,0.99,0,-0,-0,0.06,0,,,,,,,
763,0,2.57,3.831,,-0.03,-0.02,1.01,0,0,-0,0.04,0,,,,,,,
768,0,,,,-0.01,-0.02,0.96,1,0,-0,0.03,0,,,,,,,
773,0,,,,-0.02,-0.03,0.96,1,0,-0,0.04,0,,,,,,,
778,0,,,,-0.03,-0.05,1.01,1,0,-0,0.05,0,,,,,,,
783,0,,,,-0.05,-0.06,1.0,1,0,-0,0.08,0,,,,,,,
788,0,,,,-0.05,-0.05,0.97,0,0,-0,0.07,0,,,,,,,
793,0,,,,-0.05,-0.04,1.02,0,0,-0,0.07,0,,,,,,,
798,0,,,,-0.01,-0.04,1.01,1,0,-0,0.04,0,,,,,,,
803,0,2.57,3.699,,-0.01,-0.03,0.99,1,0,-0,0.03,0,,,,,,,
808,0,,,,-0.0,-0.04,0.98,1,0,-0,0.04,0,,,,,,,
813,0,,,,-0.03,-0.05,1.02,0,0,-0,0.06,0,,,,,,,
818,0,,,,-0.06,-0.05,1.0,0,1,-0,0.08,0,,,,,,,
823,0,,,,-0.06,-0.04,0.97,0,0,-0,0.08,0,,,,,,,
828,0,,,,-0.04,-0.04,1.01,0,-0,-0,0.05,0,,,,,,,
833,0,,,,-0.02,-0.03,1.02,0,0,-0,0.04,0,,,,,,,
838,0,,,,-0.01,-0.02,0.96,0,0,-0,0.02,0,,,,,,,
843,0,2.55,3.626,,-0.03,-0.04,1.0,0,-0,-0,0.05,0,0.0,0.0,0.0,0.0,0,0,0.0
848,0,,,,-0.03,-0.05,1.03,0,0,-0,0.06,0,,,,,,,
853,0,,,,-0.06,-0.05,1.01,0,0,-0,0.08,0,,,,,,,
858,0,,,,-0.06,-0.04,0.98,0,-0,-0,0.07,0,,,,,,,
863,0,,,,-0.05,-0.04,1.03,0,-0,-0,0.06,0,,,,,,,
868,0,,,,-0.01,-0.03,1.02,0,0,-0,0.04,0,,,,,,,
873,0,,,,-0.0,-0.03,0.98,0,0,-0,0.03,0,,,,,,,
878,0,,,,-0.01,-0.04,1.01,0,0,-0,0.04,0,,,,,,,
883,0,2.57,3.723,,-0.05,-0.06,1.03,0,0,-0,0.07,0,,,,,,,
888,0,,,,-0.08,-0.05,1.01,0,1,-0,0.09,0,,,,,,,
893,0,,,,-0.07,-0.04,0.98,0,0,-0,0.08,0,,,,,,,
898,0,,,,-0.04,-0.02,1.01,0,-0,-0,0.05,0,,,,,,,
903,0,,,,-0.03,-0.03,1.0,0,0,-0,0.04,0,,,,,,,
908,0,,,,-0.01,-0.02,0.94,0,0,-0,0.03,0,,,,,,,
913,0,,,,-0.04,-0.04,1.01,0,0,-0,0.05,0,,,,,,,
918,0,,,,-0.05,-0.04,1.02,0,0,-0,0.06,0,,,,,,,
923,0,2.54,3.558,,-0.07,-0.03,0.98,0,0,-0,0.08,0,,,,,,,
928,0,,,,-0.07,-0.03,0.99,0,-0,-0,0.08,0,,,,,,,
933,0,,,,-0.05,-0.03,1.02,0,-0,-0,0.05,0,,,,,,,
938,0,,,,-0.02,-0.02,1.01,0,0,-1,0.03,0,,,,,,,
943,0,,,,-0.01,-0.01,0.98,0,-0,-1,0.02,0,0.0,0.0,0.0,0.0,0,0,0.0
948,0,,,,-0.02,-0.03,1.0,0,-0,-0,0.03,0,,,,,,,
953,0,,,,-0.05,-0.04,1.02,0,0,-0,0.06,0,,,,,,,
958,0,,,,-0.07,-0.04,0.99,0,0,-0,0.08,0,,,,,,,
963,0,2.59,3.423,,-0.06,-0.04,0.99,0,-0,-0,0.07,0,,,,,,,
968,0,,,,-0.03,-0.03,1.01,0,-0,-0,0.04,0,,,,,,,
973,0,,,,-0.02,-0.03,0.97,0,0,-0,0.04,0,,,,,,,
978,0,,,,-0.02,-0.04,0.95,1,-0,-0,0.04,0,,,,,,,
983,0,,,,-0.04,-0.05,1.02,0,0,-0,0.07,0,,,,,,,
988,0,,,,-0.05,-0.06,1.0,0,0,-0,0.08,0,,,,,,,
993,0,,,,-0.06,-0.06,0.97,0,0,-0,0.08,0,,,,,,,
998,0,,,,-0.06,-0.05,1.0,0,-0,-0,0.08,0,,,,,,,
1003,0,2.57,3.482,,-0.03,-0.05,1.02,0,-0,-0,0.05,0,,,,,,,
1008,0,,,,-0.01,-0.05,0.99,0,0,-0,0.05,0,,,,,,,
1013,0,,,,0.0,-0.06,0.96,0,-0,-0,0.06,0,,,,,,,
1018,0,,,,-0.03,-0.07,1.0,0,0,-0,0.08,0,,,,,,,
1023,0,,,,-0.06,-0.07,1.0,0,0,-0,0.09,0,,,,,,,
1028,0,,,,-0.07,-0.05,0.96,0,0,0,0.08,0,,,,,,,
1033,0,,,,-0.04,-0.06,0.99,0,-0,0,0.07,0,,,,,,,
1038,0,,,,-0.01,-0.04,1.0,0,0,-0,0.05,0,,,,,,,
1043,0,2.59,3.764,13.37,-0.0,-0.04,0.96,0,0,-0,0.04,0,0.0,0.0,0.0,0.0,0,0,0.0
1048,0,,,,-0.01,-0.05,0.97,1,-0,0,0.05,0,,,,,,,
1053,0,,,,-0.02,-0.06,1.02,1,0,0,0.07,0,,,,,,,
1058,0,,,,-0.04,-0.07,1.0,1,0,-0,0.09,0,,,,,,,
1063,0,,,,-0.04,-0.06,0.97,0,-0,-0,0.08,0,,,,,,,
1068,0,,,,-0.04,-0.06,1.02,0,-0,0,0.07,0,,,,,,,
1073,0,,,,0.01,-0.05,1.0,1,-0,-0,0.05,0,,,,,,,
1078,0,,,,0.01,-0.05,0.99,1,-0,-0,0.05,0,,,,,,,
1083,0,2.61,3.635,,0.01,-0.05,0.98,1,-0,-0,0.05,0,,,,,,,
1088,0,,,,-0.03,-0.06,1.02,1,0,-0,0.07,0,,,,,,,
1093,0,,,,-0.06,-0.06,0.99,0,0,-0,0.09,0,,,,,,,
1098,0,,,,-0.05,-0.05,0.96,0,-0,-0,0.07,0,,,,,,,
1103,0,,,,-0.02,-0.04,1.0,0,-0,-0,0.05,0,,,,,,,
1108,0,,,,-0.0,-0.04,1.0,0,0,-0,0.04,0,,,,,,,
1113,0,,,,-0.0,-0.03,0.95,0,-0,-0,0.03,0,,,,,,,
1118,0,,,,-0.01,-0.05,1.0,0,-0,-0,0.05,0,,,,,,,
1123,0,2.58,3.636,,-0.03,-0.05,1.02,0,0,-0,0.06,0,,,,,,,
1128,0,,,,-0.06,-0.05,0.98,0,0,-0,0.08,0,,,,,,,
1133,0,,,,-0.06,-0.04,0.97,0,-0,-0,0.07,0,,,,,,,
1138,0,,,,-0.03,-0.04,1.01,0,-0,-0,0.05,0,,,,,,,
1143,0,,,,-0.01,-0.04,1.0,0,-0,-0,0.04,0,0.0,0.0,0.0,0.0,0,0,0.0
1148,0,,,,0.0,-0.03,0.97,0,-0,-0,0.03,0,,,,,,,
1153,0,,,,0.0,-0.04,0.99,0,-0,-0,0.04,0,,,,,,,
1158,0,,,,-0.04,-0.06,1.02,0,0,-0,0.07,0,,,,,,,
1163,0,2.61,3.636,,-0.06,-0.05,0.99,0,0,-0,0.08,0,,,,,,,
1168,0,,,,-0.05,-0.05,0.99,0,-0,-0,0.07,0,,,,,,,
1173,0,,,,-0.02,-0.04,1.03,0,-0,-0,0.05,0,,,,,,,
1178,0,,,,-0.01,-0.04,0.98,0,0,-0,0.05,0,,,,,,,
1183,0,,,,-0.0,-0.05,0.95,1,-0,-0,0.05,0,,,,,,,
1188,0,,,,-0.02,-0.06,1.02,0,-0,-0,0.06,0,,,,,,,
1193,0,,,,-0.04,-0.06,1.01,0,0,-0,0.07,0,,,,,,,
1198,0,,,,-0.05,-0.06,0.97,0,-0,-0,0.08,0,,,,,,,
1203,0,2.61,3.529,,-0.05,-0.05,1.0,0,-0,-0,0.07,0,,,,,,,
1208,0,,,,-0.01,-0.05,1.01,1,-0,-0,0.05,0,,,,,,,
1213,0,,,,-0.0,-0.05,0.98,1,0,-0,0.05,0,,,,,,,
1218,0,,,,0.01,-0.05,0.96,1,-0,-0,0.05,0,,,,,,,
1223,0,,,,-0.02,-0.06,1.02,1,0,-0,0.07,0,,,,,,,
1228,0,,,,-0.05,-0.06,1.02,0,0,-0,0.08,0,,,,,,,
1233,0,,,,-0.06,-0.06,0.98,0,0,-0,0.08,0,,,,,,,
1238,0,,,,-0.04,-0.06,1.0,0,-0,-0,0.07,0,,,,,,,
1263,0,,,,-0.04,-0.07,0.99,1,0,0,0.08,0,,,,,,,
1273,0,,,,-0.04,-0.05,1.02,0,-0,0,0.06,0,,,,,,,
1278,0,,,,-0.0,-0.04,1.0,1,0,0,0.04,0,,,,,,,
1283,0,2.59,3.687,,0.01,-0.04,0.98,1,-0,0,0.04,0,,,,,,,
1288,0,,,,0.01,-0.06,0.99,1,-0,0,0.06,0,,,,,,,
1308,0,,,,-0.01,-0.05,1.0,0,-0,0,0.05,0,,,,,,,
1313,0,,,,-0.0,-0.05,1.0,1,0,-0,0.05,0,,,,,,,
1318,0,,,,0.0,-0.03,0.95,1,0,-0,0.04,0,,,,,,,
1323,0,2.6,3.576,,-0.02,-0.05,1.0,1,-0,0,0.05,0,,,,,,,
1328,0,,,,-0.04,-0.05,1.03,1,0,-0,0.06,0,,,,,,,
1333,0,,,,-0.06,-0.05,0.99,0,0,-0,0.08,0,,,,,,,
1338,0,,,,-0.06,-0.04,0.99,0,-0,0,0.07,0,,,,,,,
1343,0,,,,-0.03,-0.03,1.03,1,0,0,0.05,0,0.0,0.0,0.0,0.0,0,0,0.0
1348,0,,,,-0.01,-0.03,1.01,1,0,-0,0.03,0,,,,,,,
1353,0,,,,-0.0,-0.02,0.98,1,0,-0,0.02,0,,,,,,,
1358,0,,,,-0.02,-0.03,1.01,1,0,0,0.04,0,,,,,,,
1363,0,2.58,3.656,,-0.05,-0.05,1.03,1,0,0,0.07,0,,,,,,,
1368,0,,,,-0.07,-0.05,1.0,1,0,0,0.09,0,,,,,,,
1373,0,,,,-0.06,-0.04,1.0,0,-0,0,0.07,0,,,,,,,
1378,0,,,,-0.03,-0.03,1.03,1,-0,0,0.04,0,,,,,,,
1383,0,,,,-0.02,-0.03,0.99,1,0,-0,0.03,0,,,,,,,
1388,0,,,,-0.02,-0.03,0.96,1,-0,0,0.03,0,,,,,,,
1393,0,,,,-0.03,-0.04,1.01,1,-0,-0,0.05,0,,,,,,,
1398,0,,,,-0.04,-0.05,1.0,0,0,-0,0.06,0,,,,,,,
1403,0,2.58,3.501,,-0.06,-0.04,0.97,0,-0,-0,0.07,0,,,,,,,
1408,0,,,,-0.05,-0.03,0.99,0,-0,-0,0.06,0,,,,,,,
1413,0,,,,-0.03,-0.03,1.01,0,0,-0,0.04,0,,,,,,,
1418,0,,,,-0.01,-0.03,0.98,1,0,-0,0.03,0,,,,,,,
1423,0,,,,0.0,-0.02,0.97,1,0,-0,0.02,0,,,,,,,
1428,0,,,,-0.01,-0.03,1.0,0,0,-0,0.04,0,,,,,,,
1433,0,,,,-0.05,-0.04,0.99,0,0,-0,0.06,0,,,,,,,
1438,0,,,,-0.06,-0.03,0.96,0,0,-0,0.07,0,,,,,,,
1443,0,2.59,3.462,,-0.04,-0.03,0.98,0,-0,-0,0.05,0,0.0,0.0,0.0,0.0,0,0,0.0
1448,0,,,,-0.02,-0.01,1.0,0,0,-0,0.02,0,,,,,,,
1453,0,,,,-0.0,-0.01,0.95,0,0,-0,0.01,0,,,,,,,
1458,0,,,,-0.01,-0.02,0.95,0,-0,-0,0.02,0,,,,,,,
1463,0,,,,-0.02,-0.03,0.99,0,0,-0,0.03,0,,,,,,,
1468,0,,,,-0.03,-0.04,0.98,0,0,-0,0.05,0,,,,,,,
1473,0,,,,-0.04,-0.04,0.95,0,-0,-0,0.05,0,,,,,,,
1478,0,,,,-0.04,-0.03,0.98,0,-0,-0,0.04,0,,,,,,,
1483,0,2.55,3.475,,-0.0,-0.03,0.99,0,0,-0,0.03,0,,,,,,,
1488,0,,,,0.01,-0.03,0.96,0,0,-0,0.03,0,,,,,,,
1493,0,,,,0.01,-0.04,0.95,1,0,-0,0.04,0,,,,,,,
1498,0,,,,-0.01,-0.05,1.0,0,0,-0,0.05,0,,,,,,,
1503,0,,,,-0.05,-0.05,0.99,0,1,-0,0.07,0,,,,,,,
1508,0,,,,-0.05,-0.04,0.96,0,0,-0,0.07,0,,,,,,,
1513,0,,,,-0.03,-0.03,1.0,0,-0,-0,0.05,0,,,,,,,
1518,0,,,,-0.01,-0.03,1.0,0,0,-0,0.03,0,,,,,,,
1523,0,2.59,3.643,,-0.0,-0.02,0.95,0,0,-0,0.02,0,,,,,,,
1528,0,,,,-0.01,-0.03,0.97,0,-0,-0,0.03,0,,,,,,,
1533,0,,,,-0.02,-0.04,1.01,0,0,-0,0.04,0,,,,,,,
1538,0,,,,-0.05,-0.04,0.99,0,0,-0,0.06,0,,,,,,,
1543,0,,,,-0.04,-0.03,0.97,0,-0,-0,0.05,0,0.0,0.0,0.0,0.0,0,0,0.0
1548,0,,,,-0.04,-0.02,1.02,0,-0,-0,0.05,0,,,,,,,
1553,0,,,,-0.01,-0.02,1.0,0,0,-0,0.02,0,,,,,,,
1558,0,,,,0.0,-0.02,0.99,0,-0,-0,0.02,0,,,,,,,
1563,0,2.58,3.604,,0.0,-0.03,0.99,0,-0,-0,0.03,0,,,,,,,
1568,0,,,,-0.03,-0.05,1.02,0,0,-0,0.05,0,,,,,,,
1573,0,,,,-0.06,-0.04,1.01,0,0,-0,0.07,0,,,,,,,
1578,0,,,,-0.06,-0.03,0.98,0,-0,-0,0.07,0,,,,,,,
1583,0,,,,-0.03,-0.02,1.02,0,-0,-0,0.04,0,,,,,,,
1588,0,,,,-0.02,-0.02,1.01,0,0,-0,0.03,0,,,,,,,
1593,0,,,,-0.01,-0.01,0.96,0,0,-0,0.02,0,,,,,,,
1598,0,,,,-0.02,-0.03,1.01,0,-0,-0,0.04,0,,,,,,,
1603,0,2.59,3.65,,-0.03,-0.04,1.03,0,0,-0,0.05,0,,,,,,,
1608,0,,,,-0.06,-0.04,1.01,0,0,-0,0.07,0,,,,,,,
1613,0,,,,-0.05,-0.03,0.99,0,-0,-0,0.06,0,,,,,,,
1618,0,,,,-0.04,-0.02,1.04,0,-0,-0,0.04,0,,,,,,,
1623,0,,,,-0.02,-0.02,1.02,0,-0,-0,0.02,0,,,,,,,
1628,0,,,,-0.0,-0.02,0.99,0,-0,-0,0.02,0,,,,,,,
1633,0,,,,0.0,-0.03,1.0,0,-0,-0,0.03,0,,,,,,,
1638,0,,,,-0.02,-0.05,1.02,0,0,-0,0.05,0,,,,,,,
1643,0,2.58,3.448,,-0.05,-0.04,0.98,0,0,-0,0.06,0,0.0,0.0,0.0,0.0,0,0,0.0
1648,0,,,,-0.05,-0.03,0.97,0,-0,-0,0.05,0,,,,,,,
1653,0,,,,-0.01,-0.02,1.0,0,-0,-0,0.02,0,,,,,,,
1658,0,,,,-0.01,-0.02,1.0,0,0,-0,0.03,0,,,,,,,
1663,0,,,,-0.01,-0.02,0.95,0,-1,-0,0.02,0,,,,,,,
1668,0,,,,-0.01,-0.04,1.01,0,-1,-0,0.04,0,,,,,,,
1673,0,,,,-0.02,-0.04,1.02,0,-0,-0,0.05,0,,,,,,,
1678,0,,,,-0.05,-0.04,0.99,0,-0,-0,0.06,0,,,,,,,
1683,0,2.59,3.243,,-0.04,-0.03,0.98,0,-1,-0,0.05,0,,,,,,,
1688,0,,,,-0.03,-0.03,1.02,0,-0,-0,0.04,0,,,,,,,
1693,0,,,,-0.0,-0.02,1.0,0,-0,-1,0.02,0,,,,,,,
1698,0,,,,0.01,-0.02,0.98,0,-0,-1,0.02,0,,,,,,,
1703,0,,,,0.01,-0.03,0.98,0,-0,-0,0.03,0,,,,,,,
1708,0,,,,-0.02,-0.05,1.0,0,-0,-0,0.05,0,,,,,,,
1713,0,,,,-0.04,-0.04,0.98,0,0,-0,0.06,0,,,,,,,
1718,0,,,,-0.04,-0.03,0.97,0,-0,-0,0.05,0,,,,,,,
1723,0,2.59,3.288,,-0.01,-0.02,1.01,0,-0,-0,0.02,0,,,,,,,
1728,0,,,,-0.0,-0.03,0.98,0,-0,-0,0.03,0,,,,,,,
1733,0,,,,0.0,-0.03,0.94,0,-0,-0,0.03,0,,,,,,,
1738,0,,,,-0.01,-0.03,0.99,0,-0,-0,0.04,0,,,,,,,
1743,0,,,,-0.03,-0.04,1.01,0,0,-1,0.05,0,0.0,0.0,0.0,0.0,0,0,0.0
1748,0,,,,-0.05,-0.03,0.98,0,-0,-1,0.06,0,,,,,,,
1753,0,,,,-0.04,-0.03,0.98,0,-0,-0,0.05,0,,,,,,,
1758,0,,,,-0.02,-0.03,1.01,0,-0,-1,0.03,0,,,,,,,
1763,0,2.57,3.245,,-0.0,-0.02,0.99,0,-0,-1,0.02,0,,,,,,,
1768,0,,,,0.01,-0.02,0.97,0,-0,-1,0.02,0,,,,,,,
1773,0,,,,0.0,-0.02,1.0,0,-0,-1,0.02,0,,,,,,,
1778,0,,,,-0.02,-0.04,1.01,0,0,-1,0.05,0,,,,,,,
1783,0,,,,-0.05,-0.04,0.99,0,0,-0,0.06,0,,,,,,,
1788,0,,,,-0.04,-0.04,0.98,0,-0,-0,0.05,0,,,,,,,
1793,0,,,,-0.01,-0.03,1.01,0,-0,-0,0.03,0,,,,,,,
1798,0,,,,0.0,-0.03,0.99,0,-0,-1,0.03,0,,,,,,,
1803,0,2.59,3.267,,-0.01,-0.03,0.96,0,-0,-0,0.04,0,,,,,,,
1808,0,,,,-0.02,-0.04,1.01,0,-0,-0,0.05,0,,,,,,,
1813,0,,,,-0.03,-0.05,1.01,0,0,-0,0.06,0,,,,,,,
1818,0,,,,-0.05,-0.05,0.98,0,-0,-0,0.07,0,,,,,,,
1823,0,,,,-0.04,-0.04,0.98,0,-0,-0,0.06,0,,,,,,,
1828,0,,,,-0.02,-0.04,1.01,0,-0,-0,0.05,0,,,,,,,
1833,0,,,,-0.0,-0.03,0.99,1,0,-1,0.03,0,,,,,,,
1838,0,,,,0.0,-0.03,0.97,1,0,-0,0.03,0,,,,,,,
1843,0,2.57,3.221,,-0.0,-0.04,0.98,1,0,-0,0.04,0,0.0,0.0,0.0,0.0,0,0,0.0
1848,0,,,,-0.03,-0.06,1.0,1,0,-0,0.07,0,,,,,,,
1853,0,,,,-0.05,-0.06,0.96,0,0,-0,0.07,0,,,,,,,
1858,0,,,,-0.05,-0.05,0.97,0,-0,-0,0.07,0,,,,,,,
1863,0,,,,-0.01,-0.04,1.0,0,0,-0,0.04,0,,,,,,,
1868,0,,,,-0.0,-0.04,0.97,1,0,-0,0.04,0,,,,,,,
1873,0,,,,-0.0,-0.04,0.94,1,0,-0,0.04,0,,,,,,,
1878,0,,,,-0.02,-0.05,0.99,1,0,-0,0.05,0,,,,,,,
1883,0,2.56,3.244,,-0.03,-0.06,0.99,1,0,-0,0.06,0,,,,,,,
1888,0,,,,-0.04,-0.05,0.95,0,0,-0,0.07,0,,,,,,,
1893,0,,,,-0.05,-0.05,0.97,0,0,-0,0.07,0,,,,,,,
1898,0,,,,-0.03,-0.04,0.99,0,0,-0,0.05,0,,,,,,,
1903,0,,,,-0.01,-0.04,0.97,1,0,-0,0.04,0,,,,,,,
1908,0,,,,0.0,-0.04,0.96,1,0,-0,0.04,0,,,,,,,
1913,0,,,,-0.01,-0.05,0.98,0,0,-0,0.05,0,,,,,,,
1918,0,,,,-0.04,-0.06,1.0,0,0,-0,0.08,0,,,,,,,
1923,0,2.56,3.159,,-0.06,-0.06,0.97,0,0,-0,0.08,0,,,,,,,
1928,0,,,,-0.05,-0.06,0.97,0,-0,-0,0.07,0,,,,,,,
1933,0,,,,-0.02,-0.05,0.99,0,0,-0,0.05,0,,,,,,,
1938,0,,,,-0.0,-0.04,0.96,0,0,-0,0.04,0,,,,,,,
1943,0,,,,-0.0,-0.04,0.95,0,0,-0,0.04,0,0.0,0.0,0.0,0.0,0,0,0.0
1948,0,,,,-0.02,-0.05,0.99,0,0,-0,0.05,0,,,,,,,
1953,0,,,,-0.03,-0.06,0.99,0,1,-0,0.07,0,,,,,,,
1958,0,,,,-0.04,-0.06,0.96,0,0,-0,0.07,0,,,,,,,
1963,0,2.54,3.201,,-0.04,-0.05,0.97,0,0,-0,0.07,0,,,,,,,
1968,0,,,,-0.01,-0.06,1.0,0,0,-0,0.06,0,,,,,,,
1973,0,,,,0.01,-0.05,0.97,0,0,-0,0.05,0,,,,,,,
1978,0,,,,0.01,-0.05,0.96,0,0,-0,0.05,0,,,,,,,
1983,0,,,,-0.01,-0.06,0.98,0,1,-0,0.06,0,,,,,,,
1988,0,,,,-0.03,-0.07,1.0,0,1,-0,0.08,0,,,,,,,
1993,0,,,,-0.05,-0.06,0.96,0,1,-0,0.08,0,,,,,,,
1998,0,,,,-0.04,-0.06,0.97,0,0,-0,0.07,0,,,,,,,
2003,0,2.55,3.26,,-0.01,-0.06,0.99,0,0,-0,0.06,0,,,,,,,
2008,0,,,,0.0,-0.05,0.95,1,1,-0,0.05,0,,,,,,,
2013,0,,,,0.0,-0.05,0.94,0,0,-0,0.05,0,,,,,,,
2018,0,,,,-0.01,-0.05,0.99,0,0,-0,0.06,0,,,,,,,
2023,0,,,,-0.03,-0.06,0.99,0,1,-0,0.07,0,,,,,,,
2028,0,,,,-0.04,-0.06,0.96,0,0,-0,0.07,0,,,,,,,
2033,0,,,,-0.04,-0.05,0.98,0,0,-0,0.07,0,,,,,,,
2038,0,,,,-0.02,-0.05,0.99,0,0,-0,0.06,0,,,,,,,
2043,0,2.52,3.255,13.39,-0.0,-0.05,0.97,1,0,-0,0.05,0,0.0,0.0,0.0,0.0,0,0,0.0
2048,0,,,,0.01,-0.05,0.96,1,0,-0,0.05,0,,,,,,,
2053,0,,,,-0.01,-0.06,0.99,1,1,-0,0.06,0,,,,,,,
2058,0,,,,-0.04,-0.06,1.0,0,1,-0,0.08,0,,,,,,,
2063,0,,,,-0.06,-0.06,0.96,0,1,-0,0.08,0,,,,,,,
2068,0,,,,-0.05,-0.05,0.98,0,0,-0,0.07,0,,,,,,,
2073,0,,,,-0.02,-0.04,1.0,0,0,-0,0.05,0,,,,,,,
2078,0,,,,-0.01,-0.04,0.95,1,0,-0,0.04,0,,,,,,,
2083,0,2.51,3.201,,-0.01,-0.05,0.95,1,0,-0,0.05,0,,,,,,,
2088,0,,,,-0.02,-0.05,1.0,1,0,-0,0.06,0,,,,,,,
2093,0,,,,-0.03,-0.06,0.99,0,1,-0,0.07,0,,,,,,,
2098,0,,,,-0.04,-0.06,0.97,0,0,-0,0.07,0,,,,,,,
2103,0,,,,-0.04,-0.05,0.99,0,0,0,0.07,0,,,,,,,
2108,0,,,,-0.02,-0.05,1.0,0,0,-0,0.06,0,,,,,,,
2113,0,,,,-0.01,-0.04,0.98,1,0,-0,0.05,0,,,,,,,
2118,0,,,,-0.01,-0.05,0.96,1,0,-0,0.05,0,,,,,,,
2123,0,2.51,3.175,,-0.02,-0.06,0.99,1,0,-0,0.06,0,,,,,,,
2128,0,,,,-0.05,-0.06,0.99,0,1,-0,0.08,0,,,,,,,
2133,0,,,,-0.06,-0.05,0.96,0,0,0,0.08,0,,,,,,,
2138,0,,,,-0.05,-0.05,0.97,0,0,0,0.07,0,,,,,,,
2143,0,,,,-0.02,-0.04,0.99,0,0,-0,0.04,0,0.0,0.0,0.0,0.0,0,0,0.0
2148,0,,,,-0.01,-0.03,0.95,0,0,-0,0.04,0,,,,,,,
2153,0,,,,-0.01,-0.04,0.94,0,0,-0,0.05,0,,,,,,,
2158,0,,,,-0.02,-0.05,0.99,0,0,-0,0.05,0,,,,,,,
2163,0,2.55,3.093,,-0.04,-0.05,0.98,0,0,-0,0.06,0,,,,,,,
2168,0,,,,-0.05,-0.05,0.96,0,0,-0,0.07,0,,,,,,,
2173,0,,,,-0.05,-0.04,0.98,0,0,0,0.07,0,,,,,,,
2178,0,,,,-0.03,-0.04,0.99,0,0,-0,0.05,0,,,,,,,
2183,0,,,,-0.01,-0.03,0.97,1,0,-0,0.04,0,,,,,,,
2188,0,,,,-0.01,-0.04,0.96,1,0,-0,0.04,0,,,,,,,
2193,0,,,,-0.02,-0.05,0.99,1,0,0,0.06,0,,,,,,,
2198,0,,,,-0.05,-0.06,0.99,0,1,-0,0.07,0,,,,,,,
2203,0,2.55,3.028,,-0.06,-0.05,0.96,0,0,0,0.08,0,,,,,,,
2208,0,,,,-0.05,-0.05,0.97,0,0,0,0.07,0,,,,,,,
2213,0,,,,-0.03,-0.04,0.99,0,0,0,0.05,0,,,,,,,
2218,0,,,,-0.01,-0.04,0.96,1,0,-0,0.04,0,,,,,,,
2223,0,,,,-0.02,-0.04,0.94,1,0,-0,0.05,0,,,,,,,
2228,0,,,,-0.03,-0.05,0.99,1,0,-0,0.06,0,,,,,,,
2233,0,,,,-0.04,-0.05,0.99,0,1,-0,0.06,0,,,,,,,
2238,0,,,,-0.05,-0.04,0.96,0,0,-0,0.07,0,,,,,,,
2243,0,2.56,3.084,,-0.05,-0.04,0.98,0,0,-0,0.06,0,0.0,0.0,0.0,0.0,0,0,0.0
2248,0,,,,-0.04,-0.04,1.0,0,0,-0,0.05,0,,,,,,,
2253,0,,,,-0.01,-0.03,0.98,0,0,-0,0.03,0,,,,,,,
2258,0,,,,-0.01,-0.04,0.96,1,0,-0,0.04,0,,,,,,,
2263,0,,,,-0.01,-0.05,0.97,1,0,-0,0.05,0,,,,,,,
2268,0,,,,-0.04,-0.06,1.0,1,0,-0,0.07,0,,,,,,,
2273,0,,,,-0.06,-0.05,0.97,0,0,-0,0.08,0,,,,,,,
2278,0,,,,-0.05,-0.05,0.97,0,-0,-0,0.07,0,,,,,,,
2283,0,2.56,3.136,,-0.02,-0.04,1.0,0,0,-0,0.05,0,,,,,,,
2288,0,,,,-0.01,-0.04,0.97,0,0,-0,0.04,0,,,,,,,
2293,0,,,,-0.01,-0.04,0.94,0,0,-0,0.04,0,,,,,,,
2298,0,,,,-0.03,-0.05,1.0,0,0,-0,0.06,0,,,,,,,
2303,0,,,,-0.03,-0.06,1.0,0,0,-0,0.06,0,,,,,,,
2308,0,,,,-0.05,-0.05,0.97,0,0,-0,0.07,0,,,,,,,
2423,0,,,,-0.02,-0.04,1.0,1,0,-0,0.05,0,,,,,,,
2428,0,,,,-0.02,-0.04,1.0,1,0,-0,0.05,0,,,,,,,
2433,0,,,,-0.01,-0.04,0.94,1,0,-0,0.04,0,,,,,,,
2438,0,,,,-0.03,-0.05,0.99,1,0,-0,0.05,0,,,,,,,
2443,0,2.53,3.025,,-0.03,-0.06,1.0,1,0,-0,0.07,0,0.0,0.0,0.0,0.0,0,0,0.0
2448,0,,,,-0.05,-0.05,0.97,0,0,-0,0.07,0,,,,,,,
2453,0,,,,-0.04,-0.04,0.97,0,0,-0,0.06,0,,,,,,,
2458,0,,,,-0.04,-0.04,1.01,0,0,-0,0.05,0,,,,,,,
2463,0,,,,-0.02,-0.03,0.99,0,0,-0,0.03,0,,,,,,,
2468,0,,,,-0.0,-0.03,0.97,1,0,-0,0.03,0,,,,,,,
2473,0,,,,-0.01,-0.04,0.99,1,0,-0,0.04,0,,,,,,,
2573,0,,,,-0.0,-0.04,0.95,1,-0,-0,0.04,0,,,,,,,
2578,0,,,,-0.01,-0.05,1.0,1,-0,-0,0.05,0,,,,,,,
2583,0,,,,-0.02,-0.05,1.03,0,0,-0,0.06,0,,,,,,,
2588,0,,,,-0.04,-0.05,1.0,0,0,-0,0.07,0,,,,,,,
2593,0,,,,-0.04,-0.04,0.99,0,-0,-0,0.05,0,,,,,,,
2598,0,,,,-0.03,-0.03,1.03,0,-0,-0,0.05,0,,,,,,,
2603,0,2.51,2.785,,-0.01,-0.03,1.01,0,-0,-0,0.03,0,,,,,,,
2608,0,,,,0.01,-0.03,0.99,0,-0,-0,0.04,0,,,,,,,
2613,0,,,,0.01,-0.04,1.0,0,-0,-0,0.04,0,,,,,,,
2618,0,,,,-0.02,-0.05,1.04,0,0,-0,0.06,0,,,,,,,
2623,0,,,,-0.04,-0.05,1.0,0,0,-0,0.07,0,,,,,,,
2723,0,2.54,2.569,,-0.03,-0.06,1.02,0,-0,-0,0.06,0,,,,,,,
2728,0,,,,-0.05,-0.06,1.0,0,-0,-0,0.07,0,,,,,,,
2733,0,,,,-0.04,-0.04,0.98,0,-1,-0,0.06,0,,,,,,,
2738,0,,,,-0.04,-0.04,1.02,0,-0,-0,0.06,0,,,,,,,
2743,0,,,,-0.02,-0.04,1.0,0,-0,-0,0.04,0,0.0,0.0,0.0,0.0,0,0,0.0
2748,0,,,,-0.0,-0.04,0.98,0,-0,-0,0.04,0,,,,,,,
2753,0,,,,-0.0,-0.04,1.0,0,-0,-0,0.04,0,,,,,,,
2758,0,,,,-0.03,-0.06,1.03,0,-0,-0,0.06,0,,,,,,,
2763,0,2.56,2.309,,-0.05,-0.05,1.0,0,0,-0,0.07,0,,,,,,,
2768,0,,,,-0.06,-0.04,0.98,0,-0,-0,0.07,0,,,,,,,
2868,0,,,,-0.04,-0.05,1.01,0,0,-0,0.06,0,,,,,,,
2873,0,,,,-0.03,-0.04,0.97,0,-0,-0,0.05,0,,,,,,,
2878,0,,,,-0.04,-0.03,1.01,0,0,-0,0.05,0,,,,,,,
2883,0,2.54,2.407,,-0.0,-0.03,1.01,0,0,-0,0.03,0,,,,,,,
2888,0,,,,0.01,-0.03,0.99,0,0,-0,0.03,0,,,,,,,
2893,0,,,,0.01,-0.03,0.99,0,0,-0,0.03,0,,,,,,,
2898,0,,,,-0.02,-0.04,1.02,0,0,-0,0.05,0,,,,,,,
2903,0,,,,-0.05,-0.04,1.02,0,1,-0,0.06,0,,,,,,,
2908,0,,,,-0.05,-0.03,0.99,0,0,-0,0.06,0,,,,,,,
2913,0,,,,-0.03,-0.02,1.02,0,-0,-0,0.03,0,,,,,,,
3013,0,,,,-0.05,-0.03,1.0,0,-0,-0,0.06,0,,,,,,,
3018,0,,,,-0.06,-0.02,1.04,0,-0,-0,0.06,0,,,,,,,
3023,0,,,,-0.04,-0.02,1.03,0,0,-0,0.04,0,,,,,,,
3028,0,,,,-0.02,-0.03,1.0,0,-0,-0,0.03,0,,,,,,,
3033,0,,,,-0.02,-0.03,1.01,1,-0,-0,0.04,0,,,,,,,
3038,0,,,,-0.04,-0.05,1.04,0,0,-0,0.06,0,,,,,,,
3043,0,2.53,2.151,13.37,-0.07,-0.04,1.03,0,0,-0,0.08,0,0.0,0.0,0.0,0.0,0,0,0.0
3048,0,,,,-0.07,-0.03,1.0,0,0,-0,0.08,0,,,,,,,
3053,0,,,,-0.04,-0.02,1.03,0,-0,-0,0.05,0,,,,,,,
3058,0,,,,-0.03,-0.02,1.02,0,0,-0,0.03,0,,,,,,,
3163,0,2.57,2.399,,-0.01,-0.02,1.01,1,-0,-0,0.03,0,,,,,,,
3168,0,,,,-0.01,-0.02,0.99,1,-0,-0,0.03,0,,,,,,,
3173,0,,,,-0.0,-0.03,1.0,1,-0,-0,0.03,0,,,,,,,
3178,0,,,,-0.03,-0.05,1.03,0,0,-0,0.06,0,,,,,,,
3183,0,,,,-0.05,-0.04,1.01,0,0,-0,0.07,0,,,,,,,
3188,0,,,,-0.06,-0.04,0.99,0,-0,-0,0.07,0,,,,,,,
3193,0,,,,-0.03,-0.02,1.01,0,-0,-0,0.04,0,,,,,,,
3198,0,,,,-0.02,-0.02,1.01,0,0,-0,0.03,0,,,,,,,
3203,0,2.52,2.406,,-0.01,-0.02,0.96,0,-0,-0,0.02,0,,,,,,,
3208,0,,,,-0.02,-0.04,1.01,1,-0,-0,0.05,0,,,,,,,
3213,0,,,,-0.03,-0.05,1.03,1,0,-0,0.06,0,,,,,,,
3218,0,,,,-0.05,-0.05,1.01,0,-0,-0,0.07,0,,,,,,,
3223,0,,,,-0.04,-0.04,0.99,0,-0,-0,0.05,0,,,,,,,
3228,0,,,,-0.05,-0.03,1.02,0,-0,-0,0.06,0,,,,,,,
3233,0,,,,-0.02,-0.03,1.0,0,-0,-0,0.03,0,,,,,,,
3238,0,,,,-0.01,-0.03,0.99,1,-0,-0,0.03,0,,,,,,,
3243,0,2.56,2.457,,-0.01,-0.04,1.0,1,-0,-0,0.04,0,0.0,0.0,0.0,0.0,0,0,0.0
3248,0,,,,-0.04,-0.05,1.03,1,0,-0,0.07,0,,,,,,,
3253,0,,,,-0.06,-0.05,1.01,0,0,-0,0.08,0,,,,,,,
3258,0,,,,-0.06,-0.04,0.99,0,-0,-0,0.07,0,,,,,,,
3263,0,,,,-0.03,-0.03,1.03,0,-0,-0,0.04,0,,,,,,,
3268,0,,,,-0.02,-0.03,1.01,0,0,-0,0.04,0,,,,,,,
3273,0,,,,-0.02,-0.03,0.96,1,-0,-0,0.03,0,,,,,,,
3278,0,,,,-0.03,-0.04,1.01,1,-0,-0,0.05,0,,,,,,,
3283,0,2.53,2.538,,-0.04,-0.05,1.03,0,0,-0,0.06,0,,,,,,,
3288,0,,,,-0.06,-0.05,1.01,0,0,-1,0.08,0,,,,,,,
3293,0,,,,-0.05,-0.04,1.0,0,-0,-0,0.06,0,,,,,,,
3298,0,,,,-0.03,-0.03,1.03,0,-0,-0,0.05,0,,,,,,,
3303,0,,,,-0.01,-0.03,1.01,0,-0,-1,0.03,0,,,,,,,
3308,0,,,,-0.0,-0.03,0.98,0,-0,-1,0.03,0,,,,,,,
3313,0,,,,-0.01,-0.04,1.0,0,-0,-1,0.04,0,,,,,,,
3318,0,,,,-0.03,-0.05,1.03,0,0,-1,0.06,0,,,,,,,
3323,0,2.57,2.391,,-0.06,-0.05,1.01,0,0,-1,0.08,0,,,,,,,
3328,0,,,,-0.05,-0.04,0.99,0,-0,-0,0.07,0,,,,,,,
3333,0,,,,-0.03,-0.03,1.02,0,-0,-0,0.04,0,,,,,,,
3338,0,,,,-0.02,-0.03,1.01,0,0,-0,0.04,0,,,,,,,
3343,0,,,,-0.01,-0.03,0.96,0,-0,-1,0.03,0,0.0,0.0,0.0,0.0,0,0,0.0
3348,0,,,,-0.03,-0.05,1.01,0,-0,-0,0.05,0,,,,,,,
3353,0,,,,-0.03,-0.06,1.02,0,0,-0,0.06,0,,,,,,,
3358,0,,,,-0.05,-0.05,0.99,0,0,-1,0.08,0,,,,,,,
3363,0,2.54,2.401,,-0.04,-0.04,0.99,0,-0,-0,0.06,0,,,,,,,
3368,0,,,,-0.04,-0.03,1.02,0,-0,-0,0.05,0,,,,,,,
3373,0,,,,-0.0,-0.03,0.99,0,-0,-1,0.03,0,,,,,,,
3378,0,,,,0.0,-0.03,0.98,0,-0,-1,0.03,0,,,,,,,
3383,0,,,,-0.0,-0.04,0.98,0,-0,-1,0.04,0,,,,,,,
3388,0,,,,-0.04,-0.06,1.01,0,0,-1,0.07,0,,,,,,,
3393,0,,,,-0.05,-0.05,0.98,0,0,-1,0.08,0,,,,,,,
3398,0,,,,-0.06,-0.05,0.98,0,-0,-0,0.08,0,,,,,,,
3403,0,2.55,2.402,,-0.02,-0.03,1.01,0,-0,-0,0.04,0,,,,,,,
3408,0,,,,-0.01,-0.04,0.99,1,-0,-0,0.04,0,,,,,,,
3413,0,,,,-0.0,-0.04,0.95,1,-0,-1,0.04,0,,,,,,,
3418,0,,,,-0.02,-0.05,1.0,1,-0,-0,0.06,0,,,,,,,
3423,0,,,,-0.03,-0.06,1.0,1,0,-0,0.07,0,,,,,,,
3428,0,,,,-0.05,-0.05,0.98,0,-0,-1,0.07,0,,,,,,,
3433,0,,,,-0.05,-0.04,0.99,0,-0,-0,0.06,0,,,,,,,
3438,0,,,,-0.03,-0.03,1.02,0,0,-0,0.04,0,,,,,,,
3443,0,2.56,2.447,,-0.01,-0.02,1.0,1,0,-1,0.03,0,0.0,0.0,0.0,0.0,0,0,0.0
3448,0,,,,-0.0,-0.02,0.97,1,-0,-1,0.02,0,,,,,,,
3453,0,,,,-0.01,-0.04,0.99,1,0,-0,0.04,0,,,,,,,
3458,0,,,,-0.04,-0.05,1.0,1,0,-0,0.06,0,,,,,,,
3463,0,,,,-0.06,-0.05,0.98,0,0,-0,0.08,0,,,,,,,
3468,0,,,,-0.06,-0.04,0.97,0,-0,-0,0.07,0,,,,,,,
3473,0,,,,-0.02,-0.03,1.0,0,-0,-0,0.03,0,,,,,,,
3478,0,,,,-0.01,-0.03,0.97,0,0,-0,0.03,0,,,,,,,
3483,0,2.53,2.447,,-0.01,-0.04,0.95,0,-0,-0,0.04,0,,,,,,,
3488,0,,,,-0.03,-0.05,1.0,0,0,-0,0.05,0,,,,,,,
3493,0,,,,-0.04,-0.05,0.99,0,0,-0,0.06,0,,,,,,,
3498,0,,,,-0.06,-0.05,0.97,0,0,-0,0.07,0,,,,,,,
3503,0,,,,-0.05,-0.04,0.98,0,0,-0,0.06,0,,,,,,,
3508,0,,,,-0.03,-0.03,1.0,0,0,-0,0.04,0,,,,,,,
3513,0,,,,-0.01,-0.03,0.97,0,0,-1,0.03,0,,,,,,,
3518,0,,,,0.0,-0.04,0.96,0,0,-1,0.04,0,,,,,,,
3523,0,2.56,2.467,,-0.01,-0.04,0.99,0,0,-0,0.05,0,,,,,,,
3528,0,,,,-0.04,-0.05,0.99,0,0,-0,0.06,0,,,,,,,
3533,0,,,,-0.06,-0.05,0.97,0,0,-0,0.08,0,,,,,,,
3538,0,,,,-0.05,-0.05,0.97,0,-0,-0,0.07,0,,,,,,,
3543,0,,,,-0.02,-0.03,1.0,0,0,-0,0.04,0,0.0,0.0,0.0,0.0,0,0,0.0
3548,0,,,,-0.01,-0.04,0.96,0,0,-0,0.04,0,,,,,,,
3553,0,,,,-0.0,-0.04,0.95,0,0,-0,0.04,0,,,,,,,
3558,0,,,,-0.02,-0.05,1.0,0,0,-0,0.06,0,,,,,,,
3563,0,2.55,2.353,,-0.03,-0.06,0.99,0,0,-0,0.07,0,,,,,,,
3568,0,,,,-0.05,-0.06,0.96,0,0,-0,0.07,0,,,,,,,
3573,0,,,,-0.04,-0.05,0.98,0,0,-0,0.07,0,,,,,,,
3578,0,,,,-0.03,-0.04,0.99,0,0,-0,0.05,0,,,,,,,
3583,0,,,,-0.01,-0.04,0.97,0,0,-0,0.05,0,,,,,,,
3588,0,,,,0.0,-0.05,0.95,0,0,-0,0.05,0,,,,,,,
3593,0,,,,-0.01,-0.06,0.99,0,0,-0,0.06,0,,,,,,,
3598,0,,,,-0.04,-0.07,0.99,0,1,-0,0.08,0,,,,,,,
3603,0,2.54,2.36,,-0.06,-0.06,0.97,0,0,-0,0.09,0,,,,,,,
3608,0,,,,-0.05,-0.06,0.98,0,-0,-0,0.08,0,,,,,,,
3613,0,,,,-0.02,-0.04,0.99,0,0,-0,0.05,0,,,,,,,
3618,0,,,,-0.01,-0.04,0.96,0,0,-0,0.04,0,,,,,,,
3623,0,,,,-0.01,-0.05,0.94,1,0,-0,0.05,0,,,,,,,
3628,0,,,,-0.02,-0.06,0.99,0,0,-0,0.06,0,,,,,,,
3633,0,,,,-0.03,-0.07,0.98,0,0,-0,0.08,0,,,,,,,
3638,0,,,,-0.05,-0.06,0.96,0,0,-0,0.08,0,,,,,,,
3643,0,2.51,2.386,,-0.05,-0.06,0.98,0,0,-0,0.08,0,0.0,0.0,0.0,0.0,0,0,0.0
3648,0,,,,-0.03,-0.05,0.99,0,0,-0,0.06,0,,,,,,,
3653,0,,,,-0.01,-0.05,0.98,1,0,-0,0.05,0,,,,,,,
3658,0,,,,-0.0,-0.05,0.96,1,0,-0,0.05,0,,,,,,,
3663,0,,,,-0.02,-0.06,0.99,1,0,-0,0.07,0,,,,,,,
3668,0,,,,-0.05,-0.07,1.0,1,1,-0,0.08,0,,,,,,,
3673,0,,,,-0.06,-0.07,0.96,0,0,-0,0.09,0,,,,,,,
3678,0,,,,-0.05,-0.06,0.97,0,-0,0,0.08,0,,,,,,,
3683,0,2.56,2.505,,-0.02,-0.05,0.99,0,0,-0,0.05,0,,,,,,,
3688,0,,,,-0.01,-0.04,0.95,1,0,-0,0.05,0,,,,,,,
3693,0,,,,-0.01,-0.05,0.93,1,0,-0,0.05,0,,,,,,,
3698,0,,,,-0.03,-0.06,0.98,1,0,-0,0.06,0,,,,,,,
3703,0,,,,-0.03,-0.07,0.97,1,0,0,0.07,0,,,,,,,
3708,0,,,,-0.05,-0.07,0.95,0,0,-0,0.08,0,,,,,,,
3713,0,,,,-0.05,-0.06,0.97,0,0,0,0.08,0,,,,,,,
3718,0,,,,-0.0,-0.05,0.97,0,0,-0,0.05,0,,,,,,,
3723,0,2.56,2.545,,0.01,-0.04,0.95,0,0,-0,0.04,0,,,,,,,
3728,0,,,,0.02,-0.04,0.94,0,0,-0,0.04,0,,,,,,,
3733,0,,,,-0.01,-0.05,0.98,0,0,-0,0.06,0,,,,,,,
3738,0,,,,-0.04,-0.06,0.99,0,1,-0,0.07,0,,,,,,,
3743,0,,,,-0.05,-0.05,0.95,0,0,-0,0.08,0,0.0,0.0,0.0,0.0,0,0,0.0
3748,0,,,,-0.04,-0.05,0.96,0,-0,-0,0.06,0,,,,,,,
3753,0,,,,-0.01,-0.03,0.98,0,0,-0,0.03,0,,,,,,,
3758,0,,,,-0.0,-0.03,0.93,0,0,-0,0.03,0,,,,,,,
3763,0,2.56,2.609,,-0.01,-0.04,0.93,0,0,-0,0.04,0,,,,,,,
3768,0,,,,-0.01,-0.04,0.97,0,0,-0,0.05,0,,,,,,,
3773,0,,,,-0.03,-0.06,0.97,0,1,-0,0.06,0,,,,,,,
3778,0,,,,-0.04,-0.05,0.94,0,0,-0,0.07,0,,,,,,,
3783,0,,,,-0.04,-0.05,0.97,0,0,0,0.06,0,,,,,,,
3788,0,,,,-0.01,-0.05,0.98,0,0,0,0.05,0,,,,,,,
3793,0,,,,-0.0,-0.05,0.95,1,0,0,0.05,0,,,,,,,
3798,0,,,,0.01,-0.06,0.94,1,0,0,0.06,0,,,,,,,
3803,0,2.56,2.619,,-0.01,-0.06,0.98,0,0,0,0.06,0,,,,,,,
3808,0,,,,-0.04,-0.06,0.98,0,1,-0,0.07,0,,,,,,,
3813,0,,,,-0.05,-0.05,0.95,0,0,0,0.08,0,,,,,,,
3818,0,,,,-0.03,-0.05,0.97,0,-0,-0,0.06,0,,,,,,,
3823,0,,,,-0.01,-0.04,0.98,0,0,-0,0.04,0,,,,,,,
3828,0,,,,-0.0,-0.03,0.93,0,0,-0,0.03,0,,,,,,,
3833,0,,,,-0.01,-0.05,0.94,0,-0,-0,0.05,0,,,,,,,
3838,0,,,,-0.01,-0.05,0.99,0,0,-0,0.05,0,,,,,,,
3843,0,2.52,2.303,,-0.04,-0.05,0.98,0,0,-0,0.06,0,0.0,0.0,0.0,0.0,0,0,0.0
3848,0,,,,-0.04,-0.05,0.96,0,-0,-0,0.06,0,,,,,,,
3853,0,,,,-0.05,-0.04,1.0,0,0,0,0.06,0,,,,,,,
3858,0,,,,-0.0,-0.04,0.98,0,0,-0,0.04,0,,,,,,,
3863,0,,,,-0.0,-0.04,0.98,0,0,-0,0.04,0,,,,,,,
3868,0,,,,0.01,-0.04,0.95,0,0,-0,0.04,0,,,,,,,
3873,0,,,,-0.02,-0.05,0.99,0,0,-0,0.05,0,,,,,,,
3878,0,,,,-0.05,-0.05,1.0,0,1,-0,0.07,0,,,,,,,
3883,0,2.56,2.631,,-0.06,-0.04,0.96,0,0,-0,0.07,0,,,,,,,
3888,0,,,,-0.04,-0.03,0.99,0,-0,0,0.05,0,,,,,,,
3893,0,,,,-0.02,-0.02,0.99,0,0,-0,0.03,0,,,,,,,
3898,0,,,,-0.01,-0.01,0.95,0,0,-0,0.02,0,,,,,,,
3903,0,,,,-0.01,-0.03,0.97,0,-0,-0,0.03,0,,,,,,,
3908,0,,,,-0.02,-0.03,1.01,0,0,-0,0.04,0,,,,,,,
3913,0,,,,-0.05,-0.03,0.99,0,0,-0,0.06,0,,,,,,,
3918,0,,,,-0.04,-0.03,0.97,0,-0,-0,0.05,0,,,,,,,
3923,0,2.56,2.755,,-0.04,-0.02,1.02,0,-0,0,0.05,0,,,,,,,
3928,0,,,,-0.01,-0.02,1.0,0,0,-0,0.02,0,,,,,,,
3933,0,,,,-0.0,-0.02,0.99,0,-0,-0,0.02,0,,,,,,,
3938,0,,,,0.01,-0.02,0.99,0,-0,-0,0.03,0,,,,,,,
3943,0,,,,-0.02,-0.04,1.02,0,0,-0,0.05,0,0.0,0.0,0.0,0.0,0,0,0.0
3948,0,,,,-0.05,-0.04,1.01,0,0,-0,0.06,0,,,,,,,
3953,0,,,,-0.05,-0.03,0.98,0,-0,-0,0.06,0,,,,,,,
3958,0,,,,-0.03,-0.02,1.02,0,-0,-0,0.03,0,,,,,,,
3963,0,2.56,2.979,,-0.02,-0.02,1.01,0,0,-0,0.02,0,,,,,,,
3968,0,,,,-0.01,-0.01,0.96,0,0,-0,0.01,0,,,,,,,
3973,0,,,,-0.01,-0.03,1.0,0,-0,-0,0.03,0,,,,,,,
3978,0,,,,-0.02,-0.03,1.03,0,0,-0,0.04,0,,,,,,,
3983,0,,,,-0.05,-0.03,1.01,0,0,-0,0.06,0,,,,,,,
3988,0,,,,-0.04,-0.02,0.99,0,-0,-0,0.04,0,,,,,,,
3993,0,,,,-0.04,-0.02,1.03,0,-0,-0,0.04,0,,,,,,,
3998,0,,,,-0.01,-0.01,1.01,0,-0,-0,0.01,0,,,,,,,
4003,0,2.56,3.0,,-0.0,-0.01,1.0,0,-0,-0,0.01,0,,,,,,,
4008,0,,,,0.01,-0.02,1.0,0,-0,-0,0.02,0,,,,,,,
4013,0,,,,-0.03,-0.03,1.03,0,0,-0,0.04,0,,,,,,,
4018,0,,,,-0.05,-0.03,1.01,0,0,-0,0.06,0,,,,,,,
4023,0,,,,-0.05,-0.02,0.99,0,-0,-0,0.06,0,,,,,,,
4028,0,,,,-0.03,-0.01,1.03,0,-0,-0,0.03,0,,,,,,,
4033,0,,,,-0.02,-0.01,1.01,0,-0,-0,0.02,0,,,,,,,
4038,0,,,,-0.01,-0.01,0.97,0,-0,-0,0.01,0,,,,,,,
4043,0,2.54,3.053,13.4,-0.02,-0.02,1.01,0,-0,-0,0.03,0,0.0,0.0,0.0,0.0,0,0,0.0
4048,0,,,,-0.03,-0.03,1.04,0,0,-0,0.04,0,,,,,,,
4053,0,,,,-0.05,-0.03,1.02,0,-0,-0,0.06,0,,,,,,,
4058,0,,,,-0.04,-0.02,1.0,0,-0,-0,0.05,0,,,,,,,
4063,0,,,,-0.04,-0.01,1.04,0,-0,-0,0.04,0,,,,,,,
4068,0,,,,-0.01,-0.01,1.02,0,-0,-0,0.01,0,,,,,,,
4073,0,,,,-0.0,-0.01,1.01,0,-0,-0,0.01,0,,,,,,,
4078,0,,,,0.0,-0.02,1.01,0,-0,-0,0.02,0,,,,,,,
4083,0,2.51,3.314,,-0.03,-0.03,1.04,0,-0,-0,0.04,0,,,,,,,
4088,0,,,,-0.06,-0.03,1.02,0,0,-0,0.06,0,,,,,,,
4093,0,,,,-0.05,-0.02,0.99,0,-0,-0,0.06,0,,,,,,,
4098,0,,,,-0.03,-0.01,1.02,0,-0,-0,0.03,0,,,,,,,
4103,0,,,,-0.02,-0.01,1.01,0,-0,-1,0.02,0,,,,,,,
4108,0,,,,-0.01,-0.01,0.96,0,-0,-1,0.01,0,,,,,,,
4113,0,,,,-0.02,-0.02,1.0,0,-0,-1,0.03,0,,,,,,,
4118,0,,,,-0.03,-0.03,1.03,0,-0,-1,0.04,0,,,,,,,
4123,0,2.56,3.132,,-0.06,-0.03,1.01,0,-0,-1,0.06,0,,,,,,,
4128,0,,,,-0.04,-0.01,0.99,0,-0,-0,0.05,0,,,,,,,
4133,0,,,,-0.04,-0.01,1.03,0,-0,-0,0.04,0,,,,,,,
4138,0,,,,-0.0,-0.0,1.01,0,-0,-1,0.01,0,,,,,,,
4143,0,,,,-0.0,-0.01,1.0,0,-0,-1,0.01,0,0.0,0.0,0.0,0.0,0,0,0.0
4148,0,,,,0.0,-0.01,1.0,0,-0,-1,0.01,0,,,,,,,
4153,0,,,,-0.03,-0.03,1.03,0,0,-1,0.04,0,,,,,,,
4158,0,,,,-0.05,-0.02,1.01,0,0,-1,0.06,0,,,,,,,
4163,0,2.56,3.213,,-0.05,-0.02,0.98,0,-0,-0,0.06,0,,,,,,,
4168,0,,,,-0.02,-0.01,1.02,0,-0,-0,0.02,0,,,,,,,
4173,0,,,,-0.02,-0.01,1.01,0,-0,-1,0.02,0,,,,,,,
4178,0,,,,-0.01,-0.01,0.96,0,-0,-1,0.01,0,,,,,,,
4183,0,,,,-0.02,-0.03,1.0,0,-0,-1,0.03,0,,,,,,,
4188,0,,,,-0.03,-0.03,1.02,0,0,-1,0.04,0,,,,,,,
4193,0,,,,-0.06,-0.03,1.0,0,-0,-1,0.06,0,,,,,,,
4198,0,,,,-0.05,-0.02,0.99,0,-0,-1,0.05,0,,,,,,,
4203,0,2.56,3.203,,-0.03,-0.01,1.03,0,-0,-1,0.04,0,,,,,,,
4208,0,,,,-0.01,-0.01,1.01,0,-0,-1,0.01,0,,,,,,,
4213,0,,,,-0.0,-0.01,0.99,0,-0,-1,0.01,0,,,,,,,
4218,0,,,,0.0,-0.02,1.0,0,-0,-1,0.02,0,,,,,,,
4223,0,,,,-0.03,-0.03,1.03,0,0,-1,0.04,0,,,,,,,
4228,0,,,,-0.05,-0.03,1.01,0,0,-1,0.06,0,,,,,,,
4233,0,,,,-0.05,-0.03,0.99,0,-0,-0,0.06,0,,,,,,,
4238,0,,,,-0.02,-0.02,1.03,0,-0,-0,0.03,0,,,,,,,
4243,0,2.55,3.416,,-0.02,-0.02,1.01,0,-0,-1,0.03,0,0.0,0.0,0.0,0.0,0,0,0.0
4248,0,,,,-0.01,-0.02,0.96,0,-0,-1,0.02,0,,,,,,,
4253,0,,,,-0.03,-0.03,1.02,0,-0,-1,0.04,0,,,,,,,
4258,0,,,,-0.03,-0.04,1.02,0,0,-1,0.05,0,,,,,,,
4263,0,,,,-0.06,-0.03,1.0,0,-0,-1,0.07,0,,,,,,,
4268,0,,,,-0.04,-0.03,0.99,0,-0,-1,0.05,0,,,,,,,
4273,0,,,,-0.04,-0.02,1.02,0,-0,-1,0.04,0,,,,,,,
4278,0,,,,-0.01,-0.02,1.0,0,-0,-1,0.02,0,,,,,,,
4283,0,2.52,3.352,,-0.0,-0.02,0.99,0,-0,-1,0.02,0,,,,,,,
4288,0,,,,-0.0,-0.03,0.99,0,-0,-1,0.03,0,,,,,,,
4293,0,,,,-0.03,-0.04,1.02,0,0,-1,0.05,0,,,,,,,
4298,0,,,,-0.05,-0.05,0.99,0,0,-0,0.07,0,,,,,,,
4303,0,,,,-0.06,-0.04,0.98,0,-0,-0,0.07,0,,,,,,,
4308,0,,,,-0.03,-0.03,1.02,0,-0,-0,0.04,0,,,,,,,
4313,0,,,,-0.02,-0.03,1.0,0,0,-0,0.03,0,,,,,,,
4318,0,,,,-0.01,-0.03,0.96,0,-0,-1,0.04,0,,,,,,,
4323,0,2.55,3.308,,-0.03,-0.05,1.01,0,-0,-0,0.06,0,,,,,,,
4328,0,,,,-0.04,-0.06,1.01,0,0,-0,0.07,0,,,,,,,
4333,0,,,,-0.06,-0.06,1.0,0,-0,-0,0.08,0,,,,,,,
4338,0,,,,-0.05,-0.05,0.99,0,-0,-0,0.07,0,,,,,,,
4343,0,,,,-0.03,-0.04,1.02,0,-0,-0,0.05,0,0.0,0.0,0.0,0.0,0,0,0.0
4348,0,,,,-0.02,-0.04,1.01,0,-0,-1,0.04,0,,,,,,,
4353,0,,,,-0.0,-0.04,0.98,0,-0,-1,0.04,0,,,,,,,
4358,0,,,,-0.01,-0.05,1.0,0,-0,-0,0.05,0,,,,,,,
4363,0,2.55,3.399,,-0.03,-0.06,1.02,0,0,-0,0.07,0,,,,,,,
4368,0,,,,-0.06,-0.06,0.99,0,0,-0,0.08,0,,,,,,,
4373,0,,,,-0.05,-0.05,0.99,0,-0,-0,0.07,0,,,,,,,
4378,0,,,,-0.02,-0.04,1.01,0,0,-0,0.05,0,,,,,,,
4383,0,,,,-0.01,-0.04,0.99,0,0,-0,0.04,0,,,,,,,
4388,0,,,,-0.01,-0.04,0.95,0,0,-0,0.04,0,,,,,,,
4393,0,,,,-0.02,-0.05,1.0,0,0,-0,0.06,0,,,,,,,
4398,0,,,,-0.03,-0.06,1.01,0,0,-0,0.07,0,,,,,,,
4403,0,2.56,3.503,,-0.05,-0.05,0.98,0,0,-0,0.07,0,,,,,,,
4408,0,,,,-0.04,-0.05,0.98,0,0,-0,0.06,0,,,,,,,
4413,0,,,,-0.03,-0.04,1.01,0,0,-0,0.06,0,,,,,,,
4418,0,,,,-0.01,-0.04,0.99,0,0,-0,0.04,0,,,,,,,
4423,0,,,,0.0,-0.04,0.97,0,0,-0,0.04,0,,,,,,,
4428,0,,,,-0.01,-0.05,0.98,0,0,-0,0.05,0,,,,,,,
4433,0,,,,-0.03,-0.06,1.02,0,0,-0,0.07,0,,,,,,,
4438,0,,,,-0.05,-0.06,0.98,0,1,-0,0.08,0,,,,,,,
4573,0,,,,-0.05,-0.05,1.01,0,1,-0,0.07,0,,,,,,,
4578,0,,,,-0.07,-0.05,0.97,0,0,-0,0.08,0,,,,,,,
4583,0,,,,-0.05,-0.04,0.99,0,0,-0,0.06,0,,,,,,,
4588,0,,,,-0.02,-0.03,1.01,1,0,-0,0.04,0,,,,,,,
4593,0,,,,-0.01,-0.03,0.96,1,0,-0,0.03,0,,,,,,,
4598,0,,,,-0.02,-0.04,0.95,1,0,-0,0.04,0,,,,,,,
4603,0,2.55,3.195,,-0.03,-0.04,1.01,1,0,-0,0.05,0,,,,,,,
4608,0,,,,-0.04,-0.04,0.98,0,0,-0,0.06,0,,,,,,,
4613,0,,,,-0.05,-0.04,0.96,0,0,-0,0.06,0,,,,,,,
4618,0,,,,-0.05,-0.03,0.98,0,0,-0,0.06,0,,,,,,,
4623,0,,,,-0.03,-0.03,0.99,1,0,-0,0.04,0,,,,,,,
4628,0,,,,-0.01,-0.03,0.96,1,0,-0,0.04,0,,,,,,,
4633,0,,,,0.0,-0.04,0.95,1,0,-0,0.04,0,,,,,,,
4638,0,,,,-0.02,-0.05,0.99,1,0,-0,0.05,0,,,,,,,
4643,0,2.55,3.16,,-0.05,-0.05,0.99,0,1,-0,0.07,0,0.0,0.0,0.0,0.0,0,0,0.0
4648,0,,,,-0.07,-0.04,0.95,0,0,-0,0.08,0,,,,,,,
4653,0,,,,-0.05,-0.04,0.98,0,-0,-0,0.06,0,,,,,,,
4658,0,,,,-0.03,-0.03,0.99,0,0,-0,0.04,0,,,,,,,
4663,0,,,,-0.02,-0.03,0.94,1,0,-0,0.03,0,,,,,,,
4668,0,,,,-0.01,-0.04,0.94,0,0,-0,0.04,0,,,,,,,
4673,0,,,,-0.02,-0.04,0.99,0,0,-0,0.05,0,,,,,,,
4773,0,,,,0.01,-0.03,0.96,1,0,-0,0.03,0,,,,,,,
4778,0,,,,-0.01,-0.04,1.0,0,0,0,0.04,0,,,,,,,
4783,0,,,,-0.05,-0.04,1.0,0,1,-0,0.06,0,,,,,,,
4788,0,,,,-0.06,-0.03,0.96,0,0,0,0.07,0,,,,,,,
4793,0,,,,-0.04,-0.02,0.99,0,-0,0,0.05,0,,,,,,,
4798,0,,,,-0.02,-0.02,1.0,0,0,-0,0.03,0,,,,,,,
4803,0,2.55,3.288,,-0.01,-0.01,0.95,0,0,-0,0.02,0,,,,,,,
4808,0,,,,-0.01,-0.03,0.96,0,0,-0,0.03,0,,,,,,,
4813,0,,,,-0.02,-0.03,1.0,0,0,-0,0.04,0,,,,,,,
4818,0,,,,-0.04,-0.03,0.99,0,0,-0,0.06,0,,,,,,,
4918,0,,,,-0.02,-0.03,1.02,0,0,-0,0.04,0,,,,,,,
4923,0,2.56,2.809,,-0.05,-0.03,1.0,0,1,-0,0.06,0,,,,,,,
4928,0,,,,-0.06,-0.02,0.98,0,0,-0,0.06,0,,,,,,,
4933,0,,,,-0.03,-0.02,1.01,0,-0,-0,0.03,0,,,,,,,
4938,0,,,,-0.01,-0.01,1.02,0,0,-0,0.02,0,,,,,,,
4943,0,,,,-0.0,-0.01,0.96,0,0,-0,0.01,0,0.0,0.0,0.0,0.0,0,0,0.0
4948,0,,,,-0.01,-0.03,0.99,0,-0,-0,0.03,0,,,,,,,
4953,0,,,,-0.02,-0.03,1.02,0,0,-0,0.04,0,,,,,,,
4958,0,,,,-0.05,-0.03,1.0,0,0,-0,0.06,0,,,,,,,
4963,0,2.52,3.146,,-0.04,-0.02,0.99,0,-0,-0,0.04,0,,,,,,,
5063,0,,,,-0.06,-0.03,1.01,0,0,-0,0.07,0,,,,,,,
5068,0,,,,-0.06,-0.02,0.99,0,-0,-0,0.06,0,,,,,,,
5073,0,,,,-0.03,-0.01,1.03,0,-0,-0,0.03,0,,,,,,,
5078,0,,,,-0.02,-0.01,1.01,0,-0,-0,0.03,0,,,,,,,
5083,0,2.56,3.232,,-0.01,-0.01,0.96,0,-0,-0,0.02,0,,,,,,,
5088,0,,,,-0.03,-0.02,1.02,0,-0,-0,0.04,0,,,,,,,
5093,0,,,,-0.04,-0.03,1.04,0,0,-0,0.05,0,,,,,,,
5098,0,,,,-0.06,-0.03,1.0,0,-0,-0,0.06,0,,,,,,,
5103,0,,,,-0.05,-0.02,1.0,0,-0,-0,0.05,0,,,,,,,
5108,0,,,,-0.03,-0.01,1.03,0,-0,-0,0.04,0,,,,,,,
5113,0,,,,-0.01,-0.01,1.02,0,-0,-0,0.01,0,,,,,,,
5213,0,,,,-0.02,-0.04,1.01,0,-0,-0,0.04,0,,,,,,,
5218,0,,,,-0.01,-0.04,0.98,1,0,-0,0.04,0,,,,,,,
5223,0,,,,-0.0,-0.04,0.94,1,-0,-0,0.04,0,,,,,,,
5228,0,,,,-0.02,-0.05,1.0,1,-0,-0,0.06,0,,,,,,,
5233,0,,,,-0.03,-0.06,0.99,1,0,-0,0.07,0,,,,,,,
5238,0,,,,-0.05,-0.05,0.96,0,-0,-0,0.08,0,,,,,,,
5243,0,2.52,3.11,,-0.04,-0.05,0.97,0,-0,-0,0.07,0,0.0,0.0,0.0,0.0,0,0,0.0
5248,0,,,,-0.03,-0.05,1.01,0,-0,-0,0.05,0,,,,,,,
5253,0,,,,-0.01,-0.04,0.99,0,-0,-1,0.04,0,,,,,,,
5258,0,,,,-0.0,-0.04,0.97,0,-0,-1,0.04,0,,,,,,,
5358,0,,,,-0.01,-0.05,0.96,0,0,-0,0.05,0,,,,,,,
5363,0,2.51,3.176,,-0.01,-0.06,0.94,0,0,-0,0.06,0,,,,,,,
5368,0,,,,-0.02,-0.06,0.99,0,0,-0,0.06,0,,,,,,,
5373,0,,,,-0.03,-0.07,0.99,1,0,-0,0.07,0,,,,,,,
5378,0,,,,-0.05,-0.06,0.95,0,0,-0,0.08,0,,,,,,,
5383,0,,,,-0.04,-0.05,0.97,0,0,-0,0.07,0,,,,,,,
5388,0,,,,-0.03,-0.05,1.0,0,0,-0,0.06,0,,,,,,,
5393,0,,,,-0.02,-0.04,0.97,1,0,-0,0.05,0,,,,,,,
5398,0,,,,-0.01,-0.05,0.96,1,0,-0,0.05,0,,,,,,,
5403,0,2.56,3.149,,-0.02,-0.06,0.99,1,0,-0,0.06,0,,,,,,,
5408,0,,,,-0.04,-0.07,1.0,1,1,-0,0.08,0,,,,,,,
5413,0,,,,-0.06,-0.06,0.96,0,1,-0,0.09,0,,,,,,,
5418,0,,,,-0.05,-0.05,0.97,0,0,-0,0.07,0,,,,,,,
5423,0,,,,-0.03,-0.04,0.99,0,0,-0,0.05,0,,,,,,,
5428,0,,,,-0.02,-0.04,0.95,1,0,-0,0.04,0,,,,,,,
5433,0,,,,-0.02,-0.05,0.93,1,0,-0,0.05,0,,,,,,,
5438,0,,,,-0.03,-0.05,0.98,1,0,-0,0.06,0,,,,,,,
5443,0,2.56,3.284,,-0.04,-0.06,0.98,1,1,-0,0.07,0,0.0,0.0,0.0,0.0,0,0,0.0
5448,0,,,,-0.05,-0.05,0.95,0,0,-0,0.07,0,,,,,,,
5453,0,,,,-0.05,-0.04,0.97,0,0,-0,0.06,0,,,,,,,
5458,0,,,,-0.04,-0.04,0.99,0,0,-0,0.05,0,,,,,,,
5463,0,,,,-0.01,-0.04,0.97,1,0,-0,0.04,0,,,,,,,
5468,0,,,,-0.0,-0.04,0.96,1,0,-0,0.04,0,,,,,,,
5473,0,,,,-0.02,-0.05,0.97,1,0,-0,0.05,0,,,,,,,
5478,0,,,,-0.05,-0.06,0.99,1,1,-0,0.08,0,,,,,,,
5483,0,2.51,3.259,,-0.06,-0.06,0.96,0,1,-0,0.08,0,,,,,,,
5488,0,,,,-0.05,-0.05,0.96,0,0,-0,0.07,0,,,,,,,
5493,0,,,,-0.02,-0.04,0.98,1,0,-0,0.04,0,,,,,,,
5498,0,,,,-0.01,-0.04,0.96,1,1,-0,0.04,0,,,,,,,
5503,0,,,,-0.01,-0.04,0.93,1,0,-0,0.04,0,,,,,,,
5508,0,,,,-0.03,-0.05,0.99,1,0,-0,0.06,0,,,,,,,
5513,0,,,,-0.04,-0.06,0.99,1,1,-0,0.07,0,,,,,,,
5518,0,,,,-0.05,-0.05,0.95,0,0,-0,0.07,0,,,,,,,
5523,0,2.51,3.102,,-0.05,-0.05,0.97,0,0,-0,0.07,0,,,,,,,
5528,0,,,,-0.03,-0.04,1.0,0,0,-0,0.05,0,,,,,,,
5533,0,,,,-0.02,-0.04,0.98,0,0,-0,0.04,0,,,,,,,
5538,0,,,,-0.01,-0.05,0.96,0,0,-0,0.05,0,,,,,,,
5543,0,,,,-0.02,-0.06,0.98,0,0,-0,0.06,0,0.0,0.0,0.0,0.0,0,0,0.0
5548,0,,,,-0.04,-0.07,0.99,0,1,-0,0.08,0,,,,,,,
5553,0,,,,-0.06,-0.06,0.97,0,1,-0,0.09,0,,,,,,,
5558,0,,,,-0.05,-0.05,0.97,0,0,-0,0.08,0,,,,,,,
5563,0,2.54,3.252,,-0.03,-0.05,1.0,0,0,-0,0.05,0,,,,,,,
5568,0,,,,-0.02,-0.05,0.96,0,0,-0,0.05,0,,,,,,,
5573,0,,,,-0.01,-0.05,0.93,0,0,-0,0.05,0,,,,,,,
5588,0,,,,-0.06,-0.06,0.96,0,0,-0,0.08,0,,,,,,,
5593,0,,,,-0.05,-0.05,0.97,0,0,-0,0.07,0,,,,,,,
5598,0,,,,-0.04,-0.05,1.0,0,0,-0,0.06,0,,,,,,,
5603,0,2.55,3.113,,-0.01,-0.04,0.98,0,0,-0,0.05,0,,,,,,,
5608,0,,,,-0.0,-0.05,0.96,0,0,-0,0.05,0,,,,,,,
5613,0,,,,-0.02,-0.06,0.98,1,0,-0,0.06,0,,,,,,,
5618,0,,,,-0.04,-0.07,1.0,0,1,-0,0.08,0,,,,,,,
5623,0,,,,-0.06,-0.07,0.97,0,1,-0,0.09,0,,,,,,,
5638,0,,,,-0.01,-0.05,0.96,1,0,-0,0.05,0,,,,,,,
5643,0,2.55,3.19,,-0.0,-0.06,0.93,1,0,-0,0.06,0,0.0,0.0,0.0,0.0,0,0,0.0
5648,0,,,,-0.02,-0.06,0.99,1,0,-0,0.07,0,,,,,,,
5653,0,,,,-0.04,-0.07,0.99,1,1,-0,0.08,0,,,,,,,
5658,0,,,,-0.05,-0.06,0.96,0,0,-0,0.08,0,,,,,,,
5663,0,,,,-0.05,-0.05,0.98,0,0,-0,0.07,0,,,,,,,
5668,0,,,,-0.03,-0.04,0.99,0,0,-0,0.05,0,,,,,,,
5673,0,,,,-0.02,-0.05,0.98,1,0,-0,0.05,0,,,,,,,
5678,0,,,,-0.0,-0.05,0.96,1,0,-0,0.05,0,,,,,,,
5683,0,2.54,3.259,,-0.02,-0.06,0.99,1,0,-0,0.06,0,,,,,,,
5688,0,,,,-0.04,-0.07,1.0,1,1,-0,0.08,0,,,,,,,
5693,0,,,,-0.06,-0.06,0.96,0,1,-0,0.09,0,,,,,,,
5698,0,,,,-0.05,-0.06,0.97,0,0,-0,0.07,0,,,,,,,
5703,0,,,,-0.02,-0.05,1.0,1,0,-0,0.05,0,,,,,,,
5708,0,,,,-0.01,-0.05,0.97,1,0,-0,0.05,0,,,,,,,
5713,0,,,,-0.01,-0.06,0.95,1,0,-0,0.06,0,,,,,,,
5718,0,,,,-0.02,-0.06,1.0,1,0,-0,0.06,0,,,,,,,
5723,0,2.56,3.318,,-0.03,-0.07,0.99,1,1,-0,0.08,0,,,,,,,
5728,0,,,,-0.05,-0.06,0.96,0,0,-0,0.08,0,,,,,,,
5733,0,,,,-0.05,-0.06,0.97,0,0,-0,0.07,0,,,,,,,
5738,0,,,,-0.03,-0.05,1.0,1,0,-0,0.06,0,,,,,,,
5743,0,,,,-0.01,-0.05,0.98,1,0,-0,0.05,0,0.0,0.0,0.0,0.0,0,0,0.0
5748,0,,,,0.0,-0.05,0.96,1,0,-0,0.05,0,,,,,,,
5753,0,,,,-0.02,-0.06,0.99,1,0,-0,0.07,0,,,,,,,
5758,0,,,,-0.05,-0.07,1.0,1,1,-0,0.09,0,,,,,,,
5763,0,2.54,3.161,,-0.06,-0.07,0.96,0,1,-0,0.09,0,,,,,,,
5768,0,,,,-0.05,-0.06,0.97,0,0,-0,0.08,0,,,,,,,
5773,0,,,,-0.02,-0.05,0.99,0,0,-0,0.05,0,,,,,,,
5778,0,,,,-0.01,-0.05,0.95,1,0,-0,0.05,0,,,,,,,
5783,0,,,,-0.0,-0.06,0.94,1,0,-0,0.06,0,,,,,,,
5788,0,,,,-0.02,-0.06,1.0,1,0,-0,0.07,0,,,,,,,
5793,0,,,,-0.03,-0.07,0.99,0,1,-0,0.08,0,,,,,,,
5798,0,,,,-0.05,-0.06,0.95,0,0,-0,0.08,0,,,,,,,
5803,0,2.56,3.123,,-0.04,-0.06,0.98,0,0,0,0.07,0,,,,,,,
5808,0,,,,-0.02,-0.06,1.0,0,0,-0,0.06,0,,,,,,,
5813,0,,,,-0.01,-0.05,0.96,1,0,-0,0.05,0,,,,,,,
5818,0,,,,0.01,-0.06,0.95,1,0,0,0.06,0,,,,,,,
5823,0,,,,-0.02,-0.07,0.99,0,1,0,0.07,0,,,,,,,
5828,0,,,,-0.05,-0.07,0.99,0,1,-0,0.08,0,,,,,,,
5833,0,,,,-0.06,-0.06,0.96,0,1,0,0.09,0,,,,,,,
5838,0,,,,-0.04,-0.05,0.98,0,0,0,0.07,0,,,,,,,
5843,0,2.56,3.308,,-0.02,-0.04,0.99,0,0,-0,0.05,0,0.0,0.0,0.0,0.0,0,0,0.0
5848,0,,,,-0.01,-0.04,0.94,1,0,-0,0.04,0,,,,,,,
5853,0,,,,-0.0,-0.06,0.95,1,0,-0,0.06,0,,,,,,,
5858,0,,,,-0.02,-0.06,1.01,1,0,-0,0.06,0,,,,,,,
5863,0,,,,-0.04,-0.06,1.0,1,1,-0,0.07,0,,,,,,,
5868,0,,,,-0.05,-0.06,0.97,0,0,-0,0.07,0,,,,,,,
5873,0,,,,-0.05,-0.05,1.0,0,0,0,0.07,0,,,,,,,
5878,0,,,,-0.02,-0.05,0.99,1,0,0,0.05,0,,,,,,,
5883,0,2.55,3.156,,-0.01,-0.04,0.97,1,0,-0,0.04,0,,,,,,,
5888,0,,,,-0.0,-0.05,0.95,1,0,0,0.05,0,,,,,,,
5893,0,,,,-0.02,-0.06,1.0,0,0,0,0.06,0,,,,,,,
5898,0,,,,-0.05,-0.06,1.01,0,1,-0,0.08,0,,,,,,,
5903,0,,,,-0.06,-0.05,0.97,0,0,-0,0.08,0,,,,,,,
5908,0,,,,-0.04,-0.04,1.0,0,-0,-0,0.06,0,,,,,,,
5913,0,,,,-0.02,-0.03,1.01,0,0,-0,0.04,0,,,,,,,
5918,0,,,,-0.01,-0.03,0.95,0,0,-0,0.03,0,,,,,,,
5923,0,2.56,3.201,,-0.01,-0.05,0.96,1,-0,-0,0.05,0,,,,,,,
5928,0,,,,-0.02,-0.05,1.01,1,0,-0,0.05,0,,,,,,,
5933,0,,,,-0.05,-0.05,1.0,0,0,-0,0.07,0,,,,,,,
5938,0,,,,-0.05,-0.05,0.98,0,-0,0,0.07,0,,,,,,,
5943,0,,,,-0.05,-0.04,1.02,0,0,0,0.06,0,0.0,0.0,0.0,0.0,0,0,0.0
5948,0,,,,-0.01,-0.03,1.0,0,0,0,0.04,0,,,,,,,
5953,0,,,,-0.01,-0.04,0.99,1,0,0,0.04,0,,,,,,,
5958,0,,,,0.0,-0.04,0.98,1,0,0,0.04,0,,,,,,,
5963,0,2.56,3.356,,-0.03,-0.06,1.02,0,0,0,0.06,0,,,,,,,
5968,0,,,,-0.06,-0.05,1.02,0,0,0,0.08,0,,,,,,,
5973,0,,,,-0.06,-0.04,0.98,0,0,0,0.07,0,,,,,,,
5978,0,,,,-0.04,-0.03,1.02,0,-0,0,0.05,0,,,,,,,
5983,0,,,,-0.02,-0.02,1.03,0,0,-0,0.03,0,,,,,,,
5988,0,,,,-0.01,-0.02,0.97,0,0,-0,0.02,0,,,,,,,
5993,0,,,,-0.02,-0.04,1.0,0,-0,-0,0.04,0,,,,,,,
5998,0,,,,-0.03,-0.04,1.03,0,0,-0,0.05,0,,,,,,,
6003,0,2.56,3.0,,-0.06,-0.04,1.01,0,0,-0,0.07,0,,,,,,,
6008,0,,,,-0.05,-0.03,0.99,0,-0,-0,0.06,0,,,,,,,
6013,0,,,,-0.05,-0.02,1.04,0,-0,-0,0.05,0,,,,,,,
6018,0,,,,-0.02,-0.02,1.02,0,-0,-0,0.03,0,,,,,,,
6023,0,,,,-0.01,-0.02,1.0,0,-0,-0,0.02,0,,,,,,,
6028,0,,,,-0.0,-0.03,1.01,0,-0,-0,0.03,0,,,,,,,
6033,0,,,,-0.04,-0.04,1.04,0,0,-0,0.05,0,,,,,,,
6038,0,,,,-0.06,-0.04,1.02,0,0,-0,0.07,0,,,,,,,
6043,0,2.56,3.123,13.37,-0.06,-0.03,0.99,0,-0,-0,0.07,0,0.0,0.0,0.0,0.0,0,0,0.0
6048,0,,,,-0.03,-0.02,1.03,0,-0,-0,0.04,0,,,,,,,
6053,0,,,,-0.02,-0.02,1.03,0,0,-0,0.03,0,,,,,,,
6058,0,,,,-0.01,-0.01,0.97,0,-0,-0,0.02,0,,,,,,,
6063,0,,,,-0.02,-0.03,1.02,0,-0,-0,0.04,0,,,,,,,
6068,0,,,,-0.03,-0.04,1.03,0,0,-0,0.05,0,,,,,,,
6073,0,,,,-0.06,-0.04,1.01,0,-0,-0,0.07,0,,,,,,,
6078,0,,,,-0.05,-0.03,0.99,0,-0,-0,0.06,0,,,,,,,
6083,0,2.56,3.226,,-0.04,-0.02,1.04,0,-0,-0,0.05,0,,,,,,,
6088,0,,,,-0.01,-0.02,1.02,0,-0,-0,0.02,0,,,,,,,
6093,0,,,,-0.0,-0.02,0.99,0,-0,-0,0.02,0,,,,,,,
6098,0,,,,0.0,-0.03,1.01,0,-0,-0,0.03,0,,,,,,,
6103,0,,,,-0.03,-0.04,1.04,0,0,-0,0.05,0,,,,,,,
6108,0,,,,-0.06,-0.04,1.01,0,0,-0,0.07,0,,,,,,,
6113,0,,,,-0.06,-0.03,0.99,0,-0,-0,0.07,0,,,,,,,
6118,0,,,,-0.03,-0.02,1.03,0,-0,-0,0.03,0,,,,,,,
6123,0,2.55,3.42,,-0.02,-0.02,1.01,0,-0,-0,0.03,0,,,,,,,
6128,0,,,,-0.01,-0.02,0.97,0,-0,-0,0.02,0,,,,,,,
6133,0,,,,-0.03,-0.03,1.03,0,-0,-0,0.04,0,,,,,,,
6138,0,,,,-0.03,-0.04,1.04,0,0,-0,0.05,0,,,,,,,
6143,0,,,,-0.06,-0.03,1.01,0,0,-0,0.07,0,0.0,0.0,0.0,0.0,0,0,0.0
6148,0,,,,-0.05,-0.02,1.0,0,-0,-0,0.06,0,,,,,,,
6153,0,,,,-0.04,-0.02,1.04,0,-0,-0,0.04,0,,,,,,,
6158,0,,,,-0.01,-0.01,1.02,0,0,-1,0.02,0,,,,,,,
6163,0,2.54,3.314,,-0.0,-0.01,0.99,0,0,-1,0.01,0,,,,,,,
6168,0,,,,-0.01,-0.02,1.01,0,0,-0,0.02,0,,,,,,,
6173,0,,,,-0.03,-0.04,1.03,0,0,-0,0.05,0,,,,,,,
6178,0,,,,-0.06,-0.04,1.0,0,0,-0,0.07,0,,,,,,,
6183,0,,,,-0.05,-0.03,0.99,0,-0,-0,0.06,0,,,,,,,
6188,0,,,,-0.02,-0.02,1.03,0,-0,-0,0.03,0,,,,,,,
6193,0,,,,-0.01,-0.02,1.0,0,0,-0,0.03,0,,,,,,,
6198,0,,,,-0.01,-0.03,0.96,0,-0,-0,0.03,0,,,,,,,
6203,0,2.51,3.331,,-0.03,-0.04,1.03,0,-0,-0,0.05,0,,,,,,,
6208,0,,,,-0.04,-0.05,1.02,0,0,-0,0.06,0,,,,,,,
6213,0,,,,-0.06,-0.04,0.99,0,0,-0,0.07,0,,,,,,,
6218,0,,,,-0.05,-0.04,1.0,0,0,-0,0.06,0,,,,,,,
6223,0,,,,-0.03,-0.03,1.02,0,0,-0,0.04,0,,,,,,,
6228,0,,,,-0.01,-0.03,0.99,0,0,-0,0.03,0,,,,,,,
6233,0,,,,-0.0,-0.04,0.98,0,0,-0,0.04,0,,,,,,,
6238,0,,,,-0.01,-0.04,1.0,0,0,-0,0.05,0,,,,,,,
6243,0,2.56,3.348,,-0.05,-0.05,1.02,0,1,-0,0.07,0,0.0,0.0,0.0,0.0,0,0,0.0
6248,0,,,,-0.06,-0.05,0.98,0,0,-0,0.08,0,,,,,,,
6253,0,,,,-0.05,-0.04,0.99,0,-0,-0,0.07,0,,,,,,,
6258,0,,,,-0.02,-0.03,1.02,0,0,-0,0.03,0,,,,,,,
6263,0,,,,-0.01,-0.03,0.98,0,0,-0,0.03,0,,,,,,,
6268,0,,,,-0.01,-0.04,0.97,0,-0,-0,0.04,0,,,,,,,
6273,0,,,,-0.02,-0.04,1.02,0,0,-0,0.05,0,,,,,,,
6278,0,,,,-0.04,-0.05,1.0,0,0,-0,0.06,0,,,,,,,
6283,0,2.54,3.397,,-0.05,-0.05,0.97,0,-0,-0,0.07,0,,,,,,,
6288,0,,,,-0.04,-0.04,1.0,0,-0,-0,0.05,0,,,,,,,
6293,0,,,,-0.01,-0.04,1.0,0,0,-0,0.04,0,,,,,,,
6298,0,,,,-0.0,-0.04,0.98,0,0,-0,0.04,0,,,,,,,
6303,0,,,,0.01,-0.05,0.96,1,0,-0,0.05,0,,,,,,,
6308,0,,,,-0.01,-0.05,1.0,0,0,-0,0.06,0,,,,,,,
6313,0,,,,-0.04,-0.05,0.99,0,1,-0,0.07,0,,,,,,,
6318,0,,,,-0.05,-0.04,0.96,0,0,-0,0.07,0,,,,,,,
6323,0,2.56,3.357,,-0.03,-0.04,0.99,0,-0,-0,0.05,0,,,,,,,
6328,0,,,,-0.01,-0.03,0.99,0,0,-0,0.03,0,,,,,,,
6333,0,,,,-0.0,-0.02,0.94,0,0,-0,0.02,0,,,,,,,
6338,0,,,,-0.01,-0.04,0.96,1,-0,-0,0.04,0,,,,,,,
6343,0,,,,-0.02,-0.04,1.0,0,0,-0,0.05,0,0.0,0.0,0.0,0.0,0,0,0.0
6348,0,,,,-0.04,-0.05,0.99,0,0,-0,0.06,0,,,,,,,
6353,0,,,,-0.04,-0.04,0.96,0,-0,-0,0.06,0,,,,,,,
6358,0,,,,-0.05,-0.03,1.01,0,-0,-0,0.06,0,,,,,,,
6363,0,2.57,3.399,,-0.01,-0.03,0.99,0,0,-0,0.03,0,,,,,,,
6368,0,,,,-0.0,-0.03,0.98,0,-0,-0,0.03,0,,,,,,,
6373,0,,,,0.0,-0.03,0.97,0,0,-0,0.03,0,,,,,,,
6378,0,,,,-0.02,-0.04,1.0,0,0,-0,0.05,0,,,,,,,
6383,0,,,,-0.06,-0.04,0.99,0,0,-0,0.07,0,,,,,,,
6388,0,,,,-0.06,-0.03,0.96,0,0,-0,0.06,0,,,,,,,
6393,0,,,,-0.04,-0.02,1.0,0,-0,-0,0.04,0,,,,,,,
6398,0,,,,-0.02,-0.01,1.0,0,0,-0,0.02,0,,,,,,,
6403,0,2.55,3.413,,-0.01,-0.01,0.95,0,0,-0,0.01,0,,,,,,,
6408,0,,,,-0.02,-0.03,0.98,0,-0,-0,0.03,0,,,,,,,
6413,0,,,,-0.02,-0.03,1.01,0,0,-0,0.04,0,,,,,,,
6418,0,,,,-0.05,-0.04,1.0,0,0,-0,0.06,0,,,,,,,
6423,0,,,,-0.05,-0.03,0.97,0,-0,-0,0.05,0,,,,,,,
6428,0,,,,-0.05,-0.02,1.02,0,-0,-0,0.05,0,,,,,,,
6433,0,,,,-0.01,-0.01,1.0,0,-0,-0,0.02,0,,,,,,,
6438,0,,,,-0.0,-0.01,0.99,0,-0,-0,0.02,0,,,,,,,
6443,0,2.56,3.431,,-0.0,-0.02,1.0,0,-0,-0,0.02,0,0.0,0.0,0.0,0.0,0,0,0.0
6448,0,,,,-0.03,-0.03,1.03,0,0,-0,0.05,0,,,,,,,
6453,0,,,,-0.06,-0.03,1.02,0,0,-0,0.07,0,,,,,,,
6458,0,,,,-0.06,-0.02,0.99,0,-0,-0,0.06,0,,,,,,,
6463,0,,,,-0.03,-0.02,1.03,0,-0,-0,0.04,0,,,,,,,
6468,0,,,,-0.02,-0.02,1.01,0,0,-0,0.02,0,,,,,,,
6473,0,,,,-0.01,-0.01,0.96,0,-0,-0,0.01,0,,,,,,,
6478,0,,,,-0.02,-0.03,1.0,0,-0,-0,0.03,0,,,,,,,
6483,0,2.56,3.669,,-0.03,-0.03,1.03,0,0,-0,0.04,0,,,,,,,
6488,0,,,,-0.06,-0.03,1.0,0,0,-0,0.06,0,,,,,,,
6493,0,,,,-0.05,-0.02,0.99,0,-0,-0,0.05,0,,,,,,,
6498,0,,,,-0.04,-0.02,1.04,0,-0,-0,0.04,0,,,,,,,
6503,0,,,,-0.01,-0.01,1.01,0,-0,-0,0.01,0,,,,,,,
6508,0,,,,-0.0,-0.01,0.99,0,-0,-0,0.01,0,,,,,,,
6513,0,,,,-0.0,-0.02,1.0,0,-0,-0,0.02,0,,,,,,,
6518,0,,,,-0.03,-0.03,1.04,0,0,-0,0.05,0,,,,,,,
6523,0,2.56,3.568,,-0.06,-0.03,1.0,0,0,-0,0.07,0,,,,,,,
6528,0,,,,-0.06,-0.03,0.99,0,-0,-0,0.07,0,,,,,,,
6533,0,,,,-0.03,-0.01,1.03,0,-0,-0,0.03,0,,,,,,,
6538,0,,,,-0.02,-0.02,1.01,0,0,-0,0.03,0,,,,,,,
6543,0,,,,-0.01,-0.02,0.96,0,-0,-0,0.02,0,0.0,0.0,0.0,0.0,0,0,0.0
6548,0,,,,-0.03,-0.03,1.03,0,-0,-0,0.04,0,,,,,,,
6553,0,,,,-0.04,-0.04,1.04,0,0,-0,0.05,0,,,,,,,
6558,0,,,,-0.06,-0.03,1.01,0,0,-0,0.07,0,,,,,,,
6563,0,2.57,3.41,,-0.04,-0.03,1.0,0,-0,-0,0.05,0,,,,,,,
6568,0,,,,-0.02,-0.02,1.02,0,-0,-0,0.03,0,,,,,,,
6573,0,,,,-0.0,-0.02,0.99,0,0,-1,0.02,0,,,,,,,
6578,0,,,,0.01,-0.03,0.97,0,-0,-1,0.03,0,,,,,,,
6583,0,,,,-0.01,-0.04,1.0,0,0,-1,0.04,0,,,,,,,
6588,0,,,,-0.04,-0.04,1.01,0,0,-1,0.06,0,,,,,,,
6593,0,,,,-0.05,-0.04,0.97,0,0,-0,0.07,0,,,,,,,
6598,0,,,,-0.04,-0.04,0.99,0,-0,-0,0.06,0,,,,,,,
6603,0,2.55,3.425,,-0.01,-0.02,1.01,0,-0,-0,0.02,0,,,,,,,
6608,0,,,,-0.0,-0.03,0.97,0,0,-0,0.03,0,,,,,,,
6613,0,,,,0.0,-0.04,0.96,0,-0,-0,0.04,0,,,,,,,
6618,0,,,,-0.01,-0.04,1.01,0,-0,-0,0.05,0,,,,,,,
6623,0,,,,-0.03,-0.05,0.99,0,0,-0,0.06,0,,,,,,,
6628,0,,,,-0.04,-0.05,0.97,0,-0,-0,0.07,0,,,,,,,
6633,0,,,,-0.04,-0.04,1.0,0,-0,-0,0.06,0,,,,,,,
6768,0,,,,-0.04,-0.03,0.96,0,0,-0,0.05,0,,,,,,,
6773,0,,,,-0.04,-0.02,1.02,0,0,-0,0.05,0,,,,,,,
6778,0,,,,-0.01,-0.01,0.99,0,0,-0,0.02,0,,,,,,,
6783,0,,,,0.0,-0.02,0.98,0,0,-0,0.02,0,,,,,,,
6788,0,,,,0.01,-0.03,1.0,0,0,-0,0.03,0,,,,,,,
6793,0,,,,-0.03,-0.04,1.03,0,0,-0,0.05,0,,,,,,,
6798,0,,,,-0.06,-0.04,1.0,0,1,-0,0.07,0,,,,,,,
6803,0,2.54,3.219,,-0.06,-0.03,0.98,0,0,-0,0.06,0,,,,,,,
6808,0,,,,-0.03,-0.02,1.01,0,-0,-0,0.03,0,,,,,,,
6813,0,,,,-0.02,-0.02,1.0,0,0,-0,0.03,0,,,,,,,
6818,0,,,,-0.0,-0.02,0.95,0,0,-0,0.02,0,,,,,,,
6823,0,,,,-0.02,-0.04,1.01,0,-0,-0,0.04,0,,,,,,,
6828,0,,,,-0.03,-0.04,1.02,0,0,-0,0.05,0,,,,,,,
6833,0,,,,-0.06,-0.04,1.0,0,0,-0,0.07,0,,,,,,,
6838,0,,,,-0.04,-0.03,0.99,0,-0,-0,0.05,0,,,,,,,
6938,0,,,,-0.06,-0.06,0.98,0,0,-0,0.08,0,,,,,,,
6943,0,,,,-0.05,-0.05,0.98,0,-0,-0,0.07,0,0.0,0.0,0.0,0.0,0,0,0.0
6948,0,,,,-0.02,-0.04,1.02,0,0,-0,0.04,0,,,,,,,
6953,0,,,,-0.01,-0.04,0.98,1,0,-0,0.04,0,,,,,,,
6958,0,,,,-0.0,-0.05,0.96,1,-0,-0,0.05,0,,,,,,,
6963,0,2.55,3.167,,-0.02,-0.06,1.01,1,0,-0,0.06,0,,,,,,,
6968,0,,,,-0.03,-0.07,0.99,1,0,-0,0.07,0,,,,,,,
6973,0,,,,-0.05,-0.06,0.96,0,0,-0,0.08,0,,,,,,,
6978,0,,,,-0.04,-0.06,0.99,0,0,-0,0.07,0,,,,,,,
6983,0,,,,-0.02,-0.05,1.0,1,0,-0,0.06,0,,,,,,,
7083,0,2.56,3.179,,-0.03,-0.05,0.99,0,0,-0,0.06,0,,,,,,,
7088,0,,,,-0.01,-0.04,0.99,0,0,-0,0.04,0,,,,,,,
7093,0,,,,-0.0,-0.03,0.94,0,0,-0,0.03,0,,,,,,,
7098,0,,,,-0.0,-0.05,0.96,0,0,-0,0.05,0,,,,,,,
7103,0,,,,-0.02,-0.05,1.0,0,0,-0,0.05,0,,,,,,,
7108,0,,,,-0.04,-0.05,0.99,0,0,-0,0.07,0,,,,,,,
7113,0,,,,-0.04,-0.04,0.97,0,0,-0,0.06,0,,,,,,,
7118,0,,,,-0.05,-0.04,1.01,0,0,0,0.06,0,,,,,,,
7123,0,2.55,3.177,,-0.01,-0.03,1.0,0,0,-0,0.03,0,,,,,,,
7128,0,,,,-0.0,-0.03,0.99,0,0,-0,0.03,0,,,,,,,
7133,0,,,,0.01,-0.03,0.98,1,0,0,0.03,0,,,,,,,
7233,0,,,,0.0,-0.01,0.97,0,-0,-0,0.01,0,,,,,,,
7238,0,,,,0.0,-0.03,1.0,0,-0,-0,0.03,0,,,,,,,
7243,0,2.51,3.167,,-0.01,-0.04,1.04,0,0,-0,0.04,0,0.0,0.0,0.0,0.0,0,0,0.0
7248,0,,,,-0.04,-0.04,1.01,0,0,-0,0.05,0,,,,,,,
7253,0,,,,-0.04,-0.02,0.99,0,-0,-0,0.04,0,,,,,,,
7258,0,,,,-0.02,-0.02,1.03,0,-0,-0,0.03,0,,,,,,,
7263,0,,,,0.01,-0.01,1.02,0,-0,-0,0.02,0,,,,,,,
7268,0,,,,0.01,-0.01,1.0,0,-0,-0,0.02,0,,,,,,,
7273,0,,,,0.01,-0.02,1.01,0,-1,-0,0.02,0,,,,,,,
7278,0,,,,-0.02,-0.04,1.04,0,-0,-0,0.04,0,,,,,,,
7383,0,,,,-0.03,-0.04,1.04,0,1,-0,0.05,0,,,,,,,
7388,0,,,,-0.05,-0.04,1.02,0,1,-0,0.07,0,,,,,,,
7393,0,,,,-0.06,-0.04,1.04,0,1,-0,0.07,0,,,,,,,
7398,0,,,,-0.03,-0.05,1.09,0,1,-0,0.06,0,,,,,,,
7403,0,2.58,2.0,,-0.03,-0.05,1.08,1,2,-1,0.05,0,,,,,,,
7408,0,,,,-0.0,-0.04,1.03,0,2,-1,0.04,0,,,,,,,
7413,0,,,,-0.01,-0.05,1.09,1,2,-1,0.05,0,,,,,,,
7418,0,,,,-0.04,-0.03,1.1,1,3,-1,0.05,0,,,,,,,
7423,0,,,,-0.08,-0.03,1.07,1,3,-1,0.09,0,,,,,,,
7428,0,,,,-0.07,-0.03,1.09,1,2,-0,0.08,0,,,,,,,
7528,0,,,,-0.07,-0.03,0.89,-0,0,0,0.08,0,,,,,,,
7533,0,,,,-0.07,-0.01,0.97,-0,-0,0,0.07,0,,,,,,,
7538,0,,,,0.02,-0.01,1.0,-0,-1,0,0.02,0,,,,,,,
7543,0,,,,0.06,-0.02,1.03,0,-0,0,0.06,0,0.0,0.0,0.0,0.0,0,0,0.0
7548,0,,,,0.08,-0.03,0.99,0,-0,0,0.08,0,,,,,,,
7553,0,,,,0.04,-0.06,1.05,0,-0,0,0.07,0,,,,,,,
7558,0,,,,-0.0,-0.08,1.08,0,0,-0,0.08,0,,,,,,,
7563,0,2.62,3.371,,-0.01,-0.07,1.05,0,-0,-0,0.07,0,,,,,,,
7568,0,,,,0.03,-0.04,1.11,0,-1,-0,0.04,0,,,,,,,
7573,0,,,,0.06,-0.01,1.16,0,0,-0,0.07,0,,,,,,,
7578,0,,,,0.08,-0.02,1.09,0,1,-1,0.08,0,,,,,,,
7583,0,,,,0.06,-0.04,1.08,0,0,-0,0.07,0,,,,,,,
7588,0,,,,0.03,-0.06,1.13,0,0,-1,0.06,0,,,,,,,
7593,0,,,,0.0,-0.06,1.11,0,1,-1,0.06,0,,,,,,,
7598,0,,,,-0.0,-0.04,1.04,0,1,-1,0.04,0,,,,,,,
7603,0,2.67,2.794,,-0.08,-0.03,1.06,1,1,-1,0.09,0,,,,,,,
7608,0,,,,0.04,-0.0,1.1,1,-0,-1,0.04,0,,,,,,,
7613,0,,,,0.07,-0.04,1.16,1,-1,-1,0.09,0,,,,,,,
7618,0,,,,0.12,-0.04,1.04,0,0,-1,0.13,0,,,,,,,
7623,0,,,,0.04,-0.04,0.98,0,1,-1,0.05,0,,,,,,,
7628,0,,,,-0.07,-0.06,0.94,0,1,-1,0.09,0,,,,,,,
7633,0,,,,-0.1,-0.06,0.96,1,1,-1,0.12,0,,,,,,,
7638,0,,,,-0.07,-0.05,0.98,0,-0,-1,0.09,0,,,,,,,
7643,0,2.68,4.094,,-0.01,-0.04,0.99,0,0,-1,0.04,0,0.0,0.0,0.0,0.0,0,0,0.0
7648,0,,,,0.03,0.01,0.89,0,0,-1,0.03,0,,,,,,,
7653,0,,,,-0.01,-0.01,0.9,0,0,-1,0.01,0,,,,,,,
7658,0,,,,-0.06,-0.03,0.91,0,1,-0,0.06,0,,,,,,,
7663,0,,,,-0.11,-0.02,0.88,0,0,0,0.12,0,,,,,,,
7668,0,,,,-0.12,-0.03,0.98,1,-1,1,0.13,0,,,,,,,
7673,0,,,,0.06,-0.06,0.93,0,-3,1,0.08,0,,,,,,,
7678,0,,,,0.16,-0.05,0.98,0,-2,1,0.17,0,,,,,,,
7683,0,2.64,4.121,,0.09,-0.01,0.97,0,0,1,0.09,0,,,,,,,
7688,0,,,,-0.04,-0.04,0.96,0,1,2,0.06,0,,,,,,,
7693,0,,,,-0.1,-0.1,0.9,0,-0,2,0.14,0,,,,,,,
7698,0,,,,-0.09,-0.08,0.98,0,-1,2,0.12,0,,,,,,,
7703,0,,,,0.05,-0.09,0.95,0,-2,1,0.11,0,,,,,,,
7708,0,,,,0.1,-0.08,0.94,0,-1,1,0.13,0,,,,,,,
7713,0,,,,0.08,-0.1,1.01,0,-0,1,0.13,0,,,,,,,
7718,0,,,,-0.07,-0.09,0.99,1,2,1,0.12,0,,,,,,,
7723,0,2.66,3.249,,-0.1,-0.09,1.08,1,-1,0,0.13,0,,,,,,,
7728,0,,,,0.01,-0.12,1.08,1,-2,0,0.12,0,,,,,,,
7733,0,,,,0.1,-0.13,1.01,1,-2,0,0.16,0,,,,,,,
7738,0,,,,0.11,-0.15,0.95,1,-2,0,0.18,0,,,,,,,
7743,0,,,,0.05,-0.15,1.04,1,-1,0,0.16,0,0.0,0.0,0.0,0.0,0,0,0.0
7748,0,,,,-0.02,-0.15,1.1,1,-1,0,0.15,0,,,,,,,
7753,0,,,,-0.07,-0.15,1.07,1,-0,1,0.17,0,,,,,,,
7758,0,,,,-0.07,-0.12,1.01,1,-1,0,0.14,0,,,,,,,
7763,0,2.6,2.802,,-0.05,-0.12,1.04,1,-1,0,0.13,0,,,,,,,
7768,0,,,,-0.18,-0.11,1.05,1,2,0,0.21,0,,,,,,,
7773,0,,,,-0.11,-0.12,1.07,1,1,1,0.16,0,,,,,,,
7778,0,,,,-0.05,-0.09,1.08,1,2,1,0.1,0,,,,,,,
7783,0,,,,-0.15,-0.07,0.97,1,2,1,0.16,0,,,,,,,
7788,0,,,,-0.24,-0.11,0.97,1,3,1,0.26,0,,,,,,,
7793,0,,,,-0.32,-0.12,1.01,1,4,1,0.34,0,,,,,,,
7798,0,,,,-0.31,-0.05,1.1,1,3,0,0.32,0,,,,,,,
7803,0,2.59,1.738,,-0.21,0.04,1.11,1,3,0,0.21,0,,,,,,,
7808,0,,,,-0.16,0.01,1.08,1,3,1,0.16,0,,,,,,,
7813,0,,,,-0.24,-0.06,1.1,1,5,1,0.25,0,,,,,,,
7818,0,,,,-0.19,-0.11,1.03,1,3,2,0.22,0,,,,,,,
7823,0,,,,-0.15,-0.11,0.93,1,3,2,0.19,0,,,,,,,
7828,0,,,,-0.18,-0.07,0.84,1,4,2,0.2,0,,,,,,,
7833,0,,,,-0.25,-0.1,0.83,1,4,2,0.27,0,,,,,,,
7838,0,,,,-0.21,-0.1,0.85,1,3,2,0.23,0,,,,,,,
7843,0,2.62,2.88,,-0.15,-0.06,0.88,1,3,2,0.16,0,0.0,0.0,0.0,0.0,0,0,0.0
7848,0,,,,-0.16,-0.07,0.96,1,3,1,0.17,0,,,,,,,
7853,0,,,,-0.3,-0.09,0.96,1,5,1,0.32,0,,,,,,,
7858,0,,,,-0.24,-0.1,0.97,1,4,0,0.26,0,,,,,,,
7863,0,,,,-0.21,-0.01,1.05,1,4,-0,0.21,0,,,,,,,
7868,0,,,,-0.22,-0.01,1.01,1,4,-0,0.22,0,,,,,,,
7873,0,,,,-0.22,-0.01,0.96,1,4,0,0.22,0,,,,,,,
7878,0,,,,-0.27,-0.01,1.04,1,4,0,0.27,0,,,,,,,
7883,0,2.59,2.694,,-0.25,0.02,0.98,1,3,0,0.25,0,,,,,,,
7888,0,,,,-0.27,-0.0,1.03,1,3,0,0.27,0,,,,,,,
7893,0,,,,-0.38,0.02,1.05,2,5,0,0.38,0,,,,,,,
7898,0,,,,-0.3,-0.01,1.07,2,4,-0,0.3,0,,,,,,,
7903,0,,,,-0.29,0.02,1.03,2,5,0,0.29,0,,,,,,,
7908,0,,,,-0.31,0.01,0.94,3,5,0,0.31,0,,,,,,,
7913,0,,,,-0.34,0.03,0.95,3,5,0,0.34,0,,,,,,,
7918,0,,,,-0.35,-0.0,1.01,3,5,0,0.35,0,,,,,,,
7923,0,2.58,2.296,,-0.29,0.03,0.95,3,4,0,0.29,0,,,,,,,
7928,0,,,,-0.27,-0.02,1.0,3,4,1,0.28,0,,,,,,,
7933,0,,,,-0.34,-0.02,1.01,4,6,0,0.34,0,,,,,,,
7938,0,,,,-0.29,-0.04,1.01,4,5,0,0.29,0,,,,,,,
7943,0,,,,-0.36,-0.01,1.09,4,6,0,0.36,0,0.0,0.0,0.0,0.0,0,0,0.0
7948,0,,,,-0.37,-0.02,1.03,4,6,1,0.37,0,,,,,,,
7953,0,,,,-0.41,0.0,1.01,4,6,0,0.41,0,,,,,,,
7958,0,,,,-0.36,0.0,0.97,4,6,0,0.36,0,,,,,,,
7963,0,2.55,3.211,,-0.38,0.07,0.95,4,6,1,0.38,0,,,,,,,
7968,0,,,,-0.38,0.07,1.03,4,6,1,0.38,0,,,,,,,
7973,0,,,,-0.35,0.05,1.0,4,7,1,0.36,0,,,,,,,
7978,0,,,,-0.3,0.03,0.97,3,6,2,0.3,0,,,,,,,
7983,0,,,,-0.32,0.07,1.01,3,7,2,0.33,0,,,,,,,
7988,0,,,,-0.33,0.08,1.0,3,7,2,0.34,0,,,,,,,
7993,0,,,,-0.41,0.04,1.04,2,8,3,0.41,0,,,,,,,
7998,0,,,,-0.35,0.08,1.01,2,8,3,0.36,0,,,,,,,
8003,0,2.57,3.257,,-0.31,0.08,1.01,1,8,3,0.32,0,,,,,,,
8008,0,,,,-0.35,0.08,1.06,1,9,3,0.36,0,,,,,,,
8013,0,,,,-0.29,0.07,1.02,1,10,3,0.3,25,,,,,,,
8018,0,,,,-0.25,0.05,1.03,0,9,3,0.26,25,,,,,,,
8023,0,,,,-0.31,0.06,1.05,-0,10,3,0.31,25,,,,,,,
8028,0,,,,-0.3,0.06,1.02,-1,11,3,0.3,25,,,,,,,
8033,0,,,,-0.41,-0.0,1.05,-1,12,3,0.41,25,,,,,,,
8038,0,,,,-0.4,0.05,1.05,-2,12,2,0.4,25,,,,,,,
8043,0,2.66,2.492,13.37,-0.4,0.06,1.08,-3,12,2,0.41,25,0.0,0.0,0.0,0.0,0,0,0.0
8048,0,,,,-0.46,0.1,1.1,-3,14,2,0.47,25,,,,,,,
8053,0,,,,-0.41,0.1,1.06,-3,14,2,0.42,25,,,,,,,
8058,0,,,,-0.39,0.11,1.11,-4,14,2,0.4,25,,,,,,,
8063,0,,,,-0.44,0.08,1.1,-4,15,2,0.45,48,,,,,,,
8068,0,,,,-0.43,0.07,1.09,-5,15,1,0.44,48,,,,,,,
8073,0,,,,-0.56,0.03,1.17,-5,16,1,0.56,48,,,,,,,
8078,0,,,,-0.47,0.06,1.09,-5,16,1,0.48,48,,,,,,,
8083,0,2.69,2.42,,-0.5,0.08,1.06,-6,17,1,0.51,48,,,,,,,
8088,0,,,,-0.57,0.1,1.06,-6,18,0,0.57,48,,,,,,,
8093,0,,,,-0.51,0.07,1.06,-7,17,1,0.51,48,,,,,,,
8098,0,,,,-0.44,0.08,1.08,-7,17,1,0.45,58,,,,,,,
8103,0,,,,-0.47,0.08,1.04,-7,18,1,0.48,58,,,,,,,
8108,0,,,,-0.53,0.03,1.01,-7,18,1,0.54,58,,,,,,,
8113,0,,,,-0.65,-0.03,1.07,-8,18,1,0.65,58,,,,,,,
8118,0,,,,-0.54,0.01,0.95,-8,18,1,0.54,58,,,,,,,
8123,0,2.66,2.642,,-0.55,0.02,0.93,-8,17,2,0.55,58,,,,,,,
8128,0,,,,-0.53,0.02,0.91,-8,17,1,0.53,58,,,,,,,
8133,0,,,,-0.51,0.02,0.87,-8,16,2,0.51,58,,,,,,,
8138,0,,,,-0.48,-0.01,0.89,-8,15,2,0.48,58,,,,,,,
8143,0,,,,-0.54,-0.02,0.85,-8,15,2,0.54,62,0.0,0.0,0.0,0.0,0,0,0.0
8148,0,,,,-0.61,-0.0,0.83,-8,14,2,0.61,62,,,,,,,
8153,0,,,,-0.72,-0.02,0.86,-8,14,1,0.72,62,,,,,,,
8158,0,,,,-0.6,-0.01,0.79,-8,12,1,0.6,62,,,,,,,
8163,0,2.69,2.666,,-0.57,-0.02,0.74,-8,11,1,0.57,62,,,,,,,
8168,0,,,,-0.53,-0.04,0.74,-7,10,1,0.54,62,,,,,,,
8173,0,,,,-0.58,-0.1,0.73,-7,9,2,0.59,62,,,,,,,
8178,0,,,,-0.52,-0.16,0.78,-7,8,2,0.54,62,,,,,,,
8183,0,,,,-0.52,-0.15,0.79,-6,7,2,0.54,52,,,,,,,
8188,0,,,,-0.55,-0.15,0.84,-6,7,2,0.57,52,,,,,,,
8193,0,,,,-0.64,-0.17,0.88,-5,6,2,0.66,52,,,,,,,
8198,0,,,,-0.6,-0.2,0.88,-5,6,3,0.64,52,,,,,,,
8203,0,2.69,2.989,,-0.59,-0.16,0.93,-5,5,2,0.62,52,,,,,,,
8208,0,,,,-0.63,-0.15,0.96,-4,4,2,0.65,52,,,,,,,
8213,0,,,,-0.74,-0.19,0.93,-4,5,2,0.76,52,,,,,,,
8218,0,,,,-0.63,-0.22,0.87,-4,3,3,0.67,72,,,,,,,
8223,0,,,,-0.6,-0.18,0.83,-4,3,2,0.63,72,,,,,,,
8228,0,,,,-0.62,-0.08,0.78,-4,2,2,0.62,72,,,,,,,
8233,0,,,,-0.67,-0.07,0.77,-3,2,2,0.67,72,,,,,,,
8238,0,,,,-0.65,-0.09,0.77,-3,1,1,0.65,72,,,,,,,
8243,0,2.67,4.206,,-0.58,-0.03,0.74,-3,-0,1,0.59,72,0.0,0.0,0.0,0.0,0,0,0.0
8248,0,,,,-0.58,-0.03,0.83,-3,-1,0,0.58,70,,,,,,,
8253,0,,,,-0.68,-0.03,0.84,-3,1,-0,0.68,70,,,,,,,
8258,0,,,,-0.6,-0.08,0.76,-3,-0,-0,0.61,70,,,,,,,
8263,0,,,,-0.6,-0.05,0.78,-3,-0,-0,0.61,70,,,,,,,
8268,0,,,,-0.59,-0.03,0.69,-3,0,-1,0.59,70,,,,,,,
8273,0,,,,-0.61,-0.04,0.68,-3,-0,-1,0.61,70,,,,,,,
8278,0,,,,-0.62,-0.1,0.74,-3,-1,-1,0.63,70,,,,,,,
8283,0,2.72,3.729,,-0.52,-0.03,0.71,-3,-2,-1,0.52,70,,,,,,,
8288,0,,,,-0.52,-0.04,0.83,-3,-3,-1,0.52,70,,,,,,,
8293,0,,,,-0.58,-0.04,0.85,-3,-0,-1,0.58,70,,,,,,,
8298,0,,,,-0.57,-0.06,0.9,-3,-1,-1,0.58,70,,,,,,,
8303,0,,,,-0.58,-0.06,0.95,-3,-1,-1,0.58,70,,,,,,,
8308,0,,,,-0.56,-0.02,0.93,-3,-1,-1,0.56,70,,,,,,,
8313,0,,,,-0.56,-0.02,0.94,-3,-1,-0,0.56,85,,,,,,,
8318,0,,,,-0.57,-0.07,0.96,-3,-0,0,0.57,85,,,,,,,
8323,0,2.79,2.906,,-0.5,-0.06,0.9,-3,-1,1,0.5,85,,,,,,,
8328,0,,,,-0.52,-0.04,0.99,-3,-1,2,0.52,85,,,,,,,
8333,0,,,,-0.58,-0.04,1.0,-3,1,2,0.58,85,,,,,,,
8338,0,,,,-0.58,0.05,1.04,-3,0,2,0.58,85,,,,,,,
8343,0,,,,-0.48,0.07,1.04,-3,1,2,0.49,85,0.0,0.0,0.0,0.0,0,0,0.0
8348,0,,,,-0.53,0.09,1.07,-3,2,2,0.54,85,,,,,,,
8353,0,,,,-0.5,0.08,1.01,-3,2,2,0.51,85,,,,,,,
8358,0,,,,-0.61,0.08,1.09,-3,3,2,0.62,85,,,,,,,
8363,0,2.91,3.111,,-0.51,0.12,0.97,-3,3,1,0.52,85,,,,,,,
8368,0,,,,-0.46,0.1,1.01,-3,2,2,0.47,90,,,,,,,
8373,0,,,,-0.48,0.14,1.02,-3,4,1,0.5,90,,,,,,,
8378,0,,,,-0.48,0.15,1.05,-3,4,1,0.5,90,,,,,,,
8383,0,,,,-0.47,0.18,1.02,-3,4,1,0.5,90,,,,,,,
8388,0,,,,-0.52,0.18,1.03,-3,5,1,0.55,90,,,,,,,
8393,0,,,,-0.5,0.18,1.01,-3,4,1,0.53,95,,,,,,,
8398,0,,,,-0.59,0.14,1.08,-3,4,1,0.6,95,,,,,,,
8403,0,3.04,3.357,,-0.46,0.13,0.95,-3,4,0,0.47,95,,,,,,,
8408,0,,,,-0.49,0.16,1.04,-3,4,1,0.52,95,,,,,,,
8413,0,,,,-0.55,0.16,1.02,-3,5,0,0.57,95,,,,,,,
8418,0,,,,-0.52,0.13,1.01,-3,4,-0,0.53,95,,,,,,,
8423,0,,,,-0.49,0.19,1.0,-3,3,-0,0.52,92,,,,,,,
8428,0,,,,-0.52,0.2,1.0,-3,4,-0,0.56,92,,,,,,,
8433,0,,,,-0.52,0.13,0.97,-3,3,-1,0.54,92,,,,,,,
8438,0,,,,-0.55,0.11,0.99,-3,3,-1,0.56,92,,,,,,,
8443,0,3.09,3.768,,-0.49,0.11,0.94,-2,3,-1,0.5,92,0.0,0.0,0.0,0.0,0,0,0.0
8448,0,,,,-0.47,0.11,0.99,-2,2,-2,0.48,95,,,,,,,
8453,0,,,,-0.56,0.15,1.0,-2,3,-2,0.58,95,,,,,,,
8458,0,,,,-0.53,0.15,0.99,-2,2,-2,0.55,95,,,,,,,
