"Interval"|"ms"|0|0|1,"Utc"|"ms"|0|0|1,"Analog1"|"Volts"|0.0|5.0|200,"Analog2"|"Volts"|0.0|5.0|200,"Analog3"|"Volts"|0.0|5.0|200,"Analog4"|"Volts"|0.0|5.0|200,"Analog5"|"Volts"|0.0|5.0|200,"Analog6"|"Volts"|0.0|5.0|200,"Analog7"|"Volts"|0.0|5.0|200,"Analog8"|"Volts"|0.0|5.0|200,"Battery"|"Volts"|0.0|20.0|1,"AccelX"|"G"|-3.0|3.0|200,"AccelY"|"G"|-3.0|3.0|200,"AccelZ"|"G"|-3.0|3.0|200,"Yaw"|"Deg/Sec"|-120|120|200,"Pitch"|"Deg/Sec"|-120|120|200,"Roll"|"Deg/Sec"|-120|120|200,"Gsum"|"G"|0.0|3.0|200,"RPM"|"rpm"|0|8000|500,"RPM2"|"rpm"|0|8000|500,"Latitude"|"Degrees"|-180.0|180.0|25,"Longitude"|"Degrees"|-180.0|180.0|25,"Speed"|"mph"|0.0|150.0|25,"Altitude"|"ft"|0.0|4000.0|25,"GPSSats"|""|0|20|25,"GPSQual"|""|0|5|25,"GPSDOP"|""|0.0|20.0|25
203,0,0.3,0.99,1.1,0.8,4.92,0.15,0.43,2.48,,0.03,0.03,0.98,0,1,-1,0.04,0,0,0.0,0.0,0.0,0.0,0,0,0.0
205,0,,,,,,,,,,,,,,,,,0,0,,,,,,,
207,0,,,,,,,,,,,,,,,,,0,0,,,,,,,
209,0,,,,,,,,,,,,,,,,,0,0,,,,,,,
211,0,,,,,,,,,,,,,,,,,0,0,,,,,,,
213,0,0.29,0.97,1.1,0.76,4.89,0.17,0.49,2.44,,0.03,0.05,1.05,0,1,-1,0.06,0,0,,,,,,,
215,0,,,,,,,,,,,,,,,,,0,0,,,,,,,
217,0,,,,,,,,,,,,,,,,,0,0,,,,,,,
219,0,,,,,,,,,,,,,,,,,0,0,,,,,,,
221,0,,,,,,,,,,,,,,,,,0,0,,,,,,,
223,0,0.32,0.99,1.11,0.79,4.87,0.17,0.47,2.42,,-0.02,0.04,0.93,0,0,0,0.04,0,0,,,,,,,
225,0,,,,,,,,,,,,,,,,,0,0,,,,,,,
227,0,,,,,,,,,,,,,,,,,0,0,,,,,,,
229,0,,,,,,,,,,,,,,,,,0,0,,,,,,,
231,0,,,,,,,,,,,,,,,,,0,0,,,,,,,
233,0,0.33,0.99,1.1,0.75,4.91,0.12,0.38,2.41,,0.01,0.03,1.01,0,-3,-0,0.04,0,0,,,,,,,
235,0,,,,,,,,,,,,,,,,,0,0,,,,,,,
237,0,,,,,,,,,,,,,,,,,0,0,,,,,,,
239,0,,,,,,,,,,,,,,,,,0,0,,,,,,,
241,0,,,,,,,,,,,,,,,,,0,0,,,,,,,
243,0,0.3,1.0,1.12,0.83,4.93,0.13,0.45,2.48,,0.03,0.02,1.02,0,4,-1,0.03,0,0,0.0,0.0,0.0,0.0,0,0,0.0
245,0,,,,,,,,,,,,,,,,,0,0,,,,,,,
247,0,,,,,,,,,,,,,,,,,0,0,,,,,,,
249,0,,,,,,,,,,,,,,,,,0,0,,,,,,,
251,0,,,,,,,,,,,,,,,,,0,0,,,,,,,
253,0,0.29,0.98,1.09,0.73,4.91,0.19,0.4,2.44,,-0.03,0.04,0.99,0,-2,-0,0.05,0,0,,,,,,,
255,0,,,,,,,,,,,,,,,,,0,0,,,,,,,
257,0,,,,,,,,,,,,,,,,,0,0,,,,,,,
259,0,,,,,,,,,,,,,,,,,0,0,,,,,,,
261,0,,,,,,,,,,,,,,,,,0,0,,,,,,,
263,0,0.29,0.96,1.07,0.71,4.88,0.16,0.37,2.43,,0.01,0.06,0.99,0,-1,-0,0.06,0,0,,,,,,,
265,0,,,,,,,,,,,,,,,,,0,0,,,,,,,
267,0,,,,,,,,,,,,,,,,,0,0,,,,,,,
269,0,,,,,,,,,,,,,,,,,0,0,,,,,,,
271,0,,,,,,,,,,,,,,,,,0,0,,,,,,,
273,0,0.29,0.99,1.12,0.77,4.92,0.14,0.42,2.47,,0.03,0.05,1.05,0,-0,0,0.05,0,0,,,,,,,
275,0,,,,,,,,,,,,,,,,,0,0,,,,,,,
277,0,,,,,,,,,,,,,,,,,0,0,,,,,,,
279,0,,,,,,,,,,,,,,,,,0,0,,,,,,,
281,0,,,,,,,,,,,,,,,,,0,0,,,,,,,
283,0,0.3,1.01,1.12,0.76,4.92,0.21,0.41,2.47,,-0.03,0.03,0.94,0,-2,0,0.04,0,0,0.0,0.0,0.0,0.0,0,0,0.0
285,0,,,,,,,,,,,,,,,,,0,0,,,,,,,
287,0,,,,,,,,,,,,,,,,,0,0,,,,,,,
289,0,,,,,,,,,,,,,,,,,0,0,,,,,,,
291,0,,,,,,,,,,,,,,,,,0,0,,,,,,,
293,0,0.34,1.01,1.12,0.82,4.92,0.13,0.4,2.47,,-0.01,0.04,1.03,0,-0,0,0.04,0,0,,,,,,,
295,0,,,,,,,,,,,,,,,,,0,0,,,,,,,
297,0,,,,,,,,,,,,,,,,,0,0,,,,,,,
299,0,,,,,,,,,,,,,,,,,0,0,,,,,,,
301,0,,,,,,,,,,,,,,,,,0,0,,,,,,,
303,0,0.31,0.99,1.11,0.77,4.94,0.14,0.41,2.48,,0.08,0.02,0.98,0,2,1,0.08,0,0,,,,,,,
305,0,,,,,,,,,,,,,,,,,0,0,,,,,,,
307,0,,,,,,,,,,,,,,,,,0,0,,,,,,,
309,0,,,,,,,,,,,,,,,,,0,0,,,,,,,
311,0,,,,,,,,,,,,,,,,,0,0,,,,,,,
313,0,0.3,1.01,1.12,0.75,4.93,0.18,0.41,2.48,,-0.04,0.04,1.04,0,-3,0,0.06,0,0,,,,,,,
315,0,,,,,,,,,,,,,,,,,0,0,,,,,,,
317,0,,,,,,,,,,,,,,,,,0,0,,,,,,,
319,0,,,,,,,,,,,,,,,,,0,0,,,,,,,
321,0,,,,,,,,,,,,,,,,,0,0,,,,,,,
323,0,0.32,0.99,1.11,0.74,4.91,0.12,0.39,2.46,,0.01,0.03,0.95,0,-1,1,0.04,0,0,0.0,0.0,0.0,0.0,0,0,0.0
325,0,,,,,,,,,,,,,,,,,0,0,,,,,,,
327,0,,,,,,,,,,,,,,,,,0,0,,,,,,,
329,0,,,,,,,,,,,,,,,,,0,0,,,,,,,
331,0,,,,,,,,,,,,,,,,,0,0,,,,,,,
333,0,0.28,0.97,1.09,0.74,4.88,0.11,0.36,2.45,,0.02,0.02,0.99,0,1,1,0.03,0,0,,,,,,,
335,0,,,,,,,,,,,,,,,,,0,0,,,,,,,
337,0,,,,,,,,,,,,,,,,,0,0,,,,,,,
339,0,,,,,,,,,,,,,,,,,0,0,,,,,,,
341,0,,,,,,,,,,,,,,,,,0,0,,,,,,,
343,0,0.27,0.97,1.09,0.69,4.88,0.19,0.39,2.44,,-0.01,0.03,1.0,0,-0,-1,0.03,0,0,,,,,,,
345,0,,,,,,,,,,,,,,,,,0,0,,,,,,,
347,0,,,,,,,,,,,,,,,,,0,0,,,,,,,
349,0,,,,,,,,,,,,,,,,,0,0,,,,,,,
351,0,,,,,,,,,,,,,,,,,0,0,,,,,,,
353,0,0.32,1.02,1.09,0.75,4.92,0.13,0.42,2.47,,0.0,0.04,0.98,0,3,-0,0.04,0,0,,,,,,,
355,0,,,,,,,,,,,,,,,,,0,0,,,,,,,
357,0,,,,,,,,,,,,,,,,,0,0,,,,,,,
359,0,,,,,,,,,,,,,,,,,0,0,,,,,,,
361,0,,,,,,,,,,,,,,,,,0,0,,,,,,,
363,0,0.32,1.0,1.12,0.68,4.93,0.15,0.4,2.48,,0.07,-0.01,0.97,0,-2,0,0.07,0,0,0.0,0.0,0.0,0.0,0,0,0.0
365,0,,,,,,,,,,,,,,,,,0,0,,,,,,,
367,0,,,,,,,,,,,,,,,,,0,0,,,,,,,
369,0,,,,,,,,,,,,,,,,,0,0,,,,,,,
371,0,,,,,,,,,,,,,,,,,0,0,,,,,,,
373,0,0.27,0.97,1.09,0.71,4.89,0.12,0.41,2.42,,-0.02,0.02,1.06,0,1,0,0.03,0,0,,,,,,,
375,0,,,,,,,,,,,,,,,,,0,0,,,,,,,
377,0,,,,,,,,,,,,,,,,,0,0,,,,,,,
379,0,,,,,,,,,,,,,,,,,0,0,,,,,,,
381,0,,,,,,,,,,,,,,,,,0,0,,,,,,,
383,0,0.31,1.01,1.1,0.74,4.93,0.13,0.41,2.46,,-0.01,0.03,0.95,0,0,-1,0.03,0,0,,,,,,,
385,0,,,,,,,,,,,,,,,,,0,0,,,,,,,
387,0,,,,,,,,,,,,,,,,,0,0,,,,,,,
389,0,,,,,,,,,,,,,,,,,0,0,,,,,,,
391,0,,,,,,,,,,,,,,,,,0,0,,,,,,,
393,0,0.32,1.0,1.11,0.74,4.94,0.16,0.41,2.48,,0.03,0.02,0.98,0,1,-1,0.04,0,0,,,,,,,
395,0,,,,,,,,,,,,,,,,,0,0,,,,,,,
397,0,,,,,,,,,,,,,,,,,0,0,,,,,,,
399,0,,,,,,,,,,,,,,,,,0,0,,,,,,,
401,0,,,,,,,,,,,,,,,,,0,0,,,,,,,
403,0,0.29,1.0,1.12,0.71,4.94,0.17,0.46,2.48,,0.03,0.06,1.06,0,0,-1,0.07,0,0,0.0,0.0,0.0,0.0,0,0,0.0
405,0,,,,,,,,,,,,,,,,,0,0,,,,,,,
407,0,,,,,,,,,,,,,,,,,0,0,,,,,,,
409,0,,,,,,,,,,,,,,,,,0,0,,,,,,,
411,0,,,,,,,,,,,,,,,,,0,0,,,,,,,
413,0,0.31,1.02,1.12,0.75,4.92,0.16,0.43,2.47,,-0.01,0.04,0.93,0,1,0,0.04,0,0,,,,,,,
415,0,,,,,,,,,,,,,,,,,0,0,,,,,,,
417,0,,,,,,,,,,,,,,,,,0,0,,,,,,,
419,0,,,,,,,,,,,,,,,,,0,0,,,,,,,
421,0,,,,,,,,,,,,,,,,,0,0,,,,,,,
423,0,0.31,0.99,1.09,0.7,4.89,0.1,0.35,2.44,,0.02,0.04,1.01,0,-3,-0,0.04,0,0,,,,,,,
425,0,,,,,,,,,,,,,,,,,0,0,,,,,,,
427,0,,,,,,,,,,,,,,,,,0,0,,,,,,,
429,0,,,,,,,,,,,,,,,,,0,0,,,,,,,
431,0,,,,,,,,,,,,,,,,,0,0,,,,,,,
433,0,0.28,0.98,1.1,0.76,4.92,0.11,0.42,2.47,,0.03,0.02,1.03,0,3,-1,0.03,0,0,,,,,,,
435,0,,,,,,,,,,,,,,,,,0,0,,,,,,,
437,0,,,,,,,,,,,,,,,,,0,0,,,,,,,
439,0,,,,,,,,,,,,,,,,,0,0,,,,,,,
441,0,,,,,,,,,,,,,,,,,0,0,,,,,,,
443,0,0.31,1.01,1.11,0.74,4.93,0.17,0.42,2.48,,-0.02,0.04,0.99,0,-2,-0,0.04,0,0,0.0,0.0,0.0,0.0,0,0,0.0
445,0,,,,,,,,,,,,,,,,,0,0,,,,,,,
447,0,,,,,,,,,,,,,,,,,0,0,,,,,,,
449,0,,,,,,,,,,,,,,,,,0,0,,,,,,,
451,0,,,,,,,,,,,,,,,,,0,0,,,,,,,
453,0,0.31,0.99,1.1,0.7,4.9,0.18,0.38,2.46,,0.03,0.05,1.0,0,-1,-0,0.05,0,0,,,,,,,
455,0,,,,,,,,,,,,,,,,,0,0,,,,,,,
457,0,,,,,,,,,,,,,,,,,0,0,,,,,,,
459,0,,,,,,,,,,,,,,,,,0,0,,,,,,,
461,0,,,,,,,,,,,,,,,,,0,0,,,,,,,
463,0,0.28,0.98,1.1,0.71,4.91,0.11,0.42,2.46,,0.04,0.06,1.07,0,-0,0,0.07,0,0,,,,,,,
465,0,,,,,,,,,,,,,,,,,0,0,,,,,,,
467,0,,,,,,,,,,,,,,,,,0,0,,,,,,,
469,0,,,,,,,,,,,,,,,,,0,0,,,,,,,
471,0,,,,,,,,,,,,,,,,,0,0,,,,,,,
473,0,0.28,0.98,1.1,0.69,4.89,0.18,0.38,2.44,,-0.01,0.05,0.93,0,-2,1,0.05,0,0,,,,,,,
475,0,,,,,,,,,,,,,,,,,0,0,,,,,,,
477,0,,,,,,,,,,,,,,,,,0,0,,,,,,,
479,0,,,,,,,,,,,,,,,,,0,0,,,,,,,
481,0,,,,,,,,,,,,,,,,,0,0,,,,,,,
483,0,0.33,1.01,1.11,0.77,4.92,0.11,0.37,2.47,,-0.01,0.04,1.04,0,-1,0,0.04,0,0,0.0,0.0,0.0,0.0,0,0,0.0
485,0,,,,,,,,,,,,,,,,,0,0,,,,,,,
487,0,,,,,,,,,,,,,,,,,0,0,,,,,,,
489,0,,,,,,,,,,,,,,,,,0,0,,,,,,,
491,0,,,,,,,,,,,,,,,,,0,0,,,,,,,
493,0,0.31,1.0,1.12,0.77,4.93,0.09,0.41,2.47,,0.06,0.05,1.01,0,2,0,0.07,0,0,,,,,,,
495,0,,,,,,,,,,,,,,,,,0,0,,,,,,,
497,0,,,,,,,,,,,,,,,,,0,0,,,,,,,
499,0,,,,,,,,,,,,,,,,,0,0,,,,,,,
501,0,,,,,,,,,,,,,,,,,0,0,,,,,,,
503,0,0.3,1.01,1.12,0.71,4.93,0.14,0.41,2.48,,-0.04,0.06,1.04,0,-3,0,0.07,0,0,,,,,,,
505,0,,,,,,,,,,,,,,,,,0,0,,,,,,,
507,0,,,,,,,,,,,,,,,,,0,0,,,,,,,
509,0,,,,,,,,,,,,,,,,,0,0,,,,,,,
511,0,,,,,,,,,,,,,,,,,0,0,,,,,,,
513,0,0.33,1.01,1.11,0.68,4.91,0.15,0.38,2.47,,0.02,0.06,0.98,0,-2,1,0.06,0,0,,,,,,,
515,0,,,,,,,,,,,,,,,,,0,0,,,,,,,
517,0,,,,,,,,,,,,,,,,,0,0,,,,,,,
519,0,,,,,,,,,,,,,,,,,0,0,,,,,,,
521,0,,,,,,,,,,,,,,,,,0,0,,,,,,,
523,0,0.3,1.0,1.12,0.74,4.93,0.1,0.37,2.48,,0.02,0.03,1.02,0,1,1,0.04,0,0,0.0,0.0,0.0,0.0,0,0,0.0
525,0,,,,,,,,,,,,,,,,,0,0,,,,,,,
527,0,,,,,,,,,,,,,,,,,0,0,,,,,,,
529,0,,,,,,,,,,,,,,,,,0,0,,,,,,,
531,0,,,,,,,,,,,,,,,,,0,0,,,,,,,
533,0,0.3,1.02,1.12,0.68,4.94,0.17,0.4,2.48,,-0.02,0.03,0.97,0,-1,-1,0.04,0,0,,,,,,,
535,0,,,,,,,,,,,,,,,,,0,0,,,,,,,
537,0,,,,,,,,,,,,,,,,,0,0,,,,,,,
539,0,,,,,,,,,,,,,,,,,0,0,,,,,,,
541,0,,,,,,,,,,,,,,,,,0,0,,,,,,,
543,0,0.33,1.01,1.1,0.7,4.92,0.09,0.41,2.47,,-0.0,0.04,1.01,0,3,0,0.04,0,0,,,,,,,
545,0,,,,,,,,,,,,,,,,,0,0,,,,,,,
547,0,,,,,,,,,,,,,,,,,0,0,,,,,,,
549,0,,,,,,,,,,,,,,,,,0,0,,,,,,,
551,0,,,,,,,,,,,,,,,,,0,0,,,,,,,
553,0,0.29,0.97,1.08,0.61,4.89,0.08,0.38,2.45,,0.09,0.02,0.96,0,-1,0,0.09,0,0,,,,,,,
555,0,,,,,,,,,,,,,,,,,0,0,,,,,,,
557,0,,,,,,,,,,,,,,,,,0,0,,,,,,,
559,0,,,,,,,,,,,,,,,,,0,0,,,,,,,
561,0,,,,,,,,,,,,,,,,,0,0,,,,,,,
563,0,0.31,1.02,1.13,0.7,4.93,0.13,0.41,2.46,,-0.04,0.02,1.05,0,-0,0,0.05,0,0,0.0,0.0,0.0,0.0,0,0,0.0
565,0,,,,,,,,,,,,,,,,,0,0,,,,,,,
567,0,,,,,,,,,,,,,,,,,0,0,,,,,,,
569,0,,,,,,,,,,,,,,,,,0,0,,,,,,,
571,0,,,,,,,,,,,,,,,,,0,0,,,,,,,
573,0,0.3,1.0,1.06,0.64,4.88,0.1,0.36,2.44,,-0.0,0.02,0.94,0,-0,-0,0.02,0,0,,,,,,,
575,0,,,,,,,,,,,,,,,,,0,0,,,,,,,
577,0,,,,,,,,,,,,,,,,,0,0,,,,,,,
579,0,,,,,,,,,,,,,,,,,0,0,,,,,,,
581,0,,,,,,,,,,,,,,,,,0,0,,,,,,,
583,0,0.3,0.98,1.08,0.65,4.89,0.13,0.37,2.43,,0.03,0.0,0.98,0,2,-0,0.03,0,0,,,,,,,
585,0,,,,,,,,,,,,,,,,,0,0,,,,,,,
587,0,,,,,,,,,,,,,,,,,0,0,,,,,,,
589,0,,,,,,,,,,,,,,,,,0,0,,,,,,,
591,0,,,,,,,,,,,,,,,,,0,0,,,,,,,
593,0,0.3,1.01,1.11,0.61,4.91,0.18,0.43,2.46,,0.01,0.06,1.04,0,0,-1,0.06,0,0,,,,,,,
595,0,,,,,,,,,,,,,,,,,0,0,,,,,,,
597,0,,,,,,,,,,,,,,,,,0,0,,,,,,,
599,0,,,,,,,,,,,,,,,,,0,0,,,,,,,
601,0,,,,,,,,,,,,,,,,,0,0,,,,,,,
603,0,0.31,1.02,1.11,0.63,4.91,0.14,0.41,2.46,,-0.01,0.03,0.95,0,2,0,0.03,0,0,0.0,0.0,0.0,0.0,0,0,0.0
605,0,,,,,,,,,,,,,,,,,0,0,,,,,,,
607,0,,,,,,,,,,,,,,,,,0,0,,,,,,,
609,0,,,,,,,,,,,,,,,,,0,0,,,,,,,
611,0,,,,,,,,,,,,,,,,,0,0,,,,,,,
613,0,0.32,0.99,1.1,0.59,4.91,0.11,0.36,2.46,,0.04,0.0,0.99,0,-3,0,0.04,0,0,,,,,,,
615,0,,,,,,,,,,,,,,,,,0,0,,,,,,,
617,0,,,,,,,,,,,,,,,,,0,0,,,,,,,
619,0,,,,,,,,,,,,,,,,,0,0,,,,,,,
621,0,,,,,,,,,,,,,,,,,0,0,,,,,,,
623,0,0.31,1.02,1.13,0.68,4.93,0.1,0.41,2.47,,0.0,0.02,1.04,0,3,-1,0.02,0,0,,,,,,,
625,0,,,,,,,,,,,,,,,,,0,0,,,,,,,
627,0,,,,,,,,,,,,,,,,,0,0,,,,,,,
629,0,,,,,,,,,,,,,,,,,0,0,,,,,,,
631,0,,,,,,,,,,,,,,,,,0,0,,,,,,,
633,0,0.32,1.03,1.13,0.65,4.93,0.12,0.42,2.47,,-0.02,0.02,0.98,0,-1,-1,0.03,0,0,,,,,,,
635,0,,,,,,,,,,,,,,,,,0,0,,,,,,,
637,0,,,,,,,,,,,,,,,,,0,0,,,,,,,
639,0,,,,,,,,,,,,,,,,,0,0,,,,,,,
641,0,,,,,,,,,,,,,,,,,0,0,,,,,,,
643,0,0.33,1.01,1.1,0.6,4.91,0.17,0.37,2.46,,0.02,0.04,0.98,0,-0,-1,0.05,0,0,0.0,0.0,0.0,0.0,0,0,0.0
645,0,,,,,,,,,,,,,,,,,0,0,,,,,,,
647,0,,,,,,,,,,,,,,,,,0,0,,,,,,,
649,0,,,,,,,,,,,,,,,,,0,0,,,,,,,
651,0,,,,,,,,,,,,,,,,,0,0,,,,,,,
653,0,0.3,1.01,1.12,0.63,4.93,0.1,0.41,2.47,,0.03,0.05,1.08,0,0,-0,0.06,0,0,,,,,,,
655,0,,,,,,,,,,,,,,,,,0,0,,,,,,,
657,0,,,,,,,,,,,,,,,,,0,0,,,,,,,
659,0,,,,,,,,,,,,,,,,,0,0,,,,,,,
661,0,,,,,,,,,,,,,,,,,0,0,,,,,,,
663,0,0.3,1.02,1.11,0.62,4.92,0.16,0.38,2.47,,-0.02,0.04,0.92,0,-2,1,0.04,0,0,,,,,,,
665,0,,,,,,,,,,,,,,,,,0,0,,,,,,,
667,0,,,,,,,,,,,,,,,,,0,0,,,,,,,
669,0,,,,,,,,,,,,,,,,,0,0,,,,,,,
671,0,,,,,,,,,,,,,,,,,0,0,,,,,,,
673,0,0.32,1.0,1.08,0.63,4.88,0.08,0.33,2.44,,-0.01,0.03,1.03,0,-2,-0,0.03,0,0,,,,,,,
675,0,,,,,,,,,,,,,,,,,0,0,,,,,,,
677,0,,,,,,,,,,,,,,,,,0,0,,,,,,,
679,0,,,,,,,,,,,,,,,,,0,0,,,,,,,
681,0,,,,,,,,,,,,,,,,,0,0,,,,,,,
683,0,0.31,1.01,1.12,0.69,4.94,0.07,0.39,2.48,,0.05,0.03,1.01,0,3,-0,0.06,0,0,0.0,0.0,0.0,0.0,0,0,0.0
685,0,,,,,,,,,,,,,,,,,0,0,,,,,,,
687,0,,,,,,,,,,,,,,,,,0,0,,,,,,,
689,0,,,,,,,,,,,,,,,,,0,0,,,,,,,
691,0,,,,,,,,,,,,,,,,,0,0,,,,,,,
693,0,0.31,1.03,1.12,0.6,4.92,0.17,0.39,2.47,,-0.03,0.05,1.01,0,-3,0,0.06,0,0,,,,,,,
695,0,,,,,,,,,,,,,,,,,0,0,,,,,,,
697,0,,,,,,,,,,,,,,,,,0,0,,,,,,,
699,0,,,,,,,,,,,,,,,,,0,0,,,,,,,
701,0,,,,,,,,,,,,,,,,,0,0,,,,,,,
703,0,0.31,0.99,1.09,0.58,4.91,0.13,0.33,2.46,,0.02,0.06,0.98,0,-2,1,0.06,0,0,,,,,,,
705,0,,,,,,,,,,,,,,,,,0,0,,,,,,,
707,0,,,,,,,,,,,,,,,,,0,0,,,,,,,
709,0,,,,,,,,,,,,,,,,,0,0,,,,,,,
711,0,,,,,,,,,,,,,,,,,0,0,,,,,,,
713,0,0.3,1.01,1.12,0.67,4.93,0.11,0.36,2.47,,0.03,0.04,1.05,0,1,1,0.05,0,0,,,,,,,
715,0,,,,,,,,,,,,,,,,,0,0,,,,,,,
717,0,,,,,,,,,,,,,,,,,0,0,,,,,,,
719,0,,,,,,,,,,,,,,,,,0,0,,,,,,,
721,0,,,,,,,,,,,,,,,,,0,0,,,,,,,
723,0,0.3,1.02,1.12,0.61,4.93,0.2,0.38,2.48,,-0.03,0.03,0.94,0,-2,-0,0.04,0,0,0.0,0.0,0.0,0.0,0,0,0.0
725,0,,,,,,,,,,,,,,,,,0,0,,,,,,,
727,0,,,,,,,,,,,,,,,,,0,0,,,,,,,
729,0,,,,,,,,,,,,,,,,,0,0,,,,,,,
731,0,,,,,,,,,,,,,,,,,0,0,,,,,,,
733,0,0.32,0.99,1.09,0.65,4.9,0.11,0.37,2.45,,-0.01,0.04,1.03,0,1,0,0.04,0,0,,,,,,,
735,0,,,,,,,,,,,,,,,,,0,0,,,,,,,
737,0,,,,,,,,,,,,,,,,,0,0,,,,,,,
739,0,,,,,,,,,,,,,,,,,0,0,,,,,,,
741,0,,,,,,,,,,,,,,,,,0,0,,,,,,,
743,0,0.32,1.0,1.11,0.63,4.93,0.11,0.38,2.47,,0.07,0.02,0.97,0,1,1,0.08,0,0,,,,,,,
745,0,,,,,,,,,,,,,,,,,0,0,,,,,,,
747,0,,,,,,,,,,,,,,,,,0,0,,,,,,,
749,0,,,,,,,,,,,,,,,,,0,0,,,,,,,
751,0,,,,,,,,,,,,,,,,,0,0,,,,,,,
753,0,0.29,1.0,1.11,0.63,4.91,0.12,0.39,2.46,,-0.04,0.04,1.04,0,-1,0,0.06,0,0,,,,,,,
755,0,,,,,,,,,,,,,,,,,0,0,,,,,,,
757,0,,,,,,,,,,,,,,,,,0,0,,,,,,,
759,0,,,,,,,,,,,,,,,,,0,0,,,,,,,
761,0,,,,,,,,,,,,,,,,,0,0,,,,,,,
763,0,0.31,0.99,1.09,0.61,4.92,0.1,0.37,2.46,,0.01,0.03,0.97,0,-1,0,0.03,0,0,0.0,0.0,0.0,0.0,0,0,0.0
765,0,,,,,,,,,,,,,,,,,0,0,,,,,,,
767,0,,,,,,,,,,,,,,,,,0,0,,,,,,,
769,0,,,,,,,,,,,,,,,,,0,0,,,,,,,
771,0,,,,,,,,,,,,,,,,,0,0,,,,,,,
773,0,0.31,1.0,1.12,0.65,4.93,0.1,0.35,2.47,,0.02,0.01,0.97,0,2,0,0.02,0,0,,,,,,,
775,0,,,,,,,,,,,,,,,,,0,0,,,,,,,
777,0,,,,,,,,,,,,,,,,,0,0,,,,,,,
779,0,,,,,,,,,,,,,,,,,0,0,,,,,,,
781,0,,,,,,,,,,,,,,,,,0,0,,,,,,,
783,0,0.28,0.98,1.09,0.58,4.88,0.14,0.37,2.45,,-0.01,0.03,1.02,0,-0,-1,0.03,0,0,,,,,,,
785,0,,,,,,,,,,,,,,,,,0,0,,,,,,,
787,0,,,,,,,,,,,,,,,,,0,0,,,,,,,
789,0,,,,,,,,,,,,,,,,,0,0,,,,,,,
791,0,,,,,,,,,,,,,,,,,0,0,,,,,,,
793,0,0.32,1.02,1.1,0.63,4.93,0.12,0.39,2.48,,0.0,0.04,0.97,0,3,-0,0.04,0,0,,,,,,,
795,0,,,,,,,,,,,,,,,,,0,0,,,,,,,
797,0,,,,,,,,,,,,,,,,,0,0,,,,,,,
799,0,,,,,,,,,,,,,,,,,0,0,,,,,,,
801,0,,,,,,,,,,,,,,,,,0,0,,,,,,,
803,0,0.32,1.0,1.11,0.59,4.93,0.13,0.36,2.47,,0.07,-0.01,0.98,0,-3,0,0.07,0,0,0.0,0.0,0.0,0.0,0,0,0.0
805,0,,,,,,,,,,,,,,,,,0,0,,,,,,,
807,0,,,,,,,,,,,,,,,,,0,0,,,,,,,
809,0,,,,,,,,,,,,,,,,,0,0,,,,,,,
811,0,,,,,,,,,,,,,,,,,0,0,,,,,,,
813,0,0.28,0.98,1.09,0.6,4.88,0.09,0.36,2.43,,-0.02,0.03,1.04,0,2,-0,0.04,0,0,,,,,,,
815,0,,,,,,,,,,,,,,,,,0,0,,,,,,,
817,0,,,,,,,,,,,,,,,,,0,0,,,,,,,
819,0,,,,,,,,,,,,,,,,,0,0,,,,,,,
821,0,,,,,,,,,,,,,,,,,0,0,,,,,,,
823,0,0.31,1.01,1.1,0.63,4.9,0.11,0.36,2.45,,-0.01,0.02,0.96,0,0,-1,0.02,0,0,,,,,,,
825,0,,,,,,,,,,,,,,,,,0,0,,,,,,,
827,0,,,,,,,,,,,,,,,,,0,0,,,,,,,
829,0,,,,,,,,,,,,,,,,,0,0,,,,,,,
831,0,,,,,,,,,,,,,,,,,0,0,,,,,,,
833,0,0.32,1.01,1.11,0.62,4.93,0.14,0.38,2.47,,0.03,0.02,0.97,0,1,-1,0.04,0,0,,,,,,,
835,0,,,,,,,,,,,,,,,,,0,0,,,,,,,
837,0,,,,,,,,,,,,,,,,,0,0,,,,,,,
839,0,,,,,,,,,,,,,,,,,0,0,,,,,,,
841,0,,,,,,,,,,,,,,,,,0,0,,,,,,,
843,0,0.3,1.02,1.12,0.6,4.93,0.15,0.42,2.48,,0.02,0.06,1.06,0,1,-1,0.06,0,0,0.0,0.0,0.0,0.0,0,0,0.0
845,0,,,,,,,,,,,,,,,,,0,0,,,,,,,
847,0,,,,,,,,,,,,,,,,,0,0,,,,,,,
849,0,,,,,,,,,,,,,,,,,0,0,,,,,,,
851,0,,,,,,,,,,,,,,,,,0,0,,,,,,,
853,0,0.31,1.02,1.13,0.64,4.94,0.14,0.39,2.48,,-0.01,0.03,0.93,0,0,0,0.03,0,0,,,,,,,
855,0,,,,,,,,,,,,,,,,,0,0,,,,,,,
857,0,,,,,,,,,,,,,,,,,0,0,,,,,,,
859,0,,,,,,,,,,,,,,,,,0,0,,,,,,,
861,0,,,,,,,,,,,,,,,,,0,0,,,,,,,
863,0,0.31,1.0,1.1,0.61,4.89,0.08,0.32,2.44,,0.02,0.03,1.01,0,-3,-0,0.03,0,0,,,,,,,
865,0,,,,,,,,,,,,,,,,,0,0,,,,,,,
867,0,,,,,,,,,,,,,,,,,0,0,,,,,,,
869,0,,,,,,,,,,,,,,,,,0,0,,,,,,,
871,0,,,,,,,,,,,,,,,,,0,0,,,,,,,
873,0,0.28,0.99,1.09,0.68,4.9,0.08,0.37,2.45,,0.03,0.02,1.03,0,4,-1,0.03,0,0,,,,,,,
875,0,,,,,,,,,,,,,,,,,0,0,,,,,,,
877,0,,,,,,,,,,,,,,,,,0,0,,,,,,,
879,0,,,,,,,,,,,,,,,,,0,0,,,,,,,
881,0,,,,,,,,,,,,,,,,,0,0,,,,,,,
883,0,0.31,1.03,1.12,0.63,4.93,0.15,0.4,2.47,,-0.01,0.03,0.99,0,-2,-0,0.03,0,0,0.0,0.0,0.0,0.0,0,0,0.0
885,0,,,,,,,,,,,,,,,,,0,0,,,,,,,
887,0,,,,,,,,,,,,,,,,,0,0,,,,,,,
889,0,,,,,,,,,,,,,,,,,0,0,,,,,,,
891,0,,,,,,,,,,,,,,,,,0,0,,,,,,,
893,0,0.32,1.01,1.11,0.6,4.94,0.17,0.37,2.48,,0.03,0.05,0.98,0,-1,-0,0.05,0,0,,,,,,,
895,0,,,,,,,,,,,,,,,,,0,0,,,,,,,
897,0,,,,,,,,,,,,,,,,,0,0,,,,,,,
899,0,,,,,,,,,,,,,,,,,0,0,,,,,,,
901,0,,,,,,,,,,,,,,,,,0,0,,,,,,,
903,0,0.27,0.98,1.08,0.58,4.87,0.1,0.36,2.44,,0.04,0.04,1.07,0,-0,0,0.06,0,0,,,,,,,
905,0,,,,,,,,,,,,,,,,,0,0,,,,,,,
907,0,,,,,,,,,,,,,,,,,0,0,,,,,,,
909,0,,,,,,,,,,,,,,,,,0,0,,,,,,,
911,0,,,,,,,,,,,,,,,,,0,0,,,,,,,
913,0,0.29,1.02,1.11,0.6,4.9,0.19,0.37,2.47,,-0.02,0.03,0.92,0,-2,0,0.03,0,0,,,,,,,
915,0,,,,,,,,,,,,,,,,,0,0,,,,,,,
917,0,,,,,,,,,,,,,,,,,0,0,,,,,,,
919,0,,,,,,,,,,,,,,,,,0,0,,,,,,,
921,0,,,,,,,,,,,,,,,,,0,0,,,,,,,
923,0,0.32,1.0,1.08,0.65,4.88,0.12,0.34,2.44,,-0.01,0.03,1.04,0,-0,0,0.03,0,0,0.0,0.0,0.0,0.0,0,0,0.0
925,0,,,,,,,,,,,,,,,,,0,0,,,,,,,
927,0,,,,,,,,,,,,,,,,,0,0,,,,,,,
929,0,,,,,,,,,,,,,,,,,0,0,,,,,,,
931,0,,,,,,,,,,,,,,,,,0,0,,,,,,,
933,0,0.31,1.01,1.12,0.66,4.93,0.12,0.37,2.47,,0.08,0.02,0.99,0,2,0,0.08,0,0,,,,,,,
935,0,,,,,,,,,,,,,,,,,0,0,,,,,,,
937,0,,,,,,,,,,,,,,,,,0,0,,,,,,,
939,0,,,,,,,,,,,,,,,,,0,0,,,,,,,
941,0,,,,,,,,,,,,,,,,,0,0,,,,,,,
943,0,0.3,1.03,1.12,0.63,4.94,0.15,0.39,2.48,,-0.03,0.05,1.03,0,-3,0,0.06,0,0,,,,,,,
945,0,,,,,,,,,,,,,,,,,0,0,,,,,,,
947,0,,,,,,,,,,,,,,,,,0,0,,,,,,,
949,0,,,,,,,,,,,,,,,,,0,0,,,,,,,
951,0,,,,,,,,,,,,,,,,,0,0,,,,,,,
953,0,0.31,0.99,1.08,0.58,4.88,0.13,0.34,2.44,,0.02,0.04,0.97,0,-1,1,0.05,0,0,,,,,,,
955,0,,,,,,,,,,,,,,,,,0,0,,,,,,,
957,0,,,,,,,,,,,,,,,,,0,0,,,,,,,
959,0,,,,,,,,,,,,,,,,,0,0,,,,,,,
961,0,,,,,,,,,,,,,,,,,0,0,,,,,,,
963,0,0.29,1.0,1.11,0.66,4.9,0.11,0.33,2.45,,0.03,0.02,1.0,0,1,1,0.03,0,0,0.0,0.0,0.0,0.0,0,0,0.0
965,0,,,,,,,,,,,,,,,,,0,0,,,,,,,
967,0,,,,,,,,,,,,,,,,,0,0,,,,,,,
969,0,,,,,,,,,,,,,,,,,0,0,,,,,,,
971,0,,,,,,,,,,,,,,,,,0,0,,,,,,,
973,0,0.29,1.03,1.13,0.62,4.93,0.2,0.37,2.48,,-0.02,0.03,0.99,0,-1,-1,0.04,0,0,,,,,,,
975,0,,,,,,,,,,,,,,,,,0,0,,,,,,,
977,0,,,,,,,,,,,,,,,,,0,0,,,,,,,
979,0,,,,,,,,,,,,,,,,,0,0,,,,,,,
981,0,,,,,,,,,,,,,,,,,0,0,,,,,,,
983,0,0.32,1.03,1.11,0.65,4.93,0.14,0.38,2.47,,-0.0,0.04,0.99,0,3,-0,0.04,0,0,,,,,,,
985,0,,,,,,,,,,,,,,,,,0,0,,,,,,,
987,0,,,,,,,,,,,,,,,,,0,0,,,,,,,
989,0,,,,,,,,,,,,,,,,,0,0,,,,,,,
991,0,,,,,,,,,,,,,,,,,0,0,,,,,,,
993,0,0.29,0.99,1.1,0.58,4.9,0.1,0.34,2.43,,0.07,0.01,0.97,0,-1,0,0.07,0,0,,,,,,,
995,0,,,,,,,,,,,,,,,,,0,0,,,,,,,
997,0,,,,,,,,,,,,,,,,,0,0,,,,,,,
999,0,,,,,,,,,,,,,,,,,0,0,,,,,,,
1001,0,,,,,,,,,,,,,,,,,0,0,,,,,,,
1003,0,0.28,1.01,1.1,0.64,4.91,0.12,0.38,2.45,,-0.04,0.03,1.05,0,1,0,0.05,0,0,0.0,0.0,0.0,0.0,0,0,0.0
1103,0,0.3,1.03,1.11,0.61,4.91,0.21,0.36,2.47,,-0.02,0.03,0.91,0,-1,1,0.04,0,0,,,,,,,
1105,0,,,,,,,,,,,,,,,,,0,0,,,,,,,
1107,0,,,,,,,,,,,,,,,,,0,0,,,,,,,
1109,0,,,,,,,,,,,,,,,,,0,0,,,,,,,
1111,0,,,,,,,,,,,,,,,,,0,0,,,,,,,
1113,0,0.34,1.03,1.12,0.68,4.93,0.13,0.35,2.47,,-0.0,0.03,1.04,0,-2,-0,0.03,0,0,,,,,,,
1115,0,,,,,,,,,,,,,,,,,0,0,,,,,,,
1117,0,,,,,,,,,,,,,,,,,0,0,,,,,,,
1119,0,,,,,,,,,,,,,,,,,0,0,,,,,,,
1121,0,,,,,,,,,,,,,,,,,0,0,,,,,,,
1123,0,0.31,1.02,1.12,0.69,4.94,0.11,0.38,2.48,,0.08,0.03,1.0,0,3,-0,0.08,0,0,0.0,0.0,0.0,0.0,0,0,0.0
1125,0,,,,,,,,,,,,,,,,,0,0,,,,,,,
1127,0,,,,,,,,,,,,,,,,,0,0,,,,,,,
1129,0,,,,,,,,,,,,,,,,,0,0,,,,,,,
1131,0,,,,,,,,,,,,,,,,,0,0,,,,,,,
1133,0,0.31,1.04,1.11,0.62,4.93,0.19,0.39,2.48,,-0.02,0.04,1.03,0,-3,0,0.05,0,0,,,,,,,
1135,0,,,,,,,,,,,,,,,,,0,0,,,,,,,
1137,0,,,,,,,,,,,,,,,,,0,0,,,,,,,
1139,0,,,,,,,,,,,,,,,,,0,0,,,,,,,
1141,0,,,,,,,,,,,,,,,,,0,0,,,,,,,
1143,0,0.33,1.02,1.11,0.6,4.94,0.21,0.35,2.48,,0.03,0.05,0.97,0,-2,1,0.06,0,0,,,,,,,
1145,0,,,,,,,,,,,,,,,,,0,0,,,,,,,
1147,0,,,,,,,,,,,,,,,,,0,0,,,,,,,
1149,0,,,,,,,,,,,,,,,,,0,0,,,,,,,
1151,0,,,,,,,,,,,,,,,,,0,0,,,,,,,
1153,0,0.28,0.98,1.08,0.64,4.87,0.14,0.32,2.43,,0.04,0.03,1.03,0,1,1,0.05,0,0,,,,,,,
1155,0,,,,,,,,,,,,,,,,,0,0,,,,,,,
1157,0,,,,,,,,,,,,,,,,,0,0,,,,,,,
1159,0,,,,,,,,,,,,,,,,,0,0,,,,,,,
1161,0,,,,,,,,,,,,,,,,,0,0,,,,,,,
1163,0,0.3,1.03,1.11,0.61,4.91,0.25,0.36,2.46,,-0.01,0.03,0.96,0,-2,-0,0.03,0,0,0.0,0.0,0.0,0.0,0,0,0.0
1165,0,,,,,,,,,,,,,,,,,0,0,,,,,,,
1167,0,,,,,,,,,,,,,,,,,0,0,,,,,,,
1169,0,,,,,,,,,,,,,,,,,0,0,,,,,,,
1171,0,,,,,,,,,,,,,,,,,0,0,,,,,,,
1173,0,0.31,1.01,1.1,0.65,4.91,0.16,0.37,2.44,,0.0,0.03,1.02,0,2,0,0.03,0,0,,,,,,,
1175,0,,,,,,,,,,,,,,,,,0,0,,,,,,,
1177,0,,,,,,,,,,,,,,,,,0,0,,,,,,,
1179,0,,,,,,,,,,,,,,,,,0,0,,,,,,,
1181,0,,,,,,,,,,,,,,,,,0,0,,,,,,,
1183,0,0.32,1.02,1.11,0.65,4.94,0.15,0.38,2.47,,0.09,0.01,0.96,0,0,1,0.09,0,0,,,,,,,
1185,0,,,,,,,,,,,,,,,,,0,0,,,,,,,
1187,0,,,,,,,,,,,,,,,,,0,0,,,,,,,
1189,0,,,,,,,,,,,,,,,,,0,0,,,,,,,
1191,0,,,,,,,,,,,,,,,,,0,0,,,,,,,
1193,0,0.3,1.03,1.12,0.65,4.92,0.17,0.4,2.47,,-0.02,0.03,1.04,0,-1,0,0.04,0,0,,,,,,,
1195,0,,,,,,,,,,,,,,,,,0,0,,,,,,,
1197,0,,,,,,,,,,,,,,,,,0,0,,,,,,,
1199,0,,,,,,,,,,,,,,,,,0,0,,,,,,,
1201,0,,,,,,,,,,,,,,,,,0,0,,,,,,,
1203,0,0.3,1.0,1.06,0.6,4.88,0.14,0.33,2.44,,0.01,0.01,0.97,0,-0,0,0.02,0,0,0.0,0.0,0.0,0.0,0,0,0.0
1205,0,,,,,,,,,,,,,,,,,0,0,,,,,,,
1207,0,,,,,,,,,,,,,,,,,0,0,,,,,,,
1209,0,,,,,,,,,,,,,,,,,0,0,,,,,,,
1211,0,,,,,,,,,,,,,,,,,0,0,,,,,,,
1213,0,0.32,1.02,1.11,0.65,4.93,0.15,0.36,2.48,,0.03,-0.0,0.97,0,1,0,0.03,0,0,,,,,,,
1215,0,,,,,,,,,,,,,,,,,0,0,,,,,,,
1217,0,,,,,,,,,,,,,,,,,0,0,,,,,,,
1219,0,,,,,,,,,,,,,,,,,0,0,,,,,,,
1221,0,,,,,,,,,,,,,,,,,0,0,,,,,,,
1223,0,0.29,1.02,1.11,0.61,4.91,0.21,0.38,2.46,,0.01,0.04,1.04,0,-0,-1,0.04,0,0,,,,,,,
1225,0,,,,,,,,,,,,,,,,,0,0,,,,,,,
1227,0,,,,,,,,,,,,,,,,,0,0,,,,,,,
1229,0,,,,,,,,,,,,,,,,,0,0,,,,,,,
1231,0,,,,,,,,,,,,,,,,,0,0,,,,,,,
1233,0,0.32,1.04,1.11,0.65,4.94,0.18,0.4,2.49,,-0.0,0.03,0.95,0,2,-0,0.03,0,0,,,,,,,
1235,0,,,,,,,,,,,,,,,,,0,0,,,,,,,
1237,0,,,,,,,,,,,,,,,,,0,0,,,,,,,
1239,0,,,,,,,,,,,,,,,,,0,0,,,,,,,
1241,0,,,,,,,,,,,,,,,,,0,0,,,,,,,
1243,0,0.33,1.02,1.11,0.61,4.93,0.17,0.35,2.47,,0.05,-0.01,0.99,0,-3,0,0.05,0,0,0.0,0.0,0.0,0.0,0,0,0.0
1245,0,,,,,,,,,,,,,,,,,0,0,,,,,,,
1247,0,,,,,,,,,,,,,,,,,0,0,,,,,,,
1249,0,,,,,,,,,,,,,,,,,0,0,,,,,,,
1251,0,,,,,,,,,,,,,,,,,0,0,,,,,,,
1253,0,0.31,1.03,1.13,0.66,4.92,0.16,0.41,2.48,,-0.02,0.03,1.03,0,2,-0,0.03,0,0,,,,,,,
1255,0,,,,,,,,,,,,,,,,,0,0,,,,,,,
1257,0,,,,,,,,,,,,,,,,,0,0,,,,,,,
1259,0,,,,,,,,,,,,,,,,,0,0,,,,,,,
1261,0,,,,,,,,,,,,,,,,,0,0,,,,,,,
1263,0,0.32,1.04,1.12,0.65,4.94,0.17,0.39,2.48,,-0.02,0.03,0.96,0,-0,-1,0.03,0,0,,,,,,,
1265,0,,,,,,,,,,,,,,,,,0,0,,,,,,,
1267,0,,,,,,,,,,,,,,,,,0,0,,,,,,,
1269,0,,,,,,,,,,,,,,,,,0,0,,,,,,,
1271,0,,,,,,,,,,,,,,,,,0,0,,,,,,,
1273,0,0.32,1.02,1.11,0.62,4.93,0.21,0.38,2.48,,0.02,0.03,0.97,-0,1,-1,0.04,0,0,,,,,,,
1275,0,,,,,,,,,,,,,,,,,0,0,,,,,,,
1277,0,,,,,,,,,,,,,,,,,0,0,,,,,,,
1279,0,,,,,,,,,,,,,,,,,0,0,,,,,,,
1281,0,,,,,,,,,,,,,,,,,0,0,,,,,,,
1283,0,0.28,0.99,1.1,0.6,4.9,0.18,0.39,2.45,,0.02,0.05,1.07,0,0,-0,0.06,0,0,0.0,0.0,0.0,0.0,0,0,0.0
1285,0,,,,,,,,,,,,,,,,,0,0,,,,,,,
1287,0,,,,,,,,,,,,,,,,,0,0,,,,,,,
1289,0,,,,,,,,,,,,,,,,,0,0,,,,,,,
1291,0,,,,,,,,,,,,,,,,,0,0,,,,,,,
1293,0,0.28,1.01,1.08,0.62,4.9,0.18,0.36,2.45,,-0.03,0.04,0.92,0,-1,1,0.05,0,0,,,,,,,
1295,0,,,,,,,,,,,,,,,,,0,0,,,,,,,
1297,0,,,,,,,,,,,,,,,,,0,0,,,,,,,
1299,0,,,,,,,,,,,,,,,,,0,0,,,,,,,
1301,0,,,,,,,,,,,,,,,,,0,0,,,,,,,
1303,0,0.34,1.03,1.11,0.66,4.93,0.14,0.34,2.48,,-0.01,0.05,1.03,0,-3,-0,0.05,0,0,,,,,,,
1305,0,,,,,,,,,,,,,,,,,0,0,,,,,,,
1307,0,,,,,,,,,,,,,,,,,0,0,,,,,,,
1309,0,,,,,,,,,,,,,,,,,0,0,,,,,,,
1311,0,,,,,,,,,,,,,,,,,0,0,,,,,,,
1313,0,0.3,1.02,1.11,0.7,4.92,0.13,0.38,2.47,,0.03,0.04,1.01,0,3,-0,0.05,0,0,,,,,,,
1315,0,,,,,,,,,,,,,,,,,0,0,,,,,,,
1317,0,,,,,,,,,,,,,,,,,0,0,,,,,,,
1319,0,,,,,,,,,,,,,,,,,0,0,,,,,,,
1321,0,,,,,,,,,,,,,,,,,0,0,,,,,,,
1323,0,0.28,1.03,1.12,0.61,4.95,0.21,0.34,2.46,,-0.04,0.05,1.01,0,-2,0,0.06,0,0,0.0,0.0,0.0,0.0,0,0,0.0
1325,0,,,,,,,,,,,,,,,,,0,0,,,,,,,
1327,0,,,,,,,,,,,,,,,,,0,0,,,,,,,
1329,0,,,,,,,,,,,,,,,,,0,0,,,,,,,
1331,0,,,,,,,,,,,,,,,,,0,0,,,,,,,
1333,0,0.31,1.02,1.11,0.62,4.92,0.23,0.33,2.46,,0.01,0.06,0.99,0,-2,0,0.07,0,0,,,,,,,
1335,0,,,,,,,,,,,,,,,,,0,0,,,,,,,
1337,0,,,,,,,,,,,,,,,,,0,0,,,,,,,
1339,0,,,,,,,,,,,,,,,,,0,0,,,,,,,
1341,0,,,,,,,,,,,,,,,,,0,0,,,,,,,
1343,0,0.29,1.01,1.11,0.63,4.92,0.15,0.36,2.46,,0.02,0.04,1.04,0,0,1,0.05,0,0,,,,,,,
1345,0,,,,,,,,,,,,,,,,,0,0,,,,,,,
1347,0,,,,,,,,,,,,,,,,,0,0,,,,,,,
1349,0,,,,,,,,,,,,,,,,,0,0,,,,,,,
1351,0,,,,,,,,,,,,,,,,,0,0,,,,,,,
1353,0,0.29,1.03,1.11,0.63,4.92,0.22,0.36,2.47,,-0.03,0.03,0.95,0,-2,0,0.04,0,0,,,,,,,
1355,0,,,,,,,,,,,,,,,,,0,0,,,,,,,
1357,0,,,,,,,,,,,,,,,,,0,0,,,,,,,
1359,0,,,,,,,,,,,,,,,,,0,0,,,,,,,
1361,0,,,,,,,,,,,,,,,,,0,0,,,,,,,
1363,0,0.33,1.03,1.11,0.67,4.94,0.17,0.37,2.48,,-0.02,0.04,1.03,0,1,0,0.04,0,0,0.0,0.0,0.0,0.0,0,0,0.0
1365,0,,,,,,,,,,,,,,,,,0,0,,,,,,,
1367,0,,,,,,,,,,,,,,,,,0,0,,,,,,,
1369,0,,,,,,,,,,,,,,,,,0,0,,,,,,,
1371,0,,,,,,,,,,,,,,,,,0,0,,,,,,,
1373,0,0.29,0.99,1.08,0.62,4.88,0.13,0.34,2.43,,0.08,0.02,0.97,0,1,1,0.09,0,0,,,,,,,
1375,0,,,,,,,,,,,,,,,,,0,0,,,,,,,
1377,0,,,,,,,,,,,,,,,,,0,0,,,,,,,
1379,0,,,,,,,,,,,,,,,,,0,0,,,,,,,
1381,0,,,,,,,,,,,,,,,,,0,0,,,,,,,
1383,0,0.3,1.04,1.12,0.65,4.93,0.19,0.39,2.48,,-0.04,0.04,1.04,0,-2,-0,0.05,0,0,,,,,,,
1385,0,,,,,,,,,,,,,,,,,0,0,,,,,,,
1387,0,,,,,,,,,,,,,,,,,0,0,,,,,,,
1389,0,,,,,,,,,,,,,,,,,0,0,,,,,,,
1391,0,,,,,,,,,,,,,,,,,0,0,,,,,,,
1393,0,0.32,1.03,1.09,0.62,4.94,0.15,0.35,2.47,,0.01,0.02,0.95,0,-1,1,0.03,0,0,,,,,,,
1395,0,,,,,,,,,,,,,,,,,0,0,,,,,,,
1397,0,,,,,,,,,,,,,,,,,0,0,,,,,,,
1399,0,,,,,,,,,,,,,,,,,0,0,,,,,,,
1401,0,,,,,,,,,,,,,,,,,0,0,,,,,,,
1403,0,0.28,0.99,1.08,0.63,4.87,0.14,0.31,2.43,,0.03,0.01,0.98,0,1,0,0.03,0,0,0.0,0.0,0.0,0.0,0,0,0.0
1405,0,,,,,,,,,,,,,,,,,0,0,,,,,,,
1407,0,,,,,,,,,,,,,,,,,0,0,,,,,,,
1409,0,,,,,,,,,,,,,,,,,0,0,,,,,,,
1411,0,,,,,,,,,,,,,,,,,0,0,,,,,,,
1413,0,0.3,1.04,1.12,0.61,4.94,0.24,0.39,2.48,,0.01,0.04,1.03,0,-0,-1,0.04,0,0,,,,,,,
1415,0,,,,,,,,,,,,,,,,,0,0,,,,,,,
1417,0,,,,,,,,,,,,,,,,,0,0,,,,,,,
1419,0,,,,,,,,,,,,,,,,,0,0,,,,,,,
1421,0,,,,,,,,,,,,,,,,,0,0,,,,,,,
1423,0,0.31,1.04,1.1,0.65,4.91,0.17,0.38,2.46,,0.0,0.03,0.96,0,3,-0,0.03,0,0,,,,,,,
1425,0,,,,,,,,,,,,,,,,,0,0,,,,,,,
1427,0,,,,,,,,,,,,,,,,,0,0,,,,,,,
1429,0,,,,,,,,,,,,,,,,,0,0,,,,,,,
1431,0,,,,,,,,,,,,,,,,,0,0,,,,,,,
1433,0,0.31,1.01,1.1,0.58,4.92,0.17,0.35,2.47,,0.07,-0.0,0.98,0,-3,0,0.07,0,0,,,,,,,
1435,0,,,,,,,,,,,,,,,,,0,0,,,,,,,
1437,0,,,,,,,,,,,,,,,,,0,0,,,,,,,
1439,0,,,,,,,,,,,,,,,,,0,0,,,,,,,
1441,0,,,,,,,,,,,,,,,,,0,0,,,,,,,
1443,0,0.3,1.03,1.12,0.66,4.92,0.16,0.38,2.48,,0.0,0.02,1.05,0,2,0,0.02,0,0,0.0,0.0,0.0,0.0,0,0,0.0
1445,0,,,,,,,,,,,,,,,,,0,0,,,,,,,
1447,0,,,,,,,,,,,,,,,,,0,0,,,,,,,
1449,0,,,,,,,,,,,,,,,,,0,0,,,,,,,
1451,0,,,,,,,,,,,,,,,,,0,0,,,,,,,
1453,0,0.3,1.03,1.1,0.64,4.92,0.16,0.37,2.45,,-0.0,0.02,0.97,0,-0,-1,0.02,0,0,,,,,,,
1455,0,,,,,,,,,,,,,,,,,0,0,,,,,,,
1457,0,,,,,,,,,,,,,,,,,0,0,,,,,,,
1459,0,,,,,,,,,,,,,,,,,0,0,,,,,,,
1461,0,,,,,,,,,,,,,,,,,0,0,,,,,,,
1463,0,0.32,1.03,1.11,0.61,4.94,0.23,0.38,2.47,,0.05,0.03,0.97,0,0,-1,0.06,0,0,,,,,,,
1465,0,,,,,,,,,,,,,,,,,0,0,,,,,,,
1467,0,,,,,,,,,,,,,,,,,0,0,,,,,,,
1469,0,,,,,,,,,,,,,,,,,0,0,,,,,,,
1471,0,,,,,,,,,,,,,,,,,0,0,,,,,,,
1473,0,0.28,1.0,1.08,0.61,4.91,0.19,0.4,2.46,,0.04,0.05,1.08,0,0,-0,0.06,0,0,,,,,,,
1475,0,,,,,,,,,,,,,,,,,0,0,,,,,,,
1477,0,,,,,,,,,,,,,,,,,0,0,,,,,,,
1479,0,,,,,,,,,,,,,,,,,0,0,,,,,,,
1481,0,,,,,,,,,,,,,,,,,0,0,,,,,,,
1483,0,0.31,1.04,1.12,0.64,4.94,0.21,0.38,2.48,,-0.0,0.03,0.91,0,-0,1,0.03,0,0,0.0,0.0,0.0,0.0,0,0,0.0
1485,0,,,,,,,,,,,,,,,,,0,0,,,,,,,
1487,0,,,,,,,,,,,,,,,,,0,0,,,,,,,
1489,0,,,,,,,,,,,,,,,,,0,0,,,,,,,
1491,0,,,,,,,,,,,,,,,,,0,0,,,,,,,
1493,0,0.34,1.03,1.12,0.67,4.93,0.14,0.34,2.47,,0.01,0.03,1.04,0,-3,-0,0.03,0,0,,,,,,,
1495,0,,,,,,,,,,,,,,,,,0,0,,,,,,,
1497,0,,,,,,,,,,,,,,,,,0,0,,,,,,,
1499,0,,,,,,,,,,,,,,,,,0,0,,,,,,,
1501,0,,,,,,,,,,,,,,,,,0,0,,,,,,,
1503,0,0.31,1.02,1.12,0.71,4.93,0.13,0.37,2.47,,0.06,0.02,1.01,0,4,-0,0.06,0,0,,,,,,,
1505,0,,,,,,,,,,,,,,,,,0,0,,,,,,,
1507,0,,,,,,,,,,,,,,,,,0,0,,,,,,,
1509,0,,,,,,,,,,,,,,,,,0,0,,,,,,,
1511,0,,,,,,,,,,,,,,,,,0,0,,,,,,,
1513,0,0.29,1.01,1.08,0.62,4.88,0.19,0.35,2.45,,-0.02,0.04,1.02,0,-2,0,0.05,0,0,,,,,,,
1515,0,,,,,,,,,,,,,,,,,0,0,,,,,,,
1517,0,,,,,,,,,,,,,,,,,0,0,,,,,,,
1519,0,,,,,,,,,,,,,,,,,0,0,,,,,,,
1521,0,,,,,,,,,,,,,,,,,0,0,,,,,,,
1523,0,0.31,0.99,1.07,0.57,4.87,0.21,0.33,2.44,,0.03,0.06,0.98,0,-2,0,0.06,0,0,0.0,0.0,0.0,0.0,0,0,0.0
1525,0,,,,,,,,,,,,,,,,,0,0,,,,,,,
1527,0,,,,,,,,,,,,,,,,,0,0,,,,,,,
1529,0,,,,,,,,,,,,,,,,,0,0,,,,,,,
1531,0,,,,,,,,,,,,,,,,,0,0,,,,,,,
1533,0,0.27,0.98,1.08,0.61,4.87,0.14,0.35,2.43,,0.03,0.03,1.04,0,1,1,0.04,0,0,,,,,,,
1535,0,,,,,,,,,,,,,,,,,0,0,,,,,,,
1537,0,,,,,,,,,,,,,,,,,0,0,,,,,,,
1539,0,,,,,,,,,,,,,,,,,0,0,,,,,,,
1541,0,,,,,,,,,,,,,,,,,0,0,,,,,,,
1543,0,0.27,1.0,1.08,0.59,4.87,0.22,0.34,2.44,,-0.02,0.03,0.95,0,-2,-0,0.04,0,0,,,,,,,
1545,0,,,,,,,,,,,,,,,,,0,0,,,,,,,
1547,0,,,,,,,,,,,,,,,,,0,0,,,,,,,
1549,0,,,,,,,,,,,,,,,,,0,0,,,,,,,
1551,0,,,,,,,,,,,,,,,,,0,0,,,,,,,
1553,0,0.32,0.99,1.08,0.64,4.89,0.15,0.35,2.45,,-0.01,0.04,1.02,0,2,0,0.04,0,0,,,,,,,
1555,0,,,,,,,,,,,,,,,,,0,0,,,,,,,
1557,0,,,,,,,,,,,,,,,,,0,0,,,,,,,
1559,0,,,,,,,,,,,,,,,,,0,0,,,,,,,
1561,0,,,,,,,,,,,,,,,,,0,0,,,,,,,
1563,0,0.28,0.98,1.07,0.62,4.89,0.15,0.35,2.44,,0.07,0.02,0.97,0,1,1,0.07,0,0,0.0,0.0,0.0,0.0,0,0,0.0
1565,0,,,,,,,,,,,,,,,,,0,0,,,,,,,
1567,0,,,,,,,,,,,,,,,,,0,0,,,,,,,
1569,0,,,,,,,,,,,,,,,,,0,0,,,,,,,
1571,0,,,,,,,,,,,,,,,,,0,0,,,,,,,
1573,0,0.27,0.99,1.08,0.62,4.89,0.18,0.37,2.45,,-0.04,0.05,1.05,0,-1,0,0.06,0,0,,,,,,,
1575,0,,,,,,,,,,,,,,,,,0,0,,,,,,,
1577,0,,,,,,,,,,,,,,,,,0,0,,,,,,,
1579,0,,,,,,,,,,,,,,,,,0,0,,,,,,,
1581,0,,,,,,,,,,,,,,,,,0,0,,,,,,,
1583,0,0.31,1.01,1.07,0.61,4.88,0.14,0.34,2.45,,-0.01,0.03,0.96,0,-0,0,0.03,0,0,,,,,,,
1585,0,,,,,,,,,,,,,,,,,0,0,,,,,,,
1587,0,,,,,,,,,,,,,,,,,0,0,,,,,,,
1589,0,,,,,,,,,,,,,,,,,0,0,,,,,,,
1591,0,,,,,,,,,,,,,,,,,0,0,,,,,,,
1593,0,0.31,1.01,1.1,0.65,4.91,0.16,0.35,2.47,,0.01,0.01,0.97,0,2,0,0.01,0,0,,,,,,,
1595,0,,,,,,,,,,,,,,,,,0,0,,,,,,,
1597,0,,,,,,,,,,,,,,,,,0,0,,,,,,,
1599,0,,,,,,,,,,,,,,,,,0,0,,,,,,,
1601,0,,,,,,,,,,,,,,,,,0,0,,,,,,,
1603,0,0.29,1.01,1.1,0.6,4.91,0.23,0.37,2.46,,-0.01,0.05,1.04,0,-0,-1,0.05,0,0,0.0,0.0,0.0,0.0,0,0,0.0
1605,0,,,,,,,,,,,,,,,,,0,0,,,,,,,
1607,0,,,,,,,,,,,,,,,,,0,0,,,,,,,
1609,0,,,,,,,,,,,,,,,,,0,0,,,,,,,
1611,0,,,,,,,,,,,,,,,,,0,0,,,,,,,
1613,0,0.27,0.98,1.09,0.62,4.87,0.16,0.36,2.41,,-0.02,0.04,0.96,0,2,-0,0.04,0,0,,,,,,,
1615,0,,,,,,,,,,,,,,,,,0,0,,,,,,,
1617,0,,,,,,,,,,,,,,,,,0,0,,,,,,,
1619,0,,,,,,,,,,,,,,,,,0,0,,,,,,,
1621,0,,,,,,,,,,,,,,,,,0,0,,,,,,,
1623,0,0.33,1.01,1.1,0.59,4.93,0.18,0.35,2.48,,0.03,0.02,0.99,0,-3,0,0.04,0,0,,,,,,,
1625,0,,,,,,,,,,,,,,,,,0,0,,,,,,,
1627,0,,,,,,,,,,,,,,,,,0,0,,,,,,,
1629,0,,,,,,,,,,,,,,,,,0,0,,,,,,,
1631,0,,,,,,,,,,,,,,,,,0,0,,,,,,,
1633,0,0.3,1.02,1.12,0.66,4.94,0.16,0.4,2.48,,-0.03,0.03,1.04,0,3,-0,0.04,0,0,,,,,,,
1635,0,,,,,,,,,,,,,,,,,0,0,,,,,,,
1637,0,,,,,,,,,,,,,,,,,0,0,,,,,,,
1639,0,,,,,,,,,,,,,,,,,0,0,,,,,,,
1641,0,,,,,,,,,,,,,,,,,0,0,,,,,,,
1643,0,0.32,1.03,1.12,0.64,4.94,0.17,0.4,2.47,,-0.04,0.04,0.96,0,-1,-1,0.05,0,0,0.0,0.0,0.0,0.0,0,0,0.0
1645,0,,,,,,,,,,,,,,,,,0,0,,,,,,,
1647,0,,,,,,,,,,,,,,,,,0,0,,,,,,,
1649,0,,,,,,,,,,,,,,,,,0,0,,,,,,,
1651,0,,,,,,,,,,,,,,,,,0,0,,,,,,,
1653,0,0.3,0.99,1.08,0.59,4.9,0.19,0.34,2.43,,0.01,0.04,0.98,0,0,-1,0.04,0,0,,,,,,,
1655,0,,,,,,,,,,,,,,,,,0,0,,,,,,,
1657,0,,,,,,,,,,,,,,,,,0,0,,,,,,,
1659,0,,,,,,,,,,,,,,,,,0,0,,,,,,,
1661,0,,,,,,,,,,,,,,,,,0,0,,,,,,,
1663,0,0.28,1.0,1.1,0.6,4.92,0.17,0.38,2.44,,0.02,0.05,1.07,0,0,-0,0.05,0,0,,,,,,,
1665,0,,,,,,,,,,,,,,,,,0,0,,,,,,,
1667,0,,,,,,,,,,,,,,,,,0,0,,,,,,,
1669,0,,,,,,,,,,,,,,,,,0,0,,,,,,,
1671,0,,,,,,,,,,,,,,,,,0,0,,,,,,,
1673,0,0.28,1.01,1.08,0.59,4.87,0.21,0.33,2.43,,-0.04,0.03,0.92,0,-1,1,0.05,0,0,,,,,,,
1675,0,,,,,,,,,,,,,,,,,0,0,,,,,,,
1677,0,,,,,,,,,,,,,,,,,0,0,,,,,,,
1679,0,,,,,,,,,,,,,,,,,0,0,,,,,,,
1681,0,,,,,,,,,,,,,,,,,0,0,,,,,,,
1683,0,0.31,0.99,1.07,0.63,4.88,0.13,0.31,2.44,,-0.02,0.04,1.04,0,-2,-0,0.04,0,0,0.0,0.0,0.0,0.0,0,0,0.0
1685,0,,,,,,,,,,,,,,,,,0,0,,,,,,,
1687,0,,,,,,,,,,,,,,,,,0,0,,,,,,,
1689,0,,,,,,,,,,,,,,,,,0,0,,,,,,,
1691,0,,,,,,,,,,,,,,,,,0,0,,,,,,,
1693,0,0.3,1.0,1.1,0.69,4.93,0.13,0.38,2.47,,0.07,0.02,1.01,0,3,-0,0.07,0,0,,,,,,,
1695,0,,,,,,,,,,,,,,,,,0,0,,,,,,,
1697,0,,,,,,,,,,,,,,,,,0,0,,,,,,,
1699,0,,,,,,,,,,,,,,,,,0,0,,,,,,,
1701,0,,,,,,,,,,,,,,,,,0,0,,,,,,,
1703,0,0.31,1.03,1.11,0.62,4.94,0.24,0.39,2.48,,-0.03,0.06,1.03,0,-3,0,0.06,0,0,,,,,,,
1705,0,,,,,,,,,,,,,,,,,0,0,,,,,,,
1707,0,,,,,,,,,,,,,,,,,0,0,,,,,,,
1709,0,,,,,,,,,,,,,,,,,0,0,,,,,,,
1711,0,,,,,,,,,,,,,,,,,0,0,,,,,,,
1713,0,0.32,1.02,1.1,0.62,4.93,0.21,0.35,2.48,,0.03,0.06,0.97,0,-2,1,0.07,0,0,,,,,,,
1715,0,,,,,,,,,,,,,,,,,0,0,,,,,,,
1717,0,,,,,,,,,,,,,,,,,0,0,,,,,,,
1719,0,,,,,,,,,,,,,,,,,0,0,,,,,,,
1721,0,,,,,,,,,,,,,,,,,0,0,,,,,,,
1723,0,0.3,1.01,1.11,0.67,4.93,0.18,0.35,2.48,,0.03,0.03,1.02,0,0,1,0.04,0,0,0.0,0.0,0.0,0.0,0,0,0.0
1725,0,,,,,,,,,,,,,,,,,0,0,,,,,,,
1727,0,,,,,,,,,,,,,,,,,0,0,,,,,,,
1729,0,,,,,,,,,,,,,,,,,0,0,,,,,,,
1731,0,,,,,,,,,,,,,,,,,0,0,,,,,,,
1733,0,0.29,1.01,1.09,0.61,4.91,0.24,0.34,2.46,,-0.0,0.03,0.97,0,-2,-0,0.03,0,0,,,,,,,
1735,0,,,,,,,,,,,,,,,,,0,0,,,,,,,
1737,0,,,,,,,,,,,,,,,,,0,0,,,,,,,
1739,0,,,,,,,,,,,,,,,,,0,0,,,,,,,
1741,0,,,,,,,,,,,,,,,,,0,0,,,,,,,
1743,0,0.32,1.01,1.09,0.67,4.91,0.17,0.36,2.45,,0.01,0.03,1.01,0,2,0,0.03,0,0,,,,,,,
1745,0,,,,,,,,,,,,,,,,,0,0,,,,,,,
1747,0,,,,,,,,,,,,,,,,,0,0,,,,,,,
1749,0,,,,,,,,,,,,,,,,,0,0,,,,,,,
1751,0,,,,,,,,,,,,,,,,,0,0,,,,,,,
1753,0,0.31,1.02,1.11,0.63,4.92,0.17,0.36,2.46,,0.1,0.0,0.96,0,0,1,0.1,0,0,,,,,,,
1755,0,,,,,,,,,,,,,,,,,0,0,,,,,,,
1757,0,,,,,,,,,,,,,,,,,0,0,,,,,,,
1759,0,,,,,,,,,,,,,,,,,0,0,,,,,,,
1761,0,,,,,,,,,,,,,,,,,0,0,,,,,,,
1763,0,0.3,1.02,1.11,0.64,4.91,0.19,0.37,2.45,,-0.02,0.02,1.06,0,-1,-0,0.03,0,0,0.0,0.0,0.0,0.0,0,0,0.0
1765,0,,,,,,,,,,,,,,,,,0,0,,,,,,,
1767,0,,,,,,,,,,,,,,,,,0,0,,,,,,,
1769,0,,,,,,,,,,,,,,,,,0,0,,,,,,,
1771,0,,,,,,,,,,,,,,,,,0,0,,,,,,,
1773,0,0.32,1.03,1.09,0.64,4.92,0.15,0.34,2.46,,0.01,0.01,0.95,0,0,0,0.01,0,0,,,,,,,
1775,0,,,,,,,,,,,,,,,,,0,0,,,,,,,
1777,0,,,,,,,,,,,,,,,,,0,0,,,,,,,
1779,0,,,,,,,,,,,,,,,,,0,0,,,,,,,
1781,0,,,,,,,,,,,,,,,,,0,0,,,,,,,
1783,0,0.3,1.0,1.09,0.63,4.89,0.16,0.33,2.45,,0.04,0.0,0.97,0,1,0,0.04,0,0,,,,,,,
1785,0,,,,,,,,,,,,,,,,,0,0,,,,,,,
1787,0,,,,,,,,,,,,,,,,,0,0,,,,,,,
1789,0,,,,,,,,,,,,,,,,,0,0,,,,,,,
1791,0,,,,,,,,,,,,,,,,,0,0,,,,,,,
1793,0,0.31,1.03,1.12,0.61,4.93,0.23,0.4,2.47,,0.03,0.05,1.04,0,0,-1,0.06,0,0,,,,,,,
1795,0,,,,,,,,,,,,,,,,,0,0,,,,,,,
1797,0,,,,,,,,,,,,,,,,,0,0,,,,,,,
1799,0,,,,,,,,,,,,,,,,,0,0,,,,,,,
1801,0,,,,,,,,,,,,,,,,,0,0,,,,,,,
1803,0,0.3,1.0,1.07,0.61,4.88,0.17,0.36,2.43,,0.01,0.03,0.95,0,2,-0,0.03,0,0,0.0,0.0,0.0,0.0,0,0,0.0
1805,0,,,,,,,,,,,,,,,,,0,0,,,,,,,
1807,0,,,,,,,,,,,,,,,,,0,0,,,,,,,
1809,0,,,,,,,,,,,,,,,,,0,0,,,,,,,
1811,0,,,,,,,,,,,,,,,,,0,0,,,,,,,
1813,0,0.33,1.02,1.11,0.6,4.93,0.16,0.35,2.47,,0.05,0.01,1.0,-0,-3,0,0.05,0,0,,,,,,,
1815,0,,,,,,,,,,,,,,,,,0,0,,,,,,,
1817,0,,,,,,,,,,,,,,,,,0,0,,,,,,,
1819,0,,,,,,,,,,,,,,,,,0,0,,,,,,,
1821,0,,,,,,,,,,,,,,,,,0,0,,,,,,,
1823,0,0.31,1.02,1.12,0.68,4.93,0.17,0.39,2.48,,0.02,0.02,1.04,0,3,-0,0.02,0,0,,,,,,,
1825,0,,,,,,,,,,,,,,,,,0,0,,,,,,,
1827,0,,,,,,,,,,,,,,,,,0,0,,,,,,,
1829,0,,,,,,,,,,,,,,,,,0,0,,,,,,,
1831,0,,,,,,,,,,,,,,,,,0,0,,,,,,,
1833,0,0.3,1.01,1.1,0.62,4.91,0.17,0.38,2.46,,-0.0,0.02,0.97,0,-1,-1,0.02,0,0,,,,,,,
1835,0,,,,,,,,,,,,,,,,,0,0,,,,,,,
1837,0,,,,,,,,,,,,,,,,,0,0,,,,,,,
1839,0,,,,,,,,,,,,,,,,,0,0,,,,,,,
1841,0,,,,,,,,,,,,,,,,,0,0,,,,,,,
1843,0,0.33,1.02,1.1,0.61,4.91,0.22,0.37,2.46,,0.03,0.03,0.97,-0,-0,-1,0.05,0,0,0.0,0.0,0.0,0.0,0,0,0.0
1845,0,,,,,,,,,,,,,,,,,0,0,,,,,,,
1847,0,,,,,,,,,,,,,,,,,0,0,,,,,,,
1849,0,,,,,,,,,,,,,,,,,0,0,,,,,,,
1851,0,,,,,,,,,,,,,,,,,0,0,,,,,,,
1853,0,0.3,1.01,1.11,0.63,4.94,0.17,0.4,2.48,,0.04,0.04,1.06,0,0,-0,0.06,0,0,,,,,,,
1855,0,,,,,,,,,,,,,,,,,0,0,,,,,,,
1857,0,,,,,,,,,,,,,,,,,0,0,,,,,,,
1859,0,,,,,,,,,,,,,,,,,0,0,,,,,,,
1861,0,,,,,,,,,,,,,,,,,0,0,,,,,,,
1863,0,0.31,1.04,1.1,0.62,4.92,0.25,0.37,2.47,,-0.02,0.04,0.91,0,-1,1,0.04,0,0,,,,,,,
1865,0,,,,,,,,,,,,,,,,,0,0,,,,,,,
1867,0,,,,,,,,,,,,,,,,,0,0,,,,,,,
1869,0,,,,,,,,,,,,,,,,,0,0,,,,,,,
1871,0,,,,,,,,,,,,,,,,,0,0,,,,,,,
1873,0,0.33,1.02,1.1,0.65,4.9,0.14,0.33,2.46,,-0.01,0.04,1.04,-0,-2,-0,0.04,0,0,,,,,,,
1875,0,,,,,,,,,,,,,,,,,0,0,,,,,,,
1877,0,,,,,,,,,,,,,,,,,0,0,,,,,,,
1879,0,,,,,,,,,,,,,,,,,0,0,,,,,,,
1881,0,,,,,,,,,,,,,,,,,0,0,,,,,,,
1883,0,0.31,1.02,1.11,0.7,4.93,0.14,0.37,2.47,,0.05,0.05,0.99,0,3,-0,0.07,0,0,0.0,0.0,0.0,0.0,0,0,0.0
1885,0,,,,,,,,,,,,,,,,,0,0,,,,,,,
1887,0,,,,,,,,,,,,,,,,,0,0,,,,,,,
1889,0,,,,,,,,,,,,,,,,,0,0,,,,,,,
1891,0,,,,,,,,,,,,,,,,,0,0,,,,,,,
1893,0,0.29,1.0,1.08,0.6,4.88,0.21,0.35,2.44,,-0.04,0.07,1.02,0,-3,0,0.08,0,0,,,,,,,
1895,0,,,,,,,,,,,,,,,,,0,0,,,,,,,
1897,0,,,,,,,,,,,,,,,,,0,0,,,,,,,
1899,0,,,,,,,,,,,,,,,,,0,0,,,,,,,
1901,0,,,,,,,,,,,,,,,,,0,0,,,,,,,
1903,0,0.33,1.03,1.11,0.63,4.93,0.21,0.35,2.48,,0.02,0.09,1.0,0,-2,1,0.09,0,0,,,,,,,
1905,0,,,,,,,,,,,,,,,,,0,0,,,,,,,
1907,0,,,,,,,,,,,,,,,,,0,0,,,,,,,
1909,0,,,,,,,,,,,,,,,,,0,0,,,,,,,
1911,0,,,,,,,,,,,,,,,,,0,0,,,,,,,
1913,0,0.29,1.0,1.09,0.64,4.88,0.17,0.34,2.45,,0.01,0.06,1.04,0,1,1,0.06,0,0,,,,,,,
1915,0,,,,,,,,,,,,,,,,,0,0,,,,,,,
1917,0,,,,,,,,,,,,,,,,,0,0,,,,,,,
1919,0,,,,,,,,,,,,,,,,,0,0,,,,,,,
1921,0,,,,,,,,,,,,,,,,,0,0,,,,,,,
1923,0,0.3,1.03,1.11,0.63,4.93,0.24,0.37,2.48,,-0.03,0.05,0.97,0,-2,-0,0.06,0,0,0.0,0.0,0.0,0.0,0,0,0.0
1925,0,,,,,,,,,,,,,,,,,0,0,,,,,,,
1927,0,,,,,,,,,,,,,,,,,0,0,,,,,,,
1929,0,,,,,,,,,,,,,,,,,0,0,,,,,,,
1931,0,,,,,,,,,,,,,,,,,0,0,,,,,,,
1933,0,0.35,1.04,1.12,0.68,4.94,0.17,0.38,2.48,,-0.01,0.06,1.02,0,2,0,0.06,0,0,,,,,,,
1935,0,,,,,,,,,,,,,,,,,0,0,,,,,,,
1937,0,,,,,,,,,,,,,,,,,0,0,,,,,,,
1939,0,,,,,,,,,,,,,,,,,0,0,,,,,,,
1941,0,,,,,,,,,,,,,,,,,0,0,,,,,,,
1943,0,0.3,0.99,1.08,0.62,4.9,0.17,0.35,2.45,,0.07,0.03,0.98,0,0,1,0.08,0,0,,,,,,,
1945,0,,,,,,,,,,,,,,,,,0,0,,,,,,,
1947,0,,,,,,,,,,,,,,,,,0,0,,,,,,,
1949,0,,,,,,,,,,,,,,,,,0,0,,,,,,,
1951,0,,,,,,,,,,,,,,,,,0,0,,,,,,,
1953,0,0.3,1.03,1.1,0.64,4.92,0.19,0.38,2.46,,-0.05,0.05,1.05,0,-1,0,0.07,0,0,,,,,,,
1955,0,,,,,,,,,,,,,,,,,0,0,,,,,,,
1957,0,,,,,,,,,,,,,,,,,0,0,,,,,,,
1959,0,,,,,,,,,,,,,,,,,0,0,,,,,,,
1961,0,,,,,,,,,,,,,,,,,0,0,,,,,,,
1963,0,0.33,1.04,1.1,0.64,4.93,0.16,0.35,2.47,,-0.01,0.04,0.95,0,0,0,0.04,0,0,0.0,0.0,0.0,0.0,0,0,0.0
1965,0,,,,,,,,,,,,,,,,,0,0,,,,,,,
1967,0,,,,,,,,,,,,,,,,,0,0,,,,,,,
1969,0,,,,,,,,,,,,,,,,,0,0,,,,,,,
1971,0,,,,,,,,,,,,,,,,,0,0,,,,,,,
1973,0,0.29,0.99,1.08,0.63,4.9,0.16,0.34,2.46,,0.01,0.01,0.98,0,2,-0,0.02,0,0,,,,,,,
1975,0,,,,,,,,,,,,,,,,,0,0,,,,,,,
1977,0,,,,,,,,,,,,,,,,,0,0,,,,,,,
1979,0,,,,,,,,,,,,,,,,,0,0,,,,,,,
1981,0,,,,,,,,,,,,,,,,,0,0,,,,,,,
1983,0,0.29,1.02,1.11,0.61,4.93,0.22,0.4,2.46,,-0.01,0.05,1.03,0,1,-1,0.05,0,0,,,,,,,
1985,0,,,,,,,,,,,,,,,,,0,0,,,,,,,
1987,0,,,,,,,,,,,,,,,,,0,0,,,,,,,
1989,0,,,,,,,,,,,,,,,,,0,0,,,,,,,
1991,0,,,,,,,,,,,,,,,,,0,0,,,,,,,
1993,0,0.32,1.04,1.11,0.65,4.94,0.2,0.4,2.47,,-0.02,0.03,0.96,0,2,-0,0.03,0,0,,,,,,,
1995,0,,,,,,,,,,,,,,,,,0,0,,,,,,,
1997,0,,,,,,,,,,,,,,,,,0,0,,,,,,,
1999,0,,,,,,,,,,,,,,,,,0,0,,,,,,,
2001,0,,,,,,,,,,,,,,,,,0,0,,,,,,,
2003,0,0.33,1.02,1.11,0.58,4.93,0.18,0.35,2.48,,0.05,-0.0,0.98,0,-3,0,0.05,0,0,0.0,0.0,0.0,0.0,0,0,0.0
2005,0,,,,,,,,,,,,,,,,,0,0,,,,,,,
2007,0,,,,,,,,,,,,,,,,,0,0,,,,,,,
2009,0,,,,,,,,,,,,,,,,,0,0,,,,,,,
2011,0,,,,,,,,,,,,,,,,,0,0,,,,,,,
2013,0,0.31,1.02,1.12,0.66,4.93,0.17,0.4,2.48,,-0.03,0.02,1.05,0,3,-0,0.04,0,0,,,,,,,
2015,0,,,,,,,,,,,,,,,,,0,0,,,,,,,
2017,0,,,,,,,,,,,,,,,,,0,0,,,,,,,
2019,0,,,,,,,,,,,,,,,,,0,0,,,,,,,
2021,0,,,,,,,,,,,,,,,,,0,0,,,,,,,
2023,0,0.32,1.05,1.13,0.65,4.94,0.19,0.4,2.48,,-0.02,0.02,0.96,0,-0,-1,0.02,0,0,,,,,,,
2025,0,,,,,,,,,,,,,,,,,0,0,,,,,,,
2027,0,,,,,,,,,,,,,,,,,0,0,,,,,,,
2029,0,,,,,,,,,,,,,,,,,0,0,,,,,,,
2031,0,,,,,,,,,,,,,,,,,0,0,,,,,,,
2033,0,0.33,1.02,1.11,0.61,4.93,0.22,0.39,2.47,,0.02,0.03,0.98,0,0,-1,0.04,0,0,,,,,,,
2035,0,,,,,,,,,,,,,,,,,0,0,,,,,,,
2037,0,,,,,,,,,,,,,,,,,0,0,,,,,,,
2039,0,,,,,,,,,,,,,,,,,0,0,,,,,,,
2041,0,,,,,,,,,,,,,,,,,0,0,,,,,,,
2043,0,0.28,1.0,1.09,0.61,4.91,0.16,0.4,2.45,13.48,0.02,0.05,1.07,0,0,-0,0.05,0,0,0.0,0.0,0.0,0.0,0,0,0.0
2045,0,,,,,,,,,,,,,,,,,0,0,,,,,,,
2047,0,,,,,,,,,,,,,,,,,0,0,,,,,,,
2049,0,,,,,,,,,,,,,,,,,0,0,,,,,,,
2051,0,,,,,,,,,,,,,,,,,0,0,,,,,,,
2053,0,0.3,1.02,1.1,0.62,4.9,0.22,0.36,2.47,,-0.03,0.03,0.93,0,-1,0,0.04,0,0,,,,,,,
2055,0,,,,,,,,,,,,,,,,,0,0,,,,,,,
2057,0,,,,,,,,,,,,,,,,,0,0,,,,,,,
2059,0,,,,,,,,,,,,,,,,,0,0,,,,,,,
2061,0,,,,,,,,,,,,,,,,,0,0,,,,,,,
2063,0,0.3,0.99,1.07,0.61,4.88,0.14,0.31,2.44,,0.0,0.03,1.02,0,-2,-0,0.03,0,0,,,,,,,
2065,0,,,,,,,,,,,,,,,,,0,0,,,,,,,
2067,0,,,,,,,,,,,,,,,,,0,0,,,,,,,
2069,0,,,,,,,,,,,,,,,,,0,0,,,,,,,
2071,0,,,,,,,,,,,,,,,,,0,0,,,,,,,
2073,0,0.29,0.99,1.08,0.67,4.9,0.14,0.35,2.45,,0.03,0.02,1.03,0,3,-0,0.04,0,0,,,,,,,
2173,0,0.29,1.0,1.08,0.57,4.87,0.24,0.33,2.43,,0.01,0.03,1.0,0,-1,-1,0.03,0,0,,,,,,,
2175,0,,,,,,,,,,,,,,,,,0,0,,,,,,,
2177,0,,,,,,,,,,,,,,,,,0,0,,,,,,,
2179,0,,,,,,,,,,,,,,,,,0,0,,,,,,,
2181,0,,,,,,,,,,,,,,,,,0,0,,,,,,,
2183,0,0.34,1.05,1.09,0.66,4.93,0.19,0.38,2.47,,0.02,0.04,0.99,0,3,-0,0.04,0,0,,,,,,,
2185,0,,,,,,,,,,,,,,,,,0,0,,,,,,,
2187,0,,,,,,,,,,,,,,,,,0,0,,,,,,,
2189,0,,,,,,,,,,,,,,,,,0,0,,,,,,,
2191,0,,,,,,,,,,,,,,,,,0,0,,,,,,,
2193,0,0.32,1.01,1.09,0.58,4.88,0.16,0.35,2.45,,0.09,-0.0,0.97,0,-2,0,0.09,0,0,,,,,,,
2195,0,,,,,,,,,,,,,,,,,0,0,,,,,,,
2197,0,,,,,,,,,,,,,,,,,0,0,,,,,,,
2199,0,,,,,,,,,,,,,,,,,0,0,,,,,,,
2201,0,,,,,,,,,,,,,,,,,0,0,,,,,,,
2203,0,0.3,1.02,1.1,0.64,4.89,0.17,0.37,2.45,,-0.01,0.02,1.05,0,2,0,0.03,0,0,0.0,0.0,0.0,0.0,0,0,0.0
2205,0,,,,,,,,,,,,,,,,,0,0,,,,,,,
2207,0,,,,,,,,,,,,,,,,,0,0,,,,,,,
2209,0,,,,,,,,,,,,,,,,,0,0,,,,,,,
2211,0,,,,,,,,,,,,,,,,,0,0,,,,,,,
2213,0,0.33,1.04,1.11,0.65,4.93,0.19,0.37,2.47,,0.01,0.02,0.96,0,0,-1,0.02,0,0,,,,,,,
2215,0,,,,,,,,,,,,,,,,,0,0,,,,,,,
2217,0,,,,,,,,,,,,,,,,,0,0,,,,,,,
2219,0,,,,,,,,,,,,,,,,,0,0,,,,,,,
2221,0,,,,,,,,,,,,,,,,,0,0,,,,,,,
2223,0,0.31,1.02,1.1,0.63,4.9,0.2,0.37,2.44,,0.04,0.03,0.96,-0,1,-1,0.05,0,0,,,,,,,
2225,0,,,,,,,,,,,,,,,,,0,0,,,,,,,
2227,0,,,,,,,,,,,,,,,,,0,0,,,,,,,
2229,0,,,,,,,,,,,,,,,,,0,0,,,,,,,
2231,0,,,,,,,,,,,,,,,,,0,0,,,,,,,
2233,0,0.29,1.0,1.08,0.57,4.87,0.21,0.38,2.43,,0.03,0.06,1.06,-0,0,-0,0.07,0,0,,,,,,,
2235,0,,,,,,,,,,,,,,,,,0,0,,,,,,,
2237,0,,,,,,,,,,,,,,,,,0,0,,,,,,,
2239,0,,,,,,,,,,,,,,,,,0,0,,,,,,,
2241,0,,,,,,,,,,,,,,,,,0,0,,,,,,,
2243,0,0.3,1.01,1.09,0.62,4.9,0.2,0.37,2.46,,-0.01,0.04,0.93,0,1,0,0.04,0,0,0.0,0.0,0.0,0.0,0,0,0.0
2245,0,,,,,,,,,,,,,,,,,0,0,,,,,,,
2247,0,,,,,,,,,,,,,,,,,0,0,,,,,,,
2249,0,,,,,,,,,,,,,,,,,0,0,,,,,,,
2251,0,,,,,,,,,,,,,,,,,0,0,,,,,,,
2253,0,0.33,1.01,1.1,0.62,4.93,0.15,0.33,2.45,,0.02,0.03,1.01,-0,-3,-0,0.04,0,0,,,,,,,
2255,0,,,,,,,,,,,,,,,,,0,0,,,,,,,
2257,0,,,,,,,,,,,,,,,,,0,0,,,,,,,
2259,0,,,,,,,,,,,,,,,,,0,0,,,,,,,
2261,0,,,,,,,,,,,,,,,,,0,0,,,,,,,
2263,0,0.31,1.03,1.12,0.69,4.94,0.16,0.39,2.47,,0.02,0.02,1.03,-0,4,-1,0.03,0,0,,,,,,,
2265,0,,,,,,,,,,,,,,,,,0,0,,,,,,,
2267,0,,,,,,,,,,,,,,,,,0,0,,,,,,,
2269,0,,,,,,,,,,,,,,,,,0,0,,,,,,,
2271,0,,,,,,,,,,,,,,,,,0,0,,,,,,,
2273,0,0.32,1.05,1.11,0.66,4.93,0.2,0.39,2.48,,-0.02,0.04,0.99,-0,-2,-0,0.04,0,0,,,,,,,
2275,0,,,,,,,,,,,,,,,,,0,0,,,,,,,
2277,0,,,,,,,,,,,,,,,,,0,0,,,,,,,
2279,0,,,,,,,,,,,,,,,,,0,0,,,,,,,
2281,0,,,,,,,,,,,,,,,,,0,0,,,,,,,
2283,0,0.32,1.0,1.06,0.56,4.88,0.23,0.33,2.44,,0.01,0.05,0.99,-0,-1,-0,0.05,0,0,0.0,0.0,0.0,0.0,0,0,0.0
2285,0,,,,,,,,,,,,,,,,,0,0,,,,,,,
2287,0,,,,,,,,,,,,,,,,,0,0,,,,,,,
2289,0,,,,,,,,,,,,,,,,,0,0,,,,,,,
2291,0,,,,,,,,,,,,,,,,,0,0,,,,,,,
2293,0,0.3,1.01,1.1,0.63,4.92,0.17,0.39,2.47,,0.03,0.05,1.06,-0,1,0,0.06,0,0,,,,,,,
2295,0,,,,,,,,,,,,,,,,,0,0,,,,,,,
2297,0,,,,,,,,,,,,,,,,,0,0,,,,,,,
2299,0,,,,,,,,,,,,,,,,,0,0,,,,,,,
2301,0,,,,,,,,,,,,,,,,,0,0,,,,,,,
2303,0,0.32,1.04,1.11,0.62,4.94,0.24,0.37,2.47,,-0.03,0.03,0.92,-0,-2,0,0.05,0,0,,,,,,,
2305,0,,,,,,,,,,,,,,,,,0,0,,,,,,,
2307,0,,,,,,,,,,,,,,,,,0,0,,,,,,,
2309,0,,,,,,,,,,,,,,,,,0,0,,,,,,,
2311,0,,,,,,,,,,,,,,,,,0,0,,,,,,,
2313,0,0.35,1.04,1.11,0.69,4.93,0.17,0.35,2.47,,-0.02,0.04,1.03,-0,-0,0,0.04,0,0,,,,,,,
2315,0,,,,,,,,,,,,,,,,,0,0,,,,,,,
2317,0,,,,,,,,,,,,,,,,,0,0,,,,,,,
2319,0,,,,,,,,,,,,,,,,,0,0,,,,,,,
2321,0,,,,,,,,,,,,,,,,,0,0,,,,,,,
2323,0,0.33,1.02,1.11,0.67,4.92,0.17,0.37,2.47,,0.06,0.03,0.99,0,2,0,0.06,0,0,0.0,0.0,0.0,0.0,0,0,0.0
2325,0,,,,,,,,,,,,,,,,,0,0,,,,,,,
2327,0,,,,,,,,,,,,,,,,,0,0,,,,,,,
2329,0,,,,,,,,,,,,,,,,,0,0,,,,,,,
2331,0,,,,,,,,,,,,,,,,,0,0,,,,,,,
2333,0,0.29,1.01,1.08,0.59,4.88,0.23,0.37,2.45,,-0.04,0.05,1.02,0,-2,-0,0.07,0,0,,,,,,,
2335,0,,,,,,,,,,,,,,,,,0,0,,,,,,,
2337,0,,,,,,,,,,,,,,,,,0,0,,,,,,,
2339,0,,,,,,,,,,,,,,,,,0,0,,,,,,,
2341,0,,,,,,,,,,,,,,,,,0,0,,,,,,,
2343,0,0.31,1.0,1.07,0.59,4.88,0.19,0.33,2.43,,0.01,0.05,0.99,0,-1,1,0.05,0,0,,,,,,,
2345,0,,,,,,,,,,,,,,,,,0,0,,,,,,,
2347,0,,,,,,,,,,,,,,,,,0,0,,,,,,,
2349,0,,,,,,,,,,,,,,,,,0,0,,,,,,,
2351,0,,,,,,,,,,,,,,,,,0,0,,,,,,,
2353,0,0.3,1.01,1.07,0.64,4.89,0.16,0.32,2.45,,0.01,0.02,0.99,0,1,1,0.02,0,0,,,,,,,
2355,0,,,,,,,,,,,,,,,,,0,0,,,,,,,
2357,0,,,,,,,,,,,,,,,,,0,0,,,,,,,
2359,0,,,,,,,,,,,,,,,,,0,0,,,,,,,
2361,0,,,,,,,,,,,,,,,,,0,0,,,,,,,
2363,0,0.3,1.01,1.08,0.6,4.9,0.23,0.35,2.45,,-0.03,0.03,1.0,0,-1,-1,0.04,0,0,0.0,0.0,0.0,0.0,0,0,0.0
2365,0,,,,,,,,,,,,,,,,,0,0,,,,,,,
2367,0,,,,,,,,,,,,,,,,,0,0,,,,,,,
2369,0,,,,,,,,,,,,,,,,,0,0,,,,,,,
2371,0,,,,,,,,,,,,,,,,,0,0,,,,,,,
2373,0,0.31,1.02,1.06,0.63,4.9,0.17,0.36,2.46,,-0.01,0.04,0.99,0,3,-0,0.04,0,0,,,,,,,
2375,0,,,,,,,,,,,,,,,,,0,0,,,,,,,
2377,0,,,,,,,,,,,,,,,,,0,0,,,,,,,
2379,0,,,,,,,,,,,,,,,,,0,0,,,,,,,
2381,0,,,,,,,,,,,,,,,,,0,0,,,,,,,
2383,0,0.34,1.03,1.11,0.63,4.93,0.18,0.36,2.48,,0.07,0.0,0.97,0,-1,0,0.07,0,0,,,,,,,
2385,0,,,,,,,,,,,,,,,,,0,0,,,,,,,
2387,0,,,,,,,,,,,,,,,,,0,0,,,,,,,
2389,0,,,,,,,,,,,,,,,,,0,0,,,,,,,
2391,0,,,,,,,,,,,,,,,,,0,0,,,,,,,
2393,0,0.31,1.04,1.12,0.66,4.92,0.2,0.4,2.47,,-0.05,0.03,1.05,0,0,-0,0.05,0,0,,,,,,,
2395,0,,,,,,,,,,,,,,,,,0,0,,,,,,,
2397,0,,,,,,,,,,,,,,,,,0,0,,,,,,,
2399,0,,,,,,,,,,,,,,,,,0,0,,,,,,,
2401,0,,,,,,,,,,,,,,,,,0,0,,,,,,,
2403,0,0.31,1.02,1.07,0.62,4.9,0.17,0.35,2.44,,-0.01,0.01,0.95,0,1,-0,0.01,0,0,0.0,0.0,0.0,0.0,0,0,0.0
2405,0,,,,,,,,,,,,,,,,,0,0,,,,,,,
2407,0,,,,,,,,,,,,,,,,,0,0,,,,,,,
2409,0,,,,,,,,,,,,,,,,,0,0,,,,,,,
2411,0,,,,,,,,,,,,,,,,,0,0,,,,,,,
2413,0,0.32,1.01,1.09,0.61,4.89,0.19,0.36,2.45,,0.02,0.02,0.97,0,1,-1,0.03,0,0,,,,,,,
2415,0,,,,,,,,,,,,,,,,,0,0,,,,,,,
2417,0,,,,,,,,,,,,,,,,,0,0,,,,,,,
2419,0,,,,,,,,,,,,,,,,,0,0,,,,,,,
2421,0,,,,,,,,,,,,,,,,,0,0,,,,,,,
2423,0,0.3,1.02,1.09,0.6,4.91,0.23,0.41,2.46,,0.01,0.05,1.06,0,1,-1,0.05,0,0,,,,,,,
2425,0,,,,,,,,,,,,,,,,,0,0,,,,,,,
2427,0,,,,,,,,,,,,,,,,,0,0,,,,,,,
2429,0,,,,,,,,,,,,,,,,,0,0,,,,,,,
2431,0,,,,,,,,,,,,,,,,,0,0,,,,,,,
2433,0,0.3,1.01,1.08,0.62,4.87,0.18,0.36,2.43,,-0.02,0.02,0.94,0,1,0,0.03,0,0,,,,,,,
2435,0,,,,,,,,,,,,,,,,,0,0,,,,,,,
2437,0,,,,,,,,,,,,,,,,,0,0,,,,,,,
2439,0,,,,,,,,,,,,,,,,,0,0,,,,,,,
2441,0,,,,,,,,,,,,,,,,,0,0,,,,,,,
2443,0,0.34,1.03,1.11,0.62,4.93,0.17,0.34,2.47,,0.03,0.03,1.01,0,-3,-0,0.04,0,0,0.0,0.0,0.0,0.0,0,0,0.0
2445,0,,,,,,,,,,,,,,,,,0,0,,,,,,,
2447,0,,,,,,,,,,,,,,,,,0,0,,,,,,,
2449,0,,,,,,,,,,,,,,,,,0,0,,,,,,,
2451,0,,,,,,,,,,,,,,,,,0,0,,,,,,,
2453,0,0.3,1.01,1.11,0.67,4.93,0.17,0.39,2.46,,0.01,0.02,1.04,0,4,-0,0.02,0,0,,,,,,,
2455,0,,,,,,,,,,,,,,,,,0,0,,,,,,,
2457,0,,,,,,,,,,,,,,,,,0,0,,,,,,,
2459,0,,,,,,,,,,,,,,,,,0,0,,,,,,,
2461,0,,,,,,,,,,,,,,,,,0,0,,,,,,,
2463,0,0.3,1.02,1.09,0.62,4.89,0.22,0.38,2.45,,-0.02,0.03,0.98,0,-1,-0,0.04,0,0,,,,,,,
2465,0,,,,,,,,,,,,,,,,,0,0,,,,,,,
2467,0,,,,,,,,,,,,,,,,,0,0,,,,,,,
2469,0,,,,,,,,,,,,,,,,,0,0,,,,,,,
2471,0,,,,,,,,,,,,,,,,,0,0,,,,,,,
2473,0,0.33,1.02,1.1,0.62,4.93,0.24,0.36,2.46,,0.02,0.04,0.99,0,-1,-1,0.05,0,0,,,,,,,
2475,0,,,,,,,,,,,,,,,,,0,0,,,,,,,
2477,0,,,,,,,,,,,,,,,,,0,0,,,,,,,
2479,0,,,,,,,,,,,,,,,,,0,0,,,,,,,
2481,0,,,,,,,,,,,,,,,,,0,0,,,,,,,
2483,0,0.3,1.02,1.11,0.61,4.92,0.18,0.38,2.46,,0.04,0.04,1.07,0,0,-0,0.06,0,0,0.0,0.0,0.0,0.0,0,0,0.0
2485,0,,,,,,,,,,,,,,,,,0,0,,,,,,,
2487,0,,,,,,,,,,,,,,,,,0,0,,,,,,,
2489,0,,,,,,,,,,,,,,,,,0,0,,,,,,,
2491,0,,,,,,,,,,,,,,,,,0,0,,,,,,,
2493,0,0.3,1.04,1.1,0.62,4.91,0.27,0.35,2.46,,-0.02,0.03,0.93,0,-2,0,0.04,0,0,,,,,,,
2495,0,,,,,,,,,,,,,,,,,0,0,,,,,,,
2497,0,,,,,,,,,,,,,,,,,0,0,,,,,,,
2499,0,,,,,,,,,,,,,,,,,0,0,,,,,,,
2501,0,,,,,,,,,,,,,,,,,0,0,,,,,,,
2503,0,0.34,1.03,1.11,0.69,4.94,0.17,0.34,2.48,,-0.01,0.04,1.04,0,-1,0,0.04,0,0,,,,,,,
2505,0,,,,,,,,,,,,,,,,,0,0,,,,,,,
2507,0,,,,,,,,,,,,,,,,,0,0,,,,,,,
2509,0,,,,,,,,,,,,,,,,,0,0,,,,,,,
2511,0,,,,,,,,,,,,,,,,,0,0,,,,,,,
2513,0,0.31,1.01,1.1,0.67,4.9,0.17,0.34,2.44,,0.08,0.02,1.0,0,3,0,0.08,0,0,,,,,,,
2515,0,,,,,,,,,,,,,,,,,0,0,,,,,,,
2517,0,,,,,,,,,,,,,,,,,0,0,,,,,,,
2519,0,,,,,,,,,,,,,,,,,0,0,,,,,,,
2521,0,,,,,,,,,,,,,,,,,0,0,,,,,,,
2523,0,0.31,1.04,1.11,0.62,4.94,0.24,0.38,2.47,,-0.04,0.05,1.04,0,-4,0,0.06,0,0,0.0,0.0,0.0,0.0,0,0,0.0
2525,0,,,,,,,,,,,,,,,,,0,0,,,,,,,
2527,0,,,,,,,,,,,,,,,,,0,0,,,,,,,
2529,0,,,,,,,,,,,,,,,,,0,0,,,,,,,
2531,0,,,,,,,,,,,,,,,,,0,0,,,,,,,
2533,0,0.31,1.0,1.07,0.59,4.87,0.21,0.33,2.44,,0.02,0.06,0.96,0,-2,1,0.06,0,0,,,,,,,
2535,0,,,,,,,,,,,,,,,,,0,0,,,,,,,
2537,0,,,,,,,,,,,,,,,,,0,0,,,,,,,
2539,0,,,,,,,,,,,,,,,,,0,0,,,,,,,
2541,0,,,,,,,,,,,,,,,,,0,0,,,,,,,
2543,0,0.31,1.02,1.11,0.69,4.94,0.18,0.33,2.48,,0.03,0.03,1.02,0,1,1,0.04,0,0,,,,,,,
2545,0,,,,,,,,,,,,,,,,,0,0,,,,,,,
2547,0,,,,,,,,,,,,,,,,,0,0,,,,,,,
2549,0,,,,,,,,,,,,,,,,,0,0,,,,,,,
2551,0,,,,,,,,,,,,,,,,,0,0,,,,,,,
2553,0,0.29,1.01,1.07,0.58,4.88,0.26,0.34,2.45,,-0.01,0.04,0.97,0,-1,-0,0.04,0,0,,,,,,,
2555,0,,,,,,,,,,,,,,,,,0,0,,,,,,,
2557,0,,,,,,,,,,,,,,,,,0,0,,,,,,,
2559,0,,,,,,,,,,,,,,,,,0,0,,,,,,,
2561,0,,,,,,,,,,,,,,,,,0,0,,,,,,,
2563,0,0.33,1.04,1.11,0.67,4.93,0.19,0.38,2.47,,0.0,0.04,1.0,0,2,0,0.04,0,0,0.0,0.0,0.0,0.0,0,0,0.0
2565,0,,,,,,,,,,,,,,,,,0,0,,,,,,,
2567,0,,,,,,,,,,,,,,,,,0,0,,,,,,,
2569,0,,,,,,,,,,,,,,,,,0,0,,,,,,,
2571,0,,,,,,,,,,,,,,,,,0,0,,,,,,,
2573,0,0.33,1.02,1.11,0.61,4.93,0.2,0.36,2.47,,0.1,0.01,0.95,0,-1,1,0.1,0,0,,,,,,,
2575,0,,,,,,,,,,,,,,,,,0,0,,,,,,,
2577,0,,,,,,,,,,,,,,,,,0,0,,,,,,,
2579,0,,,,,,,,,,,,,,,,,0,0,,,,,,,
2581,0,,,,,,,,,,,,,,,,,0,0,,,,,,,
2583,0,0.3,1.02,1.11,0.65,4.93,0.2,0.39,2.45,,-0.03,0.03,1.05,0,-0,0,0.04,0,0,,,,,,,
2585,0,,,,,,,,,,,,,,,,,0,0,,,,,,,
2587,0,,,,,,,,,,,,,,,,,0,0,,,,,,,
2589,0,,,,,,,,,,,,,,,,,0,0,,,,,,,
2591,0,,,,,,,,,,,,,,,,,0,0,,,,,,,
2593,0,0.32,1.03,1.08,0.62,4.89,0.17,0.35,2.45,,0.02,0.01,0.95,0,0,-0,0.02,0,0,,,,,,,
2595,0,,,,,,,,,,,,,,,,,0,0,,,,,,,
2597,0,,,,,,,,,,,,,,,,,0,0,,,,,,,
2599,0,,,,,,,,,,,,,,,,,0,0,,,,,,,
2601,0,,,,,,,,,,,,,,,,,0,0,,,,,,,
2603,0,0.32,1.02,1.11,0.64,4.94,0.21,0.37,2.47,,0.05,0.0,0.96,0,2,-0,0.05,0,0,0.0,0.0,0.0,0.0,0,0,0.0
2605,0,,,,,,,,,,,,,,,,,0,0,,,,,,,
2607,0,,,,,,,,,,,,,,,,,0,0,,,,,,,
2609,0,,,,,,,,,,,,,,,,,0,0,,,,,,,
2611,0,,,,,,,,,,,,,,,,,0,0,,,,,,,
2613,0,0.31,1.02,1.1,0.6,4.92,0.25,0.4,2.47,,0.02,0.05,1.05,0,-0,-0,0.06,0,0,,,,,,,
2615,0,,,,,,,,,,,,,,,,,0,0,,,,,,,
2617,0,,,,,,,,,,,,,,,,,0,0,,,,,,,
2619,0,,,,,,,,,,,,,,,,,0,0,,,,,,,
2621,0,,,,,,,,,,,,,,,,,0,0,,,,,,,
2623,0,0.31,1.02,1.07,0.61,4.88,0.18,0.36,2.44,,0.01,0.02,0.94,0,2,-0,0.03,0,0,,,,,,,
2625,0,,,,,,,,,,,,,,,,,0,0,,,,,,,
2627,0,,,,,,,,,,,,,,,,,0,0,,,,,,,
2629,0,,,,,,,,,,,,,,,,,0,0,,,,,,,
2631,0,,,,,,,,,,,,,,,,,0,0,,,,,,,
2633,0,0.34,1.02,1.11,0.6,4.93,0.18,0.34,2.47,,0.06,0.02,1.0,0,-3,-0,0.06,0,0,,,,,,,
2635,0,,,,,,,,,,,,,,,,,0,0,,,,,,,
2637,0,,,,,,,,,,,,,,,,,0,0,,,,,,,
2639,0,,,,,,,,,,,,,,,,,0,0,,,,,,,
2641,0,,,,,,,,,,,,,,,,,0,0,,,,,,,
2643,0,0.3,1.0,1.09,0.64,4.88,0.17,0.36,2.43,,0.02,0.01,1.04,0,4,-0,0.02,0,0,0.0,0.0,0.0,0.0,0,0,0.0
2645,0,,,,,,,,,,,,,,,,,0,0,,,,,,,
2647,0,,,,,,,,,,,,,,,,,0,0,,,,,,,
2649,0,,,,,,,,,,,,,,,,,0,0,,,,,,,
2651,0,,,,,,,,,,,,,,,,,0,0,,,,,,,
2653,0,0.33,1.04,1.12,0.64,4.94,0.2,0.4,2.47,,-0.01,0.02,0.98,0,-0,-1,0.02,0,0,,,,,,,
2655,0,,,,,,,,,,,,,,,,,0,0,,,,,,,
2657,0,,,,,,,,,,,,,,,,,0,0,,,,,,,
2659,0,,,,,,,,,,,,,,,,,0,0,,,,,,,
2661,0,,,,,,,,,,,,,,,,,0,0,,,,,,,
2663,0,0.34,1.03,1.11,0.62,4.93,0.23,0.38,2.47,,0.03,0.03,0.97,-0,-0,-1,0.05,0,0,,,,,,,
2665,0,,,,,,,,,,,,,,,,,0,0,,,,,,,
2667,0,,,,,,,,,,,,,,,,,0,0,,,,,,,
2669,0,,,,,,,,,,,,,,,,,0,0,,,,,,,
2671,0,,,,,,,,,,,,,,,,,0,0,,,,,,,
2673,0,0.28,0.99,1.08,0.6,4.88,0.16,0.37,2.43,,0.04,0.04,1.09,-0,0,-0,0.05,0,0,,,,,,,
2675,0,,,,,,,,,,,,,,,,,0,0,,,,,,,
2677,0,,,,,,,,,,,,,,,,,0,0,,,,,,,
2679,0,,,,,,,,,,,,,,,,,0,0,,,,,,,
2681,0,,,,,,,,,,,,,,,,,0,0,,,,,,,
2683,0,0.31,1.02,1.08,0.61,4.91,0.27,0.35,2.45,,-0.01,0.03,0.91,0,-1,1,0.04,0,0,0.0,0.0,0.0,0.0,0,0,0.0
2685,0,,,,,,,,,,,,,,,,,0,0,,,,,,,
2687,0,,,,,,,,,,,,,,,,,0,0,,,,,,,
2689,0,,,,,,,,,,,,,,,,,0,0,,,,,,,
2691,0,,,,,,,,,,,,,,,,,0,0,,,,,,,
2693,0,0.35,1.04,1.11,0.67,4.94,0.17,0.33,2.48,,-0.01,0.04,1.05,-0,-2,-0,0.04,0,0,,,,,,,
2695,0,,,,,,,,,,,,,,,,,0,0,,,,,,,
2697,0,,,,,,,,,,,,,,,,,0,0,,,,,,,
2699,0,,,,,,,,,,,,,,,,,0,0,,,,,,,
2701,0,,,,,,,,,,,,,,,,,0,0,,,,,,,
2703,0,0.31,1.0,1.09,0.67,4.89,0.14,0.34,2.43,,0.05,0.01,1.01,0,3,-0,0.06,0,0,,,,,,,
2705,0,,,,,,,,,,,,,,,,,0,0,,,,,,,
2707,0,,,,,,,,,,,,,,,,,0,0,,,,,,,
2709,0,,,,,,,,,,,,,,,,,0,0,,,,,,,
2711,0,,,,,,,,,,,,,,,,,0,0,,,,,,,
2713,0,0.32,1.04,1.11,0.63,4.94,0.26,0.38,2.47,,-0.04,0.05,1.02,0,-3,0,0.06,0,0,,,,,,,
2715,0,,,,,,,,,,,,,,,,,0,0,,,,,,,
2717,0,,,,,,,,,,,,,,,,,0,0,,,,,,,
2719,0,,,,,,,,,,,,,,,,,0,0,,,,,,,
2721,0,,,,,,,,,,,,,,,,,0,0,,,,,,,
2723,0,0.34,1.02,1.09,0.6,4.9,0.21,0.32,2.46,,0.01,0.06,0.99,-0,-2,1,0.06,0,0,0.0,0.0,0.0,0.0,0,0,0.0
2725,0,,,,,,,,,,,,,,,,,0,0,,,,,,,
2727,0,,,,,,,,,,,,,,,,,0,0,,,,,,,
2729,0,,,,,,,,,,,,,,,,,0,0,,,,,,,
2731,0,,,,,,,,,,,,,,,,,0,0,,,,,,,
2733,0,0.32,1.02,1.11,0.66,4.94,0.19,0.36,2.47,,0.02,0.04,1.03,0,1,1,0.04,0,0,,,,,,,
2735,0,,,,,,,,,,,,,,,,,0,0,,,,,,,
2737,0,,,,,,,,,,,,,,,,,0,0,,,,,,,
2739,0,,,,,,,,,,,,,,,,,0,0,,,,,,,
2741,0,,,,,,,,,,,,,,,,,0,0,,,,,,,
2743,0,0.29,1.01,1.08,0.59,4.9,0.26,0.35,2.45,,-0.03,0.03,0.96,0,-2,-0,0.05,0,0,,,,,,,
2745,0,,,,,,,,,,,,,,,,,0,0,,,,,,,
2747,0,,,,,,,,,,,,,,,,,0,0,,,,,,,
2749,0,,,,,,,,,,,,,,,,,0,0,,,,,,,
2751,0,,,,,,,,,,,,,,,,,0,0,,,,,,,
2753,0,0.32,1.0,1.09,0.65,4.89,0.18,0.33,2.43,,-0.01,0.04,1.01,0,2,0,0.05,0,0,,,,,,,
2755,0,,,,,,,,,,,,,,,,,0,0,,,,,,,
2757,0,,,,,,,,,,,,,,,,,0,0,,,,,,,
2759,0,,,,,,,,,,,,,,,,,0,0,,,,,,,
2761,0,,,,,,,,,,,,,,,,,0,0,,,,,,,
2763,0,0.32,1.0,1.09,0.64,4.91,0.17,0.35,2.45,,0.08,0.02,0.97,0,1,1,0.08,0,0,0.0,0.0,0.0,0.0,0,0,0.0
2765,0,,,,,,,,,,,,,,,,,0,0,,,,,,,
2767,0,,,,,,,,,,,,,,,,,0,0,,,,,,,
2769,0,,,,,,,,,,,,,,,,,0,0,,,,,,,
2771,0,,,,,,,,,,,,,,,,,0,0,,,,,,,
2773,0,0.31,1.04,1.11,0.63,4.94,0.24,0.4,2.47,,-0.05,0.05,1.04,0,-2,0,0.07,0,0,,,,,,,
2775,0,,,,,,,,,,,,,,,,,0,0,,,,,,,
2777,0,,,,,,,,,,,,,,,,,0,0,,,,,,,
2779,0,,,,,,,,,,,,,,,,,0,0,,,,,,,
2781,0,,,,,,,,,,,,,,,,,0,0,,,,,,,
2783,0,0.32,1.01,1.08,0.62,4.9,0.17,0.35,2.45,,0.0,0.03,0.97,0,-0,1,0.03,0,0,,,,,,,
2785,0,,,,,,,,,,,,,,,,,0,0,,,,,,,
2787,0,,,,,,,,,,,,,,,,,0,0,,,,,,,
2789,0,,,,,,,,,,,,,,,,,0,0,,,,,,,
2791,0,,,,,,,,,,,,,,,,,0,0,,,,,,,
2793,0,0.33,1.03,1.11,0.67,4.94,0.18,0.35,2.48,,0.02,0.01,0.97,0,1,1,0.02,0,0,,,,,,,
2795,0,,,,,,,,,,,,,,,,,0,0,,,,,,,
2797,0,,,,,,,,,,,,,,,,,0,0,,,,,,,
2799,0,,,,,,,,,,,,,,,,,0,0,,,,,,,
2801,0,,,,,,,,,,,,,,,,,0,0,,,,,,,
2803,0,0.32,1.04,1.12,0.63,4.93,0.26,0.38,2.47,,-0.01,0.04,1.03,0,-0,-1,0.04,0,0,0.0,0.0,0.0,0.0,0,0,0.0
2805,0,,,,,,,,,,,,,,,,,0,0,,,,,,,
2807,0,,,,,,,,,,,,,,,,,0,0,,,,,,,
2809,0,,,,,,,,,,,,,,,,,0,0,,,,,,,
2811,0,,,,,,,,,,,,,,,,,0,0,,,,,,,
2813,0,0.31,1.02,1.06,0.65,4.9,0.18,0.36,2.44,,-0.01,0.03,0.97,0,3,-0,0.03,0,0,,,,,,,
2815,0,,,,,,,,,,,,,,,,,0,0,,,,,,,
2817,0,,,,,,,,,,,,,,,,,0,0,,,,,,,
2819,0,,,,,,,,,,,,,,,,,0,0,,,,,,,
2821,0,,,,,,,,,,,,,,,,,0,0,,,,,,,
2823,0,0.32,1.0,1.07,0.56,4.87,0.19,0.33,2.43,,0.06,0.0,0.99,0,-2,0,0.06,0,0,,,,,,,
2825,0,,,,,,,,,,,,,,,,,0,0,,,,,,,
2827,0,,,,,,,,,,,,,,,,,0,0,,,,,,,
2829,0,,,,,,,,,,,,,,,,,0,0,,,,,,,
2831,0,,,,,,,,,,,,,,,,,0,0,,,,,,,
2833,0,0.31,1.03,1.12,0.65,4.94,0.19,0.4,2.48,,-0.02,0.02,1.05,0,1,0,0.03,0,0,,,,,,,
2835,0,,,,,,,,,,,,,,,,,0,0,,,,,,,
2837,0,,,,,,,,,,,,,,,,,0,0,,,,,,,
2839,0,,,,,,,,,,,,,,,,,0,0,,,,,,,
2841,0,,,,,,,,,,,,,,,,,0,0,,,,,,,
2843,0,0.33,1.05,1.11,0.65,4.94,0.2,0.38,2.47,,-0.01,0.02,0.96,0,0,-1,0.02,0,0,0.0,0.0,0.0,0.0,0,0,0.0
2845,0,,,,,,,,,,,,,,,,,0,0,,,,,,,
2847,0,,,,,,,,,,,,,,,,,0,0,,,,,,,
2849,0,,,,,,,,,,,,,,,,,0,0,,,,,,,
2851,0,,,,,,,,,,,,,,,,,0,0,,,,,,,
2853,0,0.34,1.03,1.11,0.65,4.93,0.21,0.39,2.48,,0.03,0.02,0.97,0,1,-1,0.04,0,0,,,,,,,
2855,0,,,,,,,,,,,,,,,,,0,0,,,,,,,
2857,0,,,,,,,,,,,,,,,,,0,0,,,,,,,
2859,0,,,,,,,,,,,,,,,,,0,0,,,,,,,
2861,0,,,,,,,,,,,,,,,,,0,0,,,,,,,
2863,0,0.32,1.03,1.12,0.61,4.92,0.23,0.42,2.47,,0.02,0.05,1.07,0,1,-1,0.06,0,0,,,,,,,
2865,0,,,,,,,,,,,,,,,,,0,0,,,,,,,
2867,0,,,,,,,,,,,,,,,,,0,0,,,,,,,
2869,0,,,,,,,,,,,,,,,,,0,0,,,,,,,
2871,0,,,,,,,,,,,,,,,,,0,0,,,,,,,
2873,0,0.31,1.02,1.09,0.62,4.91,0.22,0.37,2.45,,-0.01,0.04,0.93,0,0,0,0.04,0,0,,,,,,,
2875,0,,,,,,,,,,,,,,,,,0,0,,,,,,,
2877,0,,,,,,,,,,,,,,,,,0,0,,,,,,,
2879,0,,,,,,,,,,,,,,,,,0,0,,,,,,,
2881,0,,,,,,,,,,,,,,,,,0,0,,,,,,,
2883,0,0.34,1.03,1.11,0.62,4.92,0.16,0.33,2.47,,0.01,0.04,1.02,0,-3,-0,0.04,0,0,0.0,0.0,0.0,0.0,0,0,0.0
2885,0,,,,,,,,,,,,,,,,,0,0,,,,,,,
2887,0,,,,,,,,,,,,,,,,,0,0,,,,,,,
2889,0,,,,,,,,,,,,,,,,,0,0,,,,,,,
2891,0,,,,,,,,,,,,,,,,,0,0,,,,,,,
2893,0,0.29,0.99,1.1,0.67,4.89,0.16,0.34,2.43,,0.03,0.02,1.02,0,3,-0,0.03,0,0,,,,,,,
2895,0,,,,,,,,,,,,,,,,,0,0,,,,,,,
2897,0,,,,,,,,,,,,,,,,,0,0,,,,,,,
2899,0,,,,,,,,,,,,,,,,,0,0,,,,,,,
2901,0,,,,,,,,,,,,,,,,,0,0,,,,,,,
2903,0,0.3,1.01,1.08,0.62,4.87,0.2,0.34,2.42,,-0.02,0.04,1.0,0,-2,-0,0.05,0,0,,,,,,,
2905,0,,,,,,,,,,,,,,,,,0,0,,,,,,,
2907,0,,,,,,,,,,,,,,,,,0,0,,,,,,,
2909,0,,,,,,,,,,,,,,,,,0,0,,,,,,,
2911,0,,,,,,,,,,,,,,,,,0,0,,,,,,,
2913,0,0.33,1.01,1.09,0.61,4.93,0.24,0.34,2.47,,0.03,0.05,0.99,0,-1,-0,0.06,0,0,,,,,,,
2915,0,,,,,,,,,,,,,,,,,0,0,,,,,,,
2917,0,,,,,,,,,,,,,,,,,0,0,,,,,,,
2919,0,,,,,,,,,,,,,,,,,0,0,,,,,,,
2921,0,,,,,,,,,,,,,,,,,0,0,,,,,,,
2923,0,0.31,1.02,1.11,0.65,4.94,0.18,0.4,2.47,,0.04,0.05,1.05,0,0,0,0.06,0,0,0.0,0.0,0.0,0.0,0,0,0.0
2925,0,,,,,,,,,,,,,,,,,0,0,,,,,,,
2927,0,,,,,,,,,,,,,,,,,0,0,,,,,,,
2929,0,,,,,,,,,,,,,,,,,0,0,,,,,,,
2931,0,,,,,,,,,,,,,,,,,0,0,,,,,,,
2933,0,0.32,1.04,1.11,0.63,4.92,0.27,0.37,2.48,,-0.03,0.03,0.93,0,-2,0,0.04,0,0,,,,,,,
2935,0,,,,,,,,,,,,,,,,,0,0,,,,,,,
2937,0,,,,,,,,,,,,,,,,,0,0,,,,,,,
2939,0,,,,,,,,,,,,,,,,,0,0,,,,,,,
2941,0,,,,,,,,,,,,,,,,,0,0,,,,,,,
2943,0,0.34,1.02,1.09,0.66,4.91,0.2,0.32,2.46,,-0.01,0.04,1.03,0,-0,0,0.04,0,0,,,,,,,
2945,0,,,,,,,,,,,,,,,,,0,0,,,,,,,
2947,0,,,,,,,,,,,,,,,,,0,0,,,,,,,
2949,0,,,,,,,,,,,,,,,,,0,0,,,,,,,
2951,0,,,,,,,,,,,,,,,,,0,0,,,,,,,
2953,0,0.29,0.98,1.07,0.64,4.87,0.16,0.33,2.42,,0.08,0.02,0.98,0,2,0,0.08,0,0,,,,,,,
2955,0,,,,,,,,,,,,,,,,,0,0,,,,,,,
2957,0,,,,,,,,,,,,,,,,,0,0,,,,,,,
2959,0,,,,,,,,,,,,,,,,,0,0,,,,,,,
2961,0,,,,,,,,,,,,,,,,,0,0,,,,,,,
2963,0,0.3,1.0,1.08,0.58,4.89,0.24,0.36,2.44,,-0.03,0.05,1.04,0,-3,0,0.06,0,0,0.0,0.0,0.0,0.0,0,0,0.0
2965,0,,,,,,,,,,,,,,,,,0,0,,,,,,,
2967,0,,,,,,,,,,,,,,,,,0,0,,,,,,,
2969,0,,,,,,,,,,,,,,,,,0,0,,,,,,,
2971,0,,,,,,,,,,,,,,,,,0,0,,,,,,,
2973,0,0.33,1.02,1.11,0.64,4.94,0.19,0.36,2.47,,0.02,0.04,0.96,0,-1,1,0.04,0,0,,,,,,,
2975,0,,,,,,,,,,,,,,,,,0,0,,,,,,,
2977,0,,,,,,,,,,,,,,,,,0,0,,,,,,,
2979,0,,,,,,,,,,,,,,,,,0,0,,,,,,,
2981,0,,,,,,,,,,,,,,,,,0,0,,,,,,,
2983,0,0.32,1.02,1.11,0.68,4.91,0.19,0.32,2.45,,0.03,0.01,1.0,0,1,1,0.03,0,0,,,,,,,
2985,0,,,,,,,,,,,,,,,,,0,0,,,,,,,
2987,0,,,,,,,,,,,,,,,,,0,0,,,,,,,
2989,0,,,,,,,,,,,,,,,,,0,0,,,,,,,
2991,0,,,,,,,,,,,,,,,,,0,0,,,,,,,
2993,0,0.3,1.01,1.09,0.59,4.92,0.29,0.35,2.44,,-0.01,0.04,1.01,0,-1,-1,0.04,0,0,,,,,,,
2995,0,,,,,,,,,,,,,,,,,0,0,,,,,,,
2997,0,,,,,,,,,,,,,,,,,0,0,,,,,,,
2999,0,,,,,,,,,,,,,,,,,0,0,,,,,,,
3001,0,,,,,,,,,,,,,,,,,0,0,,,,,,,
3003,0,0.34,1.05,1.09,0.67,4.94,0.2,0.36,2.48,,0.0,0.04,0.98,0,2,-0,0.04,0,0,0.0,0.0,0.0,0.0,0,0,0.0
3005,0,,,,,,,,,,,,,,,,,0,0,,,,,,,
3007,0,,,,,,,,,,,,,,,,,0,0,,,,,,,
3009,0,,,,,,,,,,,,,,,,,0,0,,,,,,,
3011,0,,,,,,,,,,,,,,,,,0,0,,,,,,,
3013,0,0.33,1.03,1.11,0.61,4.93,0.22,0.36,2.47,,0.08,0.0,0.98,0,-2,0,0.08,0,0,,,,,,,
3015,0,,,,,,,,,,,,,,,,,0,0,,,,,,,
3017,0,,,,,,,,,,,,,,,,,0,0,,,,,,,
3019,0,,,,,,,,,,,,,,,,,0,0,,,,,,,
3021,0,,,,,,,,,,,,,,,,,0,0,,,,,,,
3023,0,0.31,1.02,1.12,0.67,4.92,0.22,0.38,2.46,,-0.04,0.03,1.06,0,1,0,0.05,0,0,,,,,,,
3025,0,,,,,,,,,,,,,,,,,0,0,,,,,,,
3027,0,,,,,,,,,,,,,,,,,0,0,,,,,,,
3029,0,,,,,,,,,,,,,,,,,0,0,,,,,,,
3031,0,,,,,,,,,,,,,,,,,0,0,,,,,,,
3033,0,0.31,1.0,1.06,0.61,4.87,0.18,0.33,2.43,,-0.01,0.01,0.94,0,0,-1,0.02,0,0,,,,,,,
