"Interval"|"ms"|0|0|1,"Utc"|"ms"|0|0|1,"Analog1"|"V"|0.0|5.0|25,"Analog2"|""|0.0|5.0|25,"Battery"|"Volts"|0.0|20.0|1,"AccelX"|"G"|-3.0|3.0|200,"AccelY"|"G"|-3.0|3.0|200,"AccelZ"|"G"|-3.0|3.0|200,"Yaw"|"Deg/Sec"|-120|120|200,"Pitch"|"Deg/Sec"|-120|120|200,"Roll"|"Deg/Sec"|-120|120|200,"Gsum"|"G"|0.0|3.0|200,"RPM2"|"rpm"|0|8000|200,"Latitude"|"Degrees"|-180.0|180.0|10,"Longitude"|"Degrees"|-180.0|180.0|10,"Speed"|"mph"|0.0|150.0|10,"Altitude"|"ft"|0.0|4000.0|10,"GPSSats"|""|0|20|10,"GPSQual"|""|0|5|10,"GPSDOP"|""|0.0|20.0|10
188,0,,,,-0.05,-0.03,0.97,0,-0,-0,0.06,0,,,,,,,
193,0,,,,-0.02,-0.03,1.01,0,-0,-0,0.03,0,,,,,,,
198,0,,,,-0.0,-0.02,0.97,0,0,-0,0.02,0,,,,,,,
203,0,2.88,3.224,,0.0,-0.01,0.93,0,-0,-0,0.01,0,,,,,,,
208,0,,,,-0.0,-0.03,0.98,0,0,-0,0.03,0,,,,,,,
213,0,,,,-0.03,-0.04,1.01,0,1,-0,0.05,0,,,,,,,
218,0,,,,-0.05,-0.04,0.96,0,1,-0,0.06,0,,,,,,,
223,0,,,,-0.06,-0.04,0.98,0,-0,-0,0.07,0,,,,,,,
228,0,,,,-0.03,-0.04,1.03,0,-0,-0,0.05,0,,,,,,,
233,0,,,,-0.02,-0.04,1.01,0,0,-0,0.04,0,,,,,,,
238,0,,,,-0.01,-0.02,0.97,0,-0,-0,0.02,0,,,,,,,
243,0,2.87,2.991,,-0.01,-0.04,1.0,0,0,-0,0.04,0,0.0,0.0,0.0,0.0,0,0,0.0
248,0,,,,-0.04,-0.04,1.02,0,1,-0,0.06,0,,,,,,,
253,0,,,,-0.06,-0.03,0.97,0,1,-0,0.07,0,,,,,,,
258,0,,,,-0.05,-0.03,0.99,0,-0,-0,0.06,0,,,,,,,
263,0,,,,-0.04,-0.03,1.04,0,0,-0,0.05,0,,,,,,,
268,0,,,,-0.04,-0.01,0.98,0,0,-0,0.04,0,,,,,,,
273,0,,,,-0.04,-0.0,0.98,0,0,-0,0.04,0,,,,,,,
278,0,,,,-0.03,-0.0,1.03,0,1,-0,0.03,0,,,,,,,
283,0,2.86,2.937,,-0.05,-0.02,1.02,0,1,-0,0.06,0,,,,,,,
288,0,,,,-0.05,-0.02,0.96,0,0,-0,0.06,0,,,,,,,
293,0,,,,-0.05,-0.02,0.99,0,0,-0,0.05,0,,,,,,,
298,0,,,,-0.02,-0.03,1.04,0,0,-0,0.03,0,,,,,,,
303,0,,,,-0.0,-0.02,1.0,0,1,-0,0.02,0,,,,,,,
308,0,,,,-0.01,-0.0,0.97,0,0,-0,0.01,0,,,,,,,
313,0,,,,-0.02,-0.02,1.02,0,1,-0,0.03,0,,,,,,,
318,0,,,,-0.05,-0.02,1.01,0,1,-0,0.06,0,,,,,,,
323,0,2.89,2.824,,-0.06,-0.01,0.97,0,0,-0,0.06,0,,,,,,,
328,0,,,,-0.03,-0.02,1.01,0,-0,-0,0.03,0,,,,,,,
333,0,,,,-0.01,-0.02,1.03,0,0,-0,0.02,0,,,,,,,
338,0,,,,-0.01,-0.0,0.97,0,0,-0,0.01,0,,,,,,,
343,0,,,,-0.02,-0.01,0.99,0,-0,-0,0.02,0,0.0,0.0,0.0,0.0,0,0,0.0
348,0,,,,-0.01,0.0,1.03,0,1,-0,0.01,0,,,,,,,
353,0,,,,-0.04,-0.01,1.0,0,1,-1,0.04,0,,,,,,,
358,0,,,,-0.05,-0.0,0.97,0,-0,-0,0.05,0,,,,,,,
363,0,2.83,2.832,,-0.03,-0.01,1.03,0,-0,-0,0.04,0,,,,,,,
368,0,,,,-0.01,-0.0,1.03,0,0,-1,0.01,0,,,,,,,
373,0,,,,0.01,-0.0,0.97,0,0,-0,0.01,0,,,,,,,
378,0,,,,0.0,-0.0,0.98,0,0,-0,0.0,0,,,,,,,
383,0,,,,-0.02,-0.02,1.02,0,1,-0,0.03,0,,,,,,,
388,0,,,,-0.05,-0.01,0.98,0,1,-0,0.05,0,,,,,,,
393,0,,,,-0.04,-0.01,0.96,0,0,-0,0.04,0,,,,,,,
398,0,,,,-0.01,-0.01,1.01,0,0,-0,0.02,0,,,,,,,
403,0,2.88,3.284,,0.0,-0.01,0.98,0,1,-0,0.01,0,,,,,,,
408,0,,,,-0.0,-0.01,0.95,0,0,-0,0.01,0,,,,,,,
413,0,,,,-0.02,-0.02,1.0,0,1,-0,0.03,0,,,,,,,
418,0,,,,-0.04,-0.03,1.01,0,1,-0,0.04,0,,,,,,,
423,0,,,,-0.04,-0.02,0.95,0,1,-0,0.05,0,,,,,,,
428,0,,,,-0.05,-0.03,0.98,0,0,-0,0.06,0,,,,,,,
433,0,,,,-0.01,-0.03,1.02,0,0,-0,0.03,0,,,,,,,
438,0,,,,-0.0,-0.03,0.99,0,1,-0,0.03,0,,,,,,,
443,0,2.85,2.954,,0.01,-0.02,0.95,0,0,-0,0.02,0,0.0,0.0,0.0,0.0,0,0,0.0
448,0,,,,-0.01,-0.03,1.0,0,0,-0,0.04,0,,,,,,,
453,0,,,,-0.04,-0.05,1.02,0,1,-0,0.06,0,,,,,,,
458,0,,,,-0.05,-0.04,0.97,0,0,-0,0.06,0,,,,,,,
463,0,,,,-0.03,-0.04,1.01,0,-0,-0,0.05,0,,,,,,,
468,0,,,,-0.01,-0.04,1.03,0,0,-0,0.04,0,,,,,,,
473,0,,,,0.0,-0.03,0.97,0,0,-0,0.04,0,,,,,,,
478,0,,,,-0.0,-0.04,0.99,0,-0,-0,0.04,0,,,,,,,
483,0,2.88,3.694,,-0.0,-0.04,1.02,0,0,-0,0.04,0,,,,,,,
488,0,,,,-0.02,-0.05,0.99,0,0,-0,0.05,0,,,,,,,
493,0,,,,-0.03,-0.05,0.96,0,-0,-0,0.05,0,,,,,,,
498,0,,,,-0.02,-0.05,1.0,0,-0,-0,0.05,0,,,,,,,
503,0,,,,0.01,-0.05,1.0,0,0,-0,0.05,0,,,,,,,
508,0,,,,0.02,-0.05,0.96,1,-0,-0,0.05,0,,,,,,,
513,0,,,,0.01,-0.05,0.98,1,-0,-0,0.06,0,,,,,,,
518,0,,,,-0.02,-0.06,1.02,0,0,-0,0.06,0,,,,,,,
523,0,2.85,3.48,,-0.05,-0.06,0.98,0,0,-0,0.08,0,,,,,,,
528,0,,,,-0.05,-0.05,0.98,0,-0,0,0.07,0,,,,,,,
533,0,,,,-0.02,-0.05,1.02,0,-0,0,0.05,0,,,,,,,
538,0,,,,0.0,-0.03,0.99,0,0,-0,0.03,0,,,,,,,
543,0,,,,0.0,-0.03,0.94,0,-0,-0,0.03,0,0.0,0.0,0.0,0.0,0,0,0.0
548,0,,,,-0.02,-0.04,1.0,0,-0,-0,0.04,0,,,,,,,
553,0,,,,-0.03,-0.04,1.02,0,1,-0,0.05,0,,,,,,,
558,0,,,,-0.05,-0.03,0.96,0,0,-0,0.06,0,,,,,,,
563,0,2.86,3.397,,-0.07,-0.04,0.97,0,-0,0,0.08,0,,,,,,,
568,0,,,,-0.04,-0.03,1.0,0,0,-0,0.05,0,,,,,,,
573,0,,,,-0.02,-0.03,0.98,0,0,-0,0.04,0,,,,,,,
578,0,,,,-0.01,-0.02,0.93,0,-0,0,0.02,0,,,,,,,
583,0,,,,-0.01,-0.03,0.98,0,-0,0,0.04,0,,,,,,,
588,0,,,,-0.05,-0.05,0.99,0,1,0,0.07,0,,,,,,,
593,0,,,,-0.07,-0.03,0.94,0,0,0,0.08,0,,,,,,,
598,0,,,,-0.05,-0.03,0.98,0,-1,0,0.06,0,,,,,,,
603,0,2.8,3.23,,-0.03,-0.03,1.02,0,-0,0,0.04,0,,,,,,,
608,0,,,,-0.02,-0.02,0.97,0,0,0,0.03,0,,,,,,,
613,0,,,,-0.02,-0.02,0.96,0,-0,0,0.03,0,,,,,,,
618,0,,,,-0.01,-0.03,1.02,0,-0,0,0.03,0,,,,,,,
623,0,,,,-0.04,-0.04,0.99,0,0,0,0.05,0,,,,,,,
628,0,,,,-0.05,-0.02,0.96,0,-0,0,0.05,0,,,,,,,
633,0,,,,-0.02,-0.03,1.02,0,-0,0,0.03,0,,,,,,,
638,0,,,,0.01,-0.03,1.02,0,0,-0,0.03,0,,,,,,,
643,0,2.76,2.392,,0.01,-0.02,0.97,0,-0,-0,0.02,0,0.0,0.0,0.0,0.0,0,0,0.0
648,0,,,,0.01,-0.03,0.98,0,-0,-0,0.03,0,,,,,,,
653,0,,,,-0.01,-0.04,1.01,0,0,-0,0.04,0,,,,,,,
658,0,,,,-0.04,-0.03,0.97,0,0,-0,0.05,0,,,,,,,
663,0,,,,-0.03,-0.03,0.97,0,-0,0,0.05,0,,,,,,,
668,0,,,,-0.01,-0.04,1.02,0,-0,-0,0.04,0,,,,,,,
673,0,,,,0.01,-0.03,0.97,0,0,-0,0.03,0,,,,,,,
678,0,,,,0.01,-0.02,0.93,0,-0,-0,0.03,0,,,,,,,
683,0,2.77,2.171,,-0.02,-0.04,1.0,0,-0,-0,0.04,0,,,,,,,
688,0,,,,-0.02,-0.04,1.0,0,0,-0,0.05,0,,,,,,,
693,0,,,,-0.04,-0.04,0.95,0,-0,-0,0.06,0,,,,,,,
698,0,,,,-0.04,-0.04,0.98,0,-0,-0,0.06,0,,,,,,,
703,0,,,,-0.0,-0.04,1.02,0,-0,-0,0.04,0,,,,,,,
708,0,,,,0.0,-0.03,0.98,0,0,-0,0.03,0,,,,,,,
713,0,,,,0.0,-0.02,0.96,0,-0,-0,0.02,0,,,,,,,
718,0,,,,-0.0,-0.04,1.01,0,-0,-0,0.04,0,,,,,,,
723,0,2.73,1.823,,-0.04,-0.05,1.01,0,0,-0,0.06,0,,,,,,,
728,0,,,,-0.05,-0.05,0.97,0,-0,-0,0.07,0,,,,,,,
733,0,,,,-0.02,-0.04,1.0,0,-1,-0,0.05,0,,,,,,,
738,0,,,,-0.0,-0.05,1.02,0,-0,-0,0.05,0,,,,,,,
743,0,,,,0.01,-0.04,0.96,0,-0,-0,0.04,0,0.0,0.0,0.0,0.0,0,0,0.0
748,0,,,,0.0,-0.05,0.98,0,-0,-0,0.05,0,,,,,,,
753,0,,,,0.0,-0.05,1.01,0,-0,-0,0.05,0,,,,,,,
758,0,,,,-0.02,-0.05,0.99,0,0,-0,0.06,0,,,,,,,
763,0,2.77,2.172,,-0.03,-0.04,0.96,0,-0,-0,0.05,0,,,,,,,
768,0,,,,-0.02,-0.04,1.02,0,-0,-0,0.05,0,,,,,,,
773,0,,,,0.01,-0.04,1.01,0,-0,-0,0.04,0,,,,,,,
778,0,,,,0.01,-0.03,0.98,0,-0,-0,0.04,0,,,,,,,
783,0,,,,0.01,-0.03,0.99,0,-0,-0,0.03,0,,,,,,,
788,0,,,,-0.02,-0.05,1.03,0,0,-0,0.05,0,,,,,,,
793,0,,,,-0.05,-0.05,0.98,0,0,-0,0.07,0,,,,,,,
798,0,,,,-0.05,-0.04,0.97,0,-0,-0,0.06,0,,,,,,,
803,0,2.79,3.005,,-0.02,-0.04,1.02,0,-0,-0,0.04,0,,,,,,,
808,0,,,,0.01,-0.04,0.98,0,0,-0,0.04,0,,,,,,,
813,0,,,,0.01,-0.03,0.93,0,-0,-0,0.03,0,,,,,,,
818,0,,,,-0.02,-0.04,1.0,0,-0,-0,0.05,0,,,,,,,
823,0,,,,-0.04,-0.04,1.02,0,0,-0,0.05,0,,,,,,,
828,0,,,,-0.05,-0.04,0.96,0,0,-0,0.06,0,,,,,,,
833,0,,,,-0.05,-0.04,0.98,0,-0,-0,0.07,0,,,,,,,
838,0,,,,-0.02,-0.03,1.02,0,-0,-0,0.04,0,,,,,,,
843,0,2.81,3.174,,-0.0,-0.04,0.99,0,0,-0,0.04,0,0.0,0.0,0.0,0.0,0,0,0.0
848,0,,,,0.01,-0.02,0.95,0,-0,-0,0.02,0,,,,,,,
853,0,,,,-0.0,-0.03,1.0,0,-0,-0,0.03,0,,,,,,,
858,0,,,,-0.04,-0.04,1.01,0,1,-0,0.05,0,,,,,,,
863,0,,,,-0.05,-0.03,0.96,0,0,-0,0.06,0,,,,,,,
868,0,,,,-0.03,-0.03,1.0,0,-0,-0,0.04,0,,,,,,,
873,0,,,,-0.01,-0.03,1.03,0,0,-0,0.03,0,,,,,,,
878,0,,,,0.0,-0.01,0.96,0,0,-0,0.01,0,,,,,,,
883,0,2.81,3.204,,0.01,-0.02,0.96,0,-0,-0,0.02,0,,,,,,,
888,0,,,,0.01,-0.02,1.0,0,0,-0,0.02,0,,,,,,,
893,0,,,,-0.02,-0.03,0.98,0,0,-0,0.04,0,,,,,,,
898,0,,,,-0.03,-0.03,0.95,0,-0,-0,0.04,0,,,,,,,
903,0,,,,-0.02,-0.03,0.99,0,-0,-0,0.04,0,,,,,,,
908,0,,,,0.01,-0.03,1.0,0,0,-0,0.03,0,,,,,,,
913,0,,,,0.01,-0.02,0.96,0,0,-0,0.02,0,,,,,,,
918,0,,,,0.0,-0.02,0.97,0,-0,-0,0.02,0,,,,,,,
923,0,2.79,2.998,,-0.02,-0.03,1.01,0,0,-0,0.03,0,,,,,,,
928,0,,,,-0.05,-0.04,0.97,0,0,-0,0.06,0,,,,,,,
933,0,,,,-0.05,-0.04,0.96,0,-0,-0,0.06,0,,,,,,,
938,0,,,,-0.02,-0.04,1.0,0,-0,-0,0.04,0,,,,,,,
943,0,,,,-0.01,-0.03,0.98,0,0,-0,0.03,0,0.0,0.0,0.0,0.0,0,0,0.0
948,0,,,,-0.01,-0.02,0.93,0,-0,-0,0.02,0,,,,,,,
953,0,,,,-0.03,-0.03,0.99,0,-0,-0,0.04,0,,,,,,,
958,0,,,,-0.03,-0.03,1.02,0,0,-0,0.05,0,,,,,,,
963,0,2.81,3.025,,-0.05,-0.03,0.97,0,0,-0,0.06,0,,,,,,,
968,0,,,,-0.05,-0.03,0.97,0,-0,-0,0.06,0,,,,,,,
973,0,,,,-0.04,-0.03,1.02,0,-0,-0,0.04,0,,,,,,,
978,0,,,,-0.01,-0.03,1.01,0,0,-0,0.03,0,,,,,,,
983,0,,,,-0.0,-0.02,0.97,0,-0,-0,0.02,0,,,,,,,
988,0,,,,-0.0,-0.03,0.98,0,-0,-0,0.03,0,,,,,,,
993,0,,,,-0.03,-0.05,1.01,0,0,-0,0.06,0,,,,,,,
998,0,,,,-0.05,-0.04,0.97,0,0,-0,0.06,0,,,,,,,
1003,0,2.76,2.924,,-0.04,-0.04,0.99,0,-0,0,0.05,0,,,,,,,
1008,0,,,,-0.01,-0.04,1.02,0,-0,-0,0.04,0,,,,,,,
1013,0,,,,0.0,-0.03,0.97,0,0,-0,0.03,0,,,,,,,
1018,0,,,,-0.0,-0.02,0.94,0,-0,-0,0.02,0,,,,,,,
1023,0,,,,-0.02,-0.03,0.99,0,-0,-0,0.04,0,,,,,,,
1028,0,,,,-0.04,-0.04,0.99,0,0,-0,0.05,0,,,,,,,
1033,0,,,,-0.05,-0.03,0.95,0,-0,-0,0.06,0,,,,,,,
1038,0,,,,-0.05,-0.03,0.98,0,-0,-0,0.06,0,,,,,,,
1043,0,2.75,2.951,13.38,-0.0,-0.03,1.01,0,-0,-0,0.03,0,0.0,0.0,0.0,0.0,0,0,0.0
1048,0,,,,0.01,-0.02,0.99,0,0,-0,0.02,0,,,,,,,
1053,0,,,,0.0,-0.01,0.97,0,-0,-0,0.01,0,,,,,,,
1058,0,,,,-0.0,-0.02,1.01,0,-0,-0,0.02,0,,,,,,,
1063,0,,,,-0.04,-0.03,1.0,0,0,-0,0.05,0,,,,,,,
1068,0,,,,-0.04,-0.03,0.96,0,-0,-0,0.05,0,,,,,,,
1073,0,,,,-0.02,-0.03,1.0,0,-1,-0,0.03,0,,,,,,,
1078,0,,,,-0.0,-0.02,1.03,0,-0,-0,0.02,0,,,,,,,
1083,0,2.78,3.377,,0.01,-0.01,0.96,0,-0,-0,0.01,0,,,,,,,
1088,0,,,,0.0,-0.01,0.97,0,-0,-0,0.01,0,,,,,,,
1093,0,,,,-0.0,-0.01,1.02,0,-0,-0,0.01,0,,,,,,,
1098,0,,,,-0.03,-0.02,0.99,0,0,-0,0.03,0,,,,,,,
1103,0,,,,-0.03,-0.02,0.97,0,-0,-0,0.04,0,,,,,,,
1108,0,,,,-0.02,-0.02,1.03,0,-0,-0,0.03,0,,,,,,,
1113,0,,,,0.01,-0.01,1.01,0,-0,-0,0.02,0,,,,,,,
1118,0,,,,0.02,-0.01,0.98,0,-0,-0,0.02,0,,,,,,,
1123,0,2.77,3.046,,0.0,-0.01,0.98,0,-0,-0,0.01,0,,,,,,,
1128,0,,,,-0.02,-0.02,1.03,0,0,-0,0.03,0,,,,,,,
1133,0,,,,-0.05,-0.03,0.99,0,0,-0,0.06,0,,,,,,,
1138,0,,,,-0.05,-0.03,0.97,0,-0,0,0.05,0,,,,,,,
1143,0,,,,-0.03,-0.03,1.02,0,-1,-0,0.04,0,0.0,0.0,0.0,0.0,0,0,0.0
1148,0,,,,-0.0,-0.03,0.98,0,0,-0,0.03,0,,,,,,,
1153,0,,,,-0.0,-0.01,0.94,0,-0,-0,0.01,0,,,,,,,
1158,0,,,,-0.02,-0.03,0.99,0,-0,-0,0.04,0,,,,,,,
1163,0,2.79,3.27,,-0.03,-0.03,1.01,0,0,-0,0.04,0,,,,,,,
1168,0,,,,-0.04,-0.02,0.96,0,0,-0,0.05,0,,,,,,,
1173,0,,,,-0.05,-0.03,0.98,0,-0,-0,0.06,0,,,,,,,
1178,0,,,,-0.02,-0.02,1.02,0,-0,-0,0.03,0,,,,,,,
1213,0,,,,-0.02,-0.03,1.02,0,-0,-0,0.04,0,,,,,,,
1218,0,,,,-0.01,-0.02,0.97,0,0,-0,0.03,0,,,,,,,
1223,0,,,,-0.01,-0.02,0.96,0,-0,-0,0.02,0,,,,,,,
1228,0,,,,-0.02,-0.03,1.01,0,-0,-0,0.03,0,,,,,,,
1258,0,,,,-0.0,-0.03,0.96,0,-0,0,0.03,0,,,,,,,
1263,0,,,,-0.02,-0.03,1.0,0,-0,-0,0.03,0,,,,,,,
1268,0,,,,-0.05,-0.04,0.99,0,0,-0,0.07,0,,,,,,,
1273,0,,,,-0.05,-0.03,0.96,0,-0,-0,0.06,0,,,,,,,
1278,0,,,,-0.02,-0.03,1.01,0,-1,-0,0.04,0,,,,,,,
1283,0,2.8,4.115,,-0.0,-0.03,1.02,0,0,-0,0.03,0,,,,,,,
1288,0,,,,0.0,-0.02,0.97,0,-0,-0,0.02,0,,,,,,,
1293,0,,,,-0.0,-0.03,0.99,0,-0,-0,0.03,0,,,,,,,
1298,0,,,,-0.0,-0.02,1.03,0,0,-0,0.02,0,,,,,,,
1303,0,,,,-0.03,-0.03,0.99,0,0,-0,0.04,0,,,,,,,
1308,0,,,,-0.03,-0.03,0.97,0,-0,-0,0.04,0,,,,,,,
1313,0,,,,-0.02,-0.04,1.03,0,-0,-0,0.04,0,,,,,,,
1318,0,,,,0.01,-0.03,1.02,0,0,-0,0.03,0,,,,,,,
1323,0,2.81,3.694,,0.01,-0.03,0.97,0,0,-0,0.03,0,,,,,,,
1328,0,,,,0.0,-0.02,0.98,0,-0,-0,0.02,0,,,,,,,
1333,0,,,,-0.03,-0.04,1.02,0,0,-0,0.05,0,,,,,,,
1338,0,,,,-0.06,-0.04,0.97,0,1,-0,0.07,0,,,,,,,
1343,0,,,,-0.06,-0.04,0.97,0,-0,-0,0.07,0,0.0,0.0,0.0,0.0,0,0,0.0
1348,0,,,,-0.04,-0.04,1.02,0,-0,-0,0.05,0,,,,,,,
1353,0,,,,-0.01,-0.04,0.97,0,0,-0,0.04,0,,,,,,,
1358,0,,,,-0.01,-0.03,0.93,0,-0,-0,0.03,0,,,,,,,
1363,0,2.78,3.446,,-0.03,-0.04,0.98,0,-0,-0,0.05,0,,,,,,,
1368,0,,,,-0.05,-0.04,1.01,0,0,-0,0.06,0,,,,,,,
1373,0,,,,-0.06,-0.03,0.95,0,0,-0,0.07,0,,,,,,,
1378,0,,,,-0.06,-0.03,0.98,0,-0,-0,0.07,0,,,,,,,
1383,0,,,,-0.02,-0.04,1.01,0,-0,-0,0.04,0,,,,,,,
1388,0,,,,-0.02,-0.03,1.0,0,0,-0,0.04,0,,,,,,,
1393,0,,,,-0.0,-0.02,0.97,0,-0,-0,0.02,0,,,,,,,
1398,0,,,,-0.01,-0.02,1.01,0,-0,-0,0.03,0,,,,,,,
1403,0,2.8,3.174,,-0.04,-0.04,1.01,0,1,-0,0.06,0,,,,,,,
1408,0,,,,-0.06,-0.03,0.97,0,0,-0,0.06,0,,,,,,,
1413,0,,,,-0.03,-0.03,1.0,0,-0,-0,0.04,0,,,,,,,
1418,0,,,,-0.02,-0.02,1.03,0,0,-0,0.03,0,,,,,,,
1423,0,,,,-0.0,-0.01,0.97,0,0,-0,0.01,0,,,,,,,
1428,0,,,,-0.0,-0.01,0.97,0,-0,-0,0.01,0,,,,,,,
1433,0,,,,-0.01,-0.01,1.02,0,0,-0,0.01,0,,,,,,,
1438,0,,,,-0.04,-0.03,1.0,0,1,-0,0.05,0,,,,,,,
1443,0,2.81,3.103,,-0.04,-0.02,0.96,0,0,0,0.05,0,0.0,0.0,0.0,0.0,0,0,0.0
1448,0,,,,-0.03,-0.02,1.01,0,-0,0,0.04,0,,,,,,,
1453,0,,,,0.01,-0.02,1.03,0,0,-0,0.02,0,,,,,,,
1458,0,,,,0.01,-0.01,0.98,0,0,-0,0.02,0,,,,,,,
1463,0,,,,0.01,-0.01,0.98,0,0,-0,0.01,0,,,,,,,
1468,0,,,,-0.01,-0.01,1.02,0,0,-0,0.02,0,,,,,,,
1473,0,,,,-0.05,-0.02,0.98,0,1,-0,0.06,0,,,,,,,
1478,0,,,,-0.05,-0.02,0.97,0,-0,-0,0.05,0,,,,,,,
1483,0,2.81,3.22,,-0.02,-0.02,1.01,0,-0,-0,0.03,0,,,,,,,
1488,0,,,,-0.0,-0.02,1.01,0,0,-0,0.02,0,,,,,,,
1493,0,,,,0.01,-0.01,0.95,0,0,-0,0.01,0,,,,,,,
1498,0,,,,-0.01,-0.02,1.0,0,-0,-0,0.02,0,,,,,,,
1503,0,,,,-0.01,-0.01,1.02,0,0,-0,0.01,0,,,,,,,
1508,0,,,,-0.03,-0.01,0.98,0,0,-0,0.04,0,,,,,,,
1513,0,,,,-0.04,-0.02,0.98,0,-0,-0,0.05,0,,,,,,,
1518,0,,,,-0.02,-0.02,1.03,0,-0,-0,0.03,0,,,,,,,
1523,0,2.82,3.108,,0.0,-0.02,1.01,0,0,-0,0.02,0,,,,,,,
1528,0,,,,0.01,-0.01,0.97,0,-0,-0,0.02,0,,,,,,,
1533,0,,,,0.01,-0.02,1.0,0,-0,-0,0.02,0,,,,,,,
1538,0,,,,-0.02,-0.04,1.02,0,1,-0,0.04,0,,,,,,,
1543,0,,,,-0.05,-0.03,0.97,0,0,-0,0.05,0,0.0,0.0,0.0,0.0,0,0,0.0
1548,0,,,,-0.04,-0.03,0.99,0,-0,-0,0.05,0,,,,,,,
1553,0,,,,-0.02,-0.02,1.03,0,0,-0,0.03,0,,,,,,,
1558,0,,,,-0.01,-0.02,0.98,0,0,-0,0.02,0,,,,,,,
1563,0,2.82,3.264,,-0.01,-0.02,0.96,0,-0,-0,0.02,0,,,,,,,
1568,0,,,,-0.02,-0.03,1.01,0,0,-0,0.03,0,,,,,,,
1573,0,,,,-0.04,-0.04,1.01,0,1,-0,0.06,0,,,,,,,
1578,0,,,,-0.04,-0.03,0.96,0,0,-0,0.05,0,,,,,,,
1583,0,,,,-0.04,-0.04,1.0,0,-0,-0,0.06,0,,,,,,,
1588,0,,,,-0.01,-0.04,1.03,0,0,-0,0.04,0,,,,,,,
1593,0,,,,-0.0,-0.03,0.99,0,0,-0,0.03,0,,,,,,,
1598,0,,,,-0.0,-0.02,0.98,0,-0,-0,0.02,0,,,,,,,
1603,0,2.83,3.611,,-0.01,-0.02,1.01,0,0,-0,0.02,0,,,,,,,
1608,0,,,,-0.04,-0.03,1.0,0,1,-0,0.05,0,,,,,,,
1613,0,,,,-0.05,-0.03,0.97,0,0,-0,0.05,0,,,,,,,
1618,0,,,,-0.03,-0.03,1.01,0,-0,-0,0.04,0,,,,,,,
1623,0,,,,-0.01,-0.03,1.02,0,0,-0,0.03,0,,,,,,,
1628,0,,,,0.0,-0.02,0.96,0,0,-0,0.02,0,,,,,,,
1633,0,,,,-0.01,-0.02,0.98,0,-0,-0,0.02,0,,,,,,,
1638,0,,,,-0.0,-0.01,1.02,0,0,-0,0.01,0,,,,,,,
1643,0,2.85,3.488,,-0.03,-0.02,0.99,0,0,-0,0.04,0,0.0,0.0,0.0,0.0,0,0,0.0
1648,0,,,,-0.03,-0.02,0.96,0,-0,-0,0.03,0,,,,,,,
1653,0,,,,-0.02,-0.02,1.01,0,-0,-0,0.03,0,,,,,,,
1658,0,,,,0.01,-0.02,1.01,0,0,-0,0.02,0,,,,,,,
1663,0,,,,0.01,-0.02,0.98,0,-0,-0,0.02,0,,,,,,,
1668,0,,,,0.0,-0.02,0.99,0,-0,-0,0.02,0,,,,,,,
1673,0,,,,-0.02,-0.03,1.03,0,0,-0,0.04,0,,,,,,,
1678,0,,,,-0.06,-0.03,0.99,0,0,-0,0.07,0,,,,,,,
1683,0,2.85,3.448,,-0.06,-0.03,0.97,0,-0,-0,0.07,0,,,,,,,
1688,0,,,,-0.03,-0.03,1.02,0,-0,-0,0.04,0,,,,,,,
1693,0,,,,-0.01,-0.03,1.0,0,0,-0,0.03,0,,,,,,,
1698,0,,,,0.0,-0.02,0.95,0,-0,-0,0.02,0,,,,,,,
1703,0,,,,-0.02,-0.03,1.0,0,-0,-0,0.04,0,,,,,,,
1708,0,,,,-0.03,-0.03,1.02,0,0,-0,0.04,0,,,,,,,
1713,0,,,,-0.05,-0.03,0.98,0,0,-0,0.06,0,,,,,,,
1718,0,,,,-0.05,-0.03,0.98,0,-0,-0,0.06,0,,,,,,,
1723,0,2.86,3.32,,-0.03,-0.03,1.03,0,-0,-0,0.04,0,,,,,,,
1728,0,,,,-0.01,-0.02,1.02,0,0,-0,0.02,0,,,,,,,
1733,0,,,,0.01,-0.01,0.98,0,-0,-0,0.01,0,,,,,,,
1738,0,,,,0.0,-0.02,0.99,0,-0,-0,0.02,0,,,,,,,
1743,0,,,,-0.02,-0.04,1.01,0,0,-0,0.04,0,0.0,0.0,0.0,0.0,0,0,0.0
1748,0,,,,-0.04,-0.03,0.96,0,0,-0,0.05,0,,,,,,,
1753,0,,,,-0.04,-0.03,0.98,0,-0,-0,0.05,0,,,,,,,
1758,0,,,,-0.01,-0.03,1.01,0,0,-0,0.03,0,,,,,,,
1763,0,2.86,3.511,,0.01,-0.03,0.97,0,0,-0,0.03,0,,,,,,,
1768,0,,,,0.0,-0.02,0.95,0,0,-0,0.02,0,,,,,,,
1773,0,,,,-0.02,-0.03,1.01,0,0,-0,0.04,0,,,,,,,
1778,0,,,,-0.04,-0.04,1.0,0,1,-0,0.06,0,,,,,,,
1783,0,,,,-0.05,-0.04,0.95,0,0,-0,0.06,0,,,,,,,
1788,0,,,,-0.04,-0.04,0.99,0,-0,0,0.06,0,,,,,,,
1793,0,,,,-0.01,-0.04,1.02,0,0,-0,0.04,0,,,,,,,
1798,0,,,,-0.01,-0.04,0.99,0,0,-0,0.04,0,,,,,,,
1803,0,2.86,3.317,,-0.0,-0.02,0.96,0,-0,-0,0.02,0,,,,,,,
1808,0,,,,-0.01,-0.02,1.0,0,0,-0,0.03,0,,,,,,,
1813,0,,,,-0.04,-0.04,1.0,0,0,-0,0.06,0,,,,,,,
1818,0,,,,-0.05,-0.03,0.96,0,-0,-0,0.06,0,,,,,,,
1823,0,,,,-0.03,-0.03,1.0,0,-0,-0,0.04,0,,,,,,,
1828,0,,,,-0.01,-0.03,1.02,0,0,-0,0.03,0,,,,,,,
1833,0,,,,-0.0,-0.02,0.97,0,0,-0,0.02,0,,,,,,,
1838,0,,,,-0.01,-0.02,0.98,0,-0,-0,0.02,0,,,,,,,
1843,0,2.85,3.428,,-0.01,-0.02,1.02,0,0,-0,0.02,0,0.0,0.0,0.0,0.0,0,0,0.0
1848,0,,,,-0.04,-0.03,1.0,0,0,-0,0.05,0,,,,,,,
1853,0,,,,-0.03,-0.02,0.96,0,-0,-0,0.04,0,,,,,,,
1858,0,,,,-0.04,-0.02,1.01,0,-0,-0,0.05,0,,,,,,,
1863,0,,,,0.0,-0.02,1.01,0,0,-0,0.02,0,,,,,,,
1868,0,,,,0.0,-0.02,1.0,0,0,-0,0.02,0,,,,,,,
1873,0,,,,-0.01,-0.01,0.99,0,-0,-0,0.02,0,,,,,,,
1878,0,,,,-0.04,-0.02,1.03,0,0,-0,0.04,0,,,,,,,
1883,0,2.85,3.321,,-0.06,-0.02,0.99,0,0,-0,0.07,0,,,,,,,
1888,0,,,,-0.06,-0.02,0.97,0,-0,-0,0.07,0,,,,,,,
1893,0,,,,-0.04,-0.02,1.02,0,-0,-0,0.04,0,,,,,,,
1898,0,,,,-0.02,-0.02,1.01,0,0,-0,0.03,0,,,,,,,
1903,0,,,,-0.01,-0.01,0.95,0,-0,-0,0.01,0,,,,,,,
1908,0,,,,-0.02,-0.02,1.0,0,-0,-0,0.03,0,,,,,,,
1913,0,,,,-0.02,-0.01,1.02,0,0,-0,0.02,0,,,,,,,
1918,0,,,,-0.04,-0.02,0.98,0,0,-0,0.04,0,,,,,,,
1923,0,2.81,3.169,,-0.04,-0.02,0.98,0,-0,-0,0.04,0,,,,,,,
1928,0,,,,-0.02,-0.02,1.04,0,-0,-0,0.03,0,,,,,,,
1933,0,,,,-0.01,-0.02,1.02,0,0,-0,0.02,0,,,,,,,
1938,0,,,,0.01,-0.01,0.97,0,-0,-0,0.02,0,,,,,,,
1943,0,,,,0.01,-0.02,0.99,0,-0,-0,0.02,0,0.0,0.0,0.0,0.0,0,0,0.0
1948,0,,,,-0.02,-0.04,1.0,0,0,-0,0.04,0,,,,,,,
1953,0,,,,-0.04,-0.03,0.96,0,0,-0,0.05,0,,,,,,,
1958,0,,,,-0.03,-0.03,0.97,0,-0,-0,0.04,0,,,,,,,
1963,0,2.83,3.24,,-0.01,-0.03,1.02,0,0,-0,0.03,0,,,,,,,
1968,0,,,,-0.0,-0.02,0.98,0,0,-0,0.02,0,,,,,,,
1973,0,,,,-0.01,-0.02,0.95,0,-0,-0,0.02,0,,,,,,,
1978,0,,,,-0.02,-0.03,1.0,0,0,-0,0.03,0,,,,,,,
1983,0,,,,-0.03,-0.03,1.0,0,0,-0,0.05,0,,,,,,,
1988,0,,,,-0.05,-0.03,0.96,0,0,-0,0.06,0,,,,,,,
1993,0,,,,-0.05,-0.03,0.99,0,-0,-0,0.06,0,,,,,,,
1998,0,,,,-0.02,-0.03,1.01,0,0,-0,0.03,0,,,,,,,
2003,0,2.83,2.857,,-0.01,-0.02,0.98,0,0,-0,0.02,0,,,,,,,
2008,0,,,,0.0,-0.01,0.96,0,-0,-0,0.01,0,,,,,,,
2013,0,,,,0.01,-0.02,0.98,0,-0,-0,0.02,0,,,,,,,
2018,0,,,,-0.03,-0.04,0.99,0,0,-0,0.05,0,,,,,,,
2023,0,,,,-0.04,-0.04,0.96,0,0,-0,0.05,0,,,,,,,
2028,0,,,,-0.03,-0.04,0.99,0,-0,-0,0.05,0,,,,,,,
2033,0,,,,-0.01,-0.03,1.02,0,-0,-0,0.03,0,,,,,,,
2038,0,,,,-0.0,-0.02,0.97,0,0,-0,0.02,0,,,,,,,
2043,0,2.84,2.604,13.38,-0.01,-0.02,0.96,0,-0,-0,0.02,0,0.0,0.0,0.0,0.0,0,0,0.0
2048,0,,,,-0.02,-0.03,1.02,0,0,-0,0.03,0,,,,,,,
2053,0,,,,-0.04,-0.04,1.0,0,0,-0,0.06,0,,,,,,,
2058,0,,,,-0.04,-0.04,0.96,0,-0,-0,0.05,0,,,,,,,
2063,0,,,,-0.04,-0.04,1.0,0,-0,0,0.06,0,,,,,,,
2068,0,,,,-0.01,-0.04,1.02,0,0,-0,0.04,0,,,,,,,
2073,0,,,,-0.01,-0.03,0.98,0,0,-0,0.03,0,,,,,,,
2078,0,,,,-0.01,-0.02,0.98,0,-0,-0,0.02,0,,,,,,,
2083,0,2.83,2.453,,-0.02,-0.03,1.02,0,0,-0,0.03,0,,,,,,,
2088,0,,,,-0.05,-0.04,1.0,0,0,-0,0.06,0,,,,,,,
2093,0,,,,-0.06,-0.04,0.97,0,-0,-0,0.07,0,,,,,,,
2098,0,,,,-0.04,-0.04,1.0,0,-0,-0,0.06,0,,,,,,,
2103,0,,,,-0.03,-0.03,1.02,0,0,-0,0.04,0,,,,,,,
2108,0,,,,-0.01,-0.02,0.96,0,0,-0,0.03,0,,,,,,,
2113,0,,,,-0.02,-0.02,0.97,0,-0,-0,0.03,0,,,,,,,
2118,0,,,,-0.02,-0.03,1.01,0,0,-0,0.03,0,,,,,,,
2123,0,2.83,1.853,,-0.05,-0.03,0.99,0,0,-0,0.06,0,,,,,,,
2128,0,,,,-0.04,-0.03,0.96,0,-0,-0,0.05,0,,,,,,,
2133,0,,,,-0.05,-0.03,1.01,0,-0,0,0.06,0,,,,,,,
2138,0,,,,-0.02,-0.04,1.01,0,0,-0,0.04,0,,,,,,,
2143,0,,,,-0.01,-0.03,0.99,0,0,-0,0.03,0,0.0,0.0,0.0,0.0,0,0,0.0
2148,0,,,,-0.01,-0.02,0.99,0,-0,-0,0.02,0,,,,,,,
2153,0,,,,-0.02,-0.02,1.03,0,0,-0,0.03,0,,,,,,,
2158,0,,,,-0.05,-0.03,1.0,0,0,-0,0.06,0,,,,,,,
2163,0,2.82,2.066,,-0.06,-0.03,0.97,0,-0,-0,0.06,0,,,,,,,
2168,0,,,,-0.03,-0.03,1.01,0,-0,-0,0.05,0,,,,,,,
2173,0,,,,-0.02,-0.04,1.02,0,0,-0,0.04,0,,,,,,,
2178,0,,,,-0.01,-0.02,0.97,0,-0,-0,0.02,0,,,,,,,
2183,0,,,,-0.01,-0.02,0.98,0,-0,-0,0.03,0,,,,,,,
2188,0,,,,-0.01,-0.02,1.02,0,0,-0,0.02,0,,,,,,,
2193,0,,,,-0.03,-0.03,0.99,0,0,-0,0.04,0,,,,,,,
2198,0,,,,-0.03,-0.03,0.97,0,-0,-0,0.04,0,,,,,,,
2203,0,2.81,2.015,,-0.03,-0.03,1.03,0,-0,-0,0.04,0,,,,,,,
2208,0,,,,-0.0,-0.03,1.02,0,0,-0,0.03,0,,,,,,,
2213,0,,,,0.01,-0.02,0.98,0,-0,-0,0.02,0,,,,,,,
2218,0,,,,-0.0,-0.01,0.99,0,-0,-0,0.01,0,,,,,,,
2223,0,,,,-0.02,-0.02,1.02,0,0,-0,0.03,0,,,,,,,
2228,0,,,,-0.05,-0.02,0.99,0,0,-0,0.05,0,,,,,,,
2233,0,,,,-0.05,-0.02,0.97,0,-0,-0,0.05,0,,,,,,,
2238,0,,,,-0.02,-0.02,1.01,0,-0,-0,0.03,0,,,,,,,
2243,0,2.79,1.991,,-0.01,-0.02,1.0,0,0,-0,0.02,0,0.0,0.0,0.0,0.0,0,0,0.0
2248,0,,,,0.01,-0.01,0.95,0,-0,-0,0.01,0,,,,,,,
2253,0,,,,0.0,-0.02,0.98,0,-0,-0,0.02,0,,,,,,,
2258,0,,,,0.0,-0.02,1.0,0,0,-0,0.02,0,,,,,,,
2383,0,,,,-0.01,-0.01,0.99,0,0,-0,0.02,0,,,,,,,
2388,0,,,,-0.01,-0.01,0.95,0,-0,-0,0.02,0,,,,,,,
2393,0,,,,-0.03,-0.02,1.01,0,-0,-0,0.04,0,,,,,,,
2398,0,,,,-0.04,-0.04,1.02,0,0,-0,0.05,0,,,,,,,
2403,0,2.74,2.08,,-0.05,-0.03,0.97,0,-0,-0,0.06,0,,,,,,,
2408,0,,,,-0.05,-0.04,0.98,0,-0,-0,0.06,0,,,,,,,
2413,0,,,,-0.02,-0.03,1.02,0,0,-0,0.04,0,,,,,,,
2418,0,,,,-0.02,-0.03,1.01,0,0,-0,0.04,0,,,,,,,
2423,0,,,,0.0,-0.02,0.98,0,-0,-0,0.02,0,,,,,,,
2428,0,,,,0.0,-0.03,1.0,0,0,-0,0.03,0,,,,,,,
2433,0,,,,-0.02,-0.05,1.01,0,0,-0,0.06,0,,,,,,,
2438,0,,,,-0.04,-0.04,0.96,0,0,-0,0.06,0,,,,,,,
2443,0,2.72,1.741,,-0.03,-0.05,0.99,0,-0,-0,0.05,0,0.0,0.0,0.0,0.0,0,0,0.0
2448,0,,,,-0.0,-0.04,1.02,0,-0,-0,0.04,0,,,,,,,
2453,0,,,,0.0,-0.03,0.98,0,0,-0,0.03,0,,,,,,,
2458,0,,,,-0.01,-0.03,0.96,0,-0,-0,0.03,0,,,,,,,
2463,0,,,,-0.02,-0.04,1.01,0,0,-0,0.04,0,,,,,,,
2468,0,,,,-0.03,-0.05,1.0,0,0,-0,0.06,0,,,,,,,
2473,0,,,,-0.04,-0.05,0.96,0,-0,-0,0.06,0,,,,,,,
2478,0,,,,-0.04,-0.05,0.99,0,-0,-0,0.07,0,,,,,,,
2578,0,,,,-0.05,-0.02,0.98,0,-0,-0,0.06,0,,,,,,,
2583,0,,,,-0.03,-0.02,1.02,0,-0,-0,0.04,0,,,,,,,
2588,0,,,,-0.02,-0.02,1.0,0,0,-0,0.03,0,,,,,,,
2593,0,,,,-0.0,-0.01,0.94,0,0,-0,0.01,0,,,,,,,
2598,0,,,,-0.01,-0.02,0.98,0,-0,-0,0.02,0,,,,,,,
2603,0,2.77,2.823,,-0.02,-0.02,1.0,0,0,-0,0.03,0,,,,,,,
2608,0,,,,-0.04,-0.03,0.97,0,0,-0,0.05,0,,,,,,,
2613,0,,,,-0.04,-0.02,0.95,0,-0,-0,0.04,0,,,,,,,
2618,0,,,,-0.03,-0.02,1.0,0,0,-0,0.03,0,,,,,,,
2623,0,,,,-0.01,-0.02,1.0,0,0,-0,0.02,0,,,,,,,
2628,0,,,,0.01,-0.01,0.96,0,0,-0,0.01,0,,,,,,,
2728,0,,,,-0.0,-0.02,0.96,0,0,-0,0.02,0,,,,,,,
2733,0,,,,-0.01,-0.01,0.97,0,-0,-0,0.02,0,,,,,,,
2738,0,,,,-0.02,-0.02,1.02,0,0,-0,0.02,0,,,,,,,
2743,0,,,,-0.04,-0.03,0.99,0,0,-0,0.05,0,0.0,0.0,0.0,0.0,0,0,0.0
2748,0,,,,-0.03,-0.02,0.96,0,-0,-0,0.04,0,,,,,,,
2753,0,,,,-0.04,-0.03,1.01,0,-0,0,0.05,0,,,,,,,
2758,0,,,,-0.0,-0.03,1.02,0,0,-0,0.03,0,,,,,,,
2763,0,2.72,1.799,,0.0,-0.03,0.99,0,0,-0,0.03,0,,,,,,,
2768,0,,,,0.0,-0.01,0.99,0,-0,-0,0.01,0,,,,,,,
2773,0,,,,-0.02,-0.02,1.03,0,0,-0,0.03,0,,,,,,,
2873,0,,,,-0.02,-0.03,1.0,0,-0,-0,0.04,0,,,,,,,
2878,0,,,,-0.04,-0.03,1.01,0,0,-0,0.05,0,,,,,,,
2883,0,2.75,2.489,,-0.05,-0.03,0.96,0,-0,-0,0.06,0,,,,,,,
2888,0,,,,-0.05,-0.04,0.98,0,-0,-0,0.07,0,,,,,,,
2893,0,,,,-0.01,-0.03,1.02,0,-0,-0,0.03,0,,,,,,,
2898,0,,,,-0.0,-0.03,1.0,0,0,-0,0.03,0,,,,,,,
2903,0,,,,0.01,-0.02,0.97,0,-0,-0,0.02,0,,,,,,,
2908,0,,,,0.01,-0.03,0.99,0,-0,-0,0.03,0,,,,,,,
2913,0,,,,-0.03,-0.05,1.01,0,0,-0,0.05,0,,,,,,,
2918,0,,,,-0.04,-0.04,0.95,0,0,-0,0.06,0,,,,,,,
3018,0,,,,-0.03,-0.03,0.97,0,0,-0,0.04,0,,,,,,,
3023,0,,,,-0.04,-0.03,0.97,0,-1,-0,0.05,0,,,,,,,
3028,0,,,,-0.02,-0.02,1.03,0,-0,-0,0.03,0,,,,,,,
3033,0,,,,0.01,-0.02,1.01,0,0,-0,0.02,0,,,,,,,
3038,0,,,,0.02,-0.01,0.97,0,-0,-0,0.02,0,,,,,,,
3043,0,2.62,1.623,13.37,0.01,-0.02,0.99,0,-0,-0,0.02,0,0.0,0.0,0.0,0.0,0,0,0.0
3048,0,,,,-0.02,-0.03,1.01,0,0,-0,0.04,0,,,,,,,
3053,0,,,,-0.05,-0.02,0.97,0,0,-0,0.05,0,,,,,,,
3058,0,,,,-0.04,-0.03,0.98,0,-0,-0,0.05,0,,,,,,,
3063,0,,,,-0.01,-0.02,1.02,0,-0,-0,0.03,0,,,,,,,
3168,0,,,,-0.02,-0.03,1.03,0,0,-0,0.04,0,,,,,,,
3173,0,,,,-0.0,-0.02,0.99,0,0,-0,0.02,0,,,,,,,
3178,0,,,,-0.01,-0.01,0.99,0,-0,-0,0.02,0,,,,,,,
3183,0,,,,-0.03,-0.02,1.03,0,0,-0,0.04,0,,,,,,,
3188,0,,,,-0.07,-0.03,1.01,0,1,-0,0.08,0,,,,,,,
3193,0,,,,-0.08,-0.03,0.98,0,0,-0,0.08,0,,,,,,,
3198,0,,,,-0.05,-0.03,1.04,0,-0,-0,0.06,0,,,,,,,
3203,0,2.52,2.093,,-0.04,-0.04,1.02,0,0,-0,0.05,0,,,,,,,
3208,0,,,,-0.03,-0.02,0.98,0,-0,-0,0.04,0,,,,,,,
3213,0,,,,-0.04,-0.02,1.02,0,-0,-0,0.05,0,,,,,,,
3218,0,,,,-0.04,-0.01,1.05,0,1,-0,0.04,0,,,,,,,
3223,0,,,,-0.06,-0.01,0.99,0,1,-0,0.06,0,,,,,,,
3228,0,,,,-0.07,-0.02,0.98,0,-0,-0,0.07,0,,,,,,,
3233,0,,,,-0.03,-0.02,1.03,0,-0,-0,0.04,0,,,,,,,
3238,0,,,,-0.01,-0.02,1.02,0,0,-0,0.02,0,,,,,,,
3243,0,2.49,1.391,,-0.01,-0.01,0.98,0,-0,-0,0.01,0,0.0,0.0,0.0,0.0,0,0,0.0
3248,0,,,,-0.0,-0.02,1.0,0,-0,-0,0.02,0,,,,,,,
3253,0,,,,-0.02,-0.03,1.03,0,1,-0,0.04,0,,,,,,,
3258,0,,,,-0.05,-0.02,0.98,0,1,-0,0.05,0,,,,,,,
3263,0,,,,-0.04,-0.03,0.98,0,-0,-0,0.05,0,,,,,,,
3268,0,,,,-0.02,-0.02,1.02,0,-0,-0,0.03,0,,,,,,,
3273,0,,,,0.0,-0.02,0.97,0,0,-0,0.02,0,,,,,,,
3278,0,,,,-0.01,-0.01,0.97,0,-0,0,0.02,0,,,,,,,
3283,0,2.51,0.715,,-0.03,-0.03,1.04,0,-0,0,0.04,0,,,,,,,
3288,0,,,,-0.05,-0.03,1.04,0,1,0,0.06,0,,,,,,,
3293,0,,,,-0.05,-0.02,0.97,0,0,0,0.06,0,,,,,,,
3298,0,,,,-0.05,-0.03,0.99,0,-0,0,0.05,0,,,,,,,
3303,0,,,,-0.01,-0.03,1.02,1,-0,0,0.03,0,,,,,,,
3308,0,,,,0.0,-0.03,0.98,1,-0,0,0.03,0,,,,,,,
3313,0,,,,0.0,-0.02,0.97,1,-0,0,0.02,0,,,,,,,
3318,0,,,,-0.0,-0.03,1.01,1,-0,0,0.03,0,,,,,,,
3323,0,2.47,2.328,,-0.02,-0.04,0.99,1,1,0,0.04,0,,,,,,,
3328,0,,,,-0.02,-0.03,0.95,1,0,0,0.04,0,,,,,,,
3333,0,,,,0.0,-0.04,0.97,1,-0,0,0.04,0,,,,,,,
3338,0,,,,0.01,-0.04,1.01,1,-0,0,0.04,0,,,,,,,
3343,0,,,,0.02,-0.02,0.95,1,-0,0,0.03,0,0.0,0.0,0.0,0.0,0,0,0.0
3348,0,,,,0.01,-0.02,0.98,1,-1,0,0.02,0,,,,,,,
3353,0,,,,0.0,-0.02,1.03,1,-0,0,0.02,0,,,,,,,
3358,0,,,,-0.0,-0.03,0.99,1,1,0,0.03,0,,,,,,,
3363,0,2.43,4.023,,-0.0,-0.02,0.95,1,0,1,0.02,0,,,,,,,
3368,0,,,,0.01,-0.04,0.97,1,-0,1,0.05,0,,,,,,,
3373,0,,,,0.04,-0.05,1.0,1,-0,1,0.06,0,,,,,,,
3378,0,,,,0.05,-0.04,0.96,1,-0,1,0.06,0,,,,,,,
3383,0,,,,0.04,-0.03,0.95,1,-0,1,0.05,0,,,,,,,
3388,0,,,,0.03,-0.04,0.98,1,0,1,0.05,0,,,,,,,
3393,0,,,,-0.01,-0.04,0.95,1,1,0,0.04,0,,,,,,,
3398,0,,,,-0.01,-0.03,0.91,1,0,0,0.04,0,,,,,,,
3403,0,2.36,4.413,,0.02,-0.04,0.95,1,-0,0,0.05,0,,,,,,,
3408,0,,,,0.03,-0.04,0.94,1,-0,0,0.05,0,,,,,,,
3413,0,,,,0.03,-0.02,0.89,1,-0,0,0.04,0,,,,,,,
3418,0,,,,0.02,-0.03,0.95,1,-0,0,0.03,0,,,,,,,
3423,0,,,,0.02,-0.03,0.98,1,1,0,0.03,0,,,,,,,
3428,0,,,,0.01,-0.04,0.89,1,1,0,0.04,0,,,,,,,
3433,0,,,,0.02,-0.02,0.87,1,0,0,0.03,0,,,,,,,
3438,0,,,,0.04,-0.02,0.93,1,0,0,0.04,0,,,,,,,
3443,0,2.38,4.275,,0.06,-0.03,0.94,1,0,0,0.07,0,0.0,0.0,0.0,0.0,0,0,0.0
3448,0,,,,0.06,-0.03,0.9,1,0,0,0.07,0,,,,,,,
3453,0,,,,0.04,-0.04,0.92,1,0,0,0.05,0,,,,,,,
3458,0,,,,0.01,-0.05,0.96,1,0,0,0.05,0,,,,,,,
3463,0,,,,-0.04,-0.05,0.97,0,1,0,0.07,0,,,,,,,
3468,0,,,,-0.05,-0.04,0.98,0,0,0,0.07,0,,,,,,,
3473,0,,,,-0.04,-0.04,1.02,0,0,0,0.05,0,,,,,,,
3478,0,,,,-0.02,-0.04,1.0,0,0,0,0.04,0,,,,,,,
3483,0,2.41,4.184,,-0.02,-0.04,0.96,0,-0,-0,0.04,0,,,,,,,
3488,0,,,,-0.02,-0.03,1.0,0,0,-0,0.04,0,,,,,,,
3493,0,,,,-0.03,-0.03,1.0,0,1,-0,0.04,0,,,,,,,
3498,0,,,,-0.06,-0.03,0.98,0,1,-0,0.07,0,,,,,,,
3503,0,,,,-0.08,-0.04,1.02,0,0,0,0.09,0,,,,,,,
3508,0,,,,-0.05,-0.03,1.05,0,0,0,0.06,0,,,,,,,
3513,0,,,,-0.04,-0.03,1.03,0,0,-0,0.05,0,,,,,,,
3518,0,,,,-0.02,-0.01,1.0,0,-0,-0,0.03,0,,,,,,,
3523,0,2.4,3.715,,-0.01,-0.02,1.01,1,-0,-0,0.02,0,,,,,,,
3528,0,,,,-0.03,-0.03,1.03,1,0,-0,0.05,0,,,,,,,
3533,0,,,,-0.04,-0.03,0.95,0,1,0,0.05,0,,,,,,,
3538,0,,,,-0.02,-0.03,0.95,0,0,0,0.04,0,,,,,,,
3543,0,,,,-0.01,-0.03,0.99,0,0,0,0.03,0,0.0,0.0,0.0,0.0,0,0,0.0
3548,0,,,,0.0,-0.02,0.95,1,-0,0,0.02,0,,,,,,,
3553,0,,,,-0.01,-0.02,0.96,1,-0,0,0.02,0,,,,,,,
3558,0,,,,-0.01,-0.03,1.0,1,0,0,0.03,0,,,,,,,
3563,0,2.45,3.18,,-0.02,-0.03,1.0,1,1,0,0.04,0,,,,,,,
3568,0,,,,-0.04,-0.04,0.96,1,0,1,0.05,0,,,,,,,
3573,0,,,,-0.04,-0.05,1.0,1,-0,1,0.07,0,,,,,,,
3578,0,,,,-0.0,-0.05,1.02,1,-0,0,0.05,0,,,,,,,
3583,0,,,,0.01,-0.04,0.99,1,-0,0,0.04,0,,,,,,,
3588,0,,,,0.02,-0.03,0.96,1,-0,0,0.03,0,,,,,,,
3593,0,,,,0.01,-0.04,0.99,1,-0,0,0.04,0,,,,,,,
3598,0,,,,-0.01,-0.05,0.99,1,0,0,0.06,0,,,,,,,
3603,0,2.43,3.34,,-0.04,-0.05,0.98,0,0,0,0.06,0,,,,,,,
3608,0,,,,-0.03,-0.03,1.03,0,-0,-0,0.04,0,,,,,,,
3613,0,,,,-0.03,-0.02,1.05,0,0,-0,0.03,0,,,,,,,
3618,0,,,,-0.0,0.01,0.99,0,-0,-0,0.01,0,,,,,,,
3623,0,,,,-0.0,-0.0,1.0,0,-1,-0,0.0,0,,,,,,,
3628,0,,,,-0.01,0.0,1.05,0,0,-0,0.01,0,,,,,,,
3633,0,,,,-0.02,0.01,1.01,0,1,-0,0.03,0,,,,,,,
3638,0,,,,-0.02,0.01,0.96,1,-0,0,0.02,0,,,,,,,
3643,0,2.42,3.384,,-0.01,-0.01,1.0,1,-0,0,0.01,0,0.0,0.0,0.0,0.0,0,0,0.0
3648,0,,,,0.02,-0.02,1.0,1,-0,0,0.03,0,,,,,,,
3653,0,,,,0.03,-0.01,0.96,1,-0,0,0.03,0,,,,,,,
3658,0,,,,0.02,-0.01,0.96,1,-0,0,0.03,0,,,,,,,
3663,0,,,,0.01,-0.02,0.98,0,0,0,0.03,0,,,,,,,
3668,0,,,,-0.04,-0.04,0.97,0,1,0,0.05,0,,,,,,,
3673,0,,,,-0.05,-0.03,0.95,0,0,0,0.06,0,,,,,,,
3678,0,,,,-0.02,-0.03,1.0,0,-0,0,0.04,0,,,,,,,
3683,0,2.42,3.699,,-0.0,-0.03,0.99,0,0,-0,0.03,0,,,,,,,
3688,0,,,,0.0,-0.01,0.95,0,-0,-0,0.01,0,,,,,,,
3693,0,,,,-0.02,-0.02,1.01,0,-0,-0,0.02,0,,,,,,,
3698,0,,,,-0.02,-0.01,1.03,0,1,-0,0.02,0,,,,,,,
3703,0,,,,-0.04,-0.02,0.97,0,1,-0,0.05,0,,,,,,,
3708,0,,,,-0.04,-0.02,0.98,0,-0,-0,0.05,0,,,,,,,
3713,0,,,,-0.01,-0.01,1.01,0,-0,-0,0.02,0,,,,,,,
3718,0,,,,0.01,-0.01,1.01,0,0,-0,0.02,0,,,,,,,
3723,0,2.41,3.345,,0.02,-0.0,0.98,0,-0,-0,0.02,0,,,,,,,
3728,0,,,,0.01,-0.0,0.99,0,-0,-0,0.01,0,,,,,,,
3733,0,,,,-0.02,-0.02,1.03,0,1,-0,0.03,0,,,,,,,
3738,0,,,,-0.06,-0.02,1.01,0,1,-0,0.07,0,,,,,,,
3743,0,,,,-0.08,-0.02,1.03,0,0,-0,0.08,0,0.0,0.0,0.0,0.0,0,0,0.0
3748,0,,,,-0.06,-0.01,1.08,0,-0,-0,0.06,0,,,,,,,
3753,0,,,,-0.04,-0.01,1.03,0,-0,-0,0.04,0,,,,,,,
3758,0,,,,-0.04,-0.0,1.0,0,-0,-0,0.04,0,,,,,,,
3763,0,2.51,3.531,,-0.04,-0.01,1.04,0,0,-0,0.05,0,,,,,,,
3768,0,,,,-0.07,-0.01,1.05,0,1,-0,0.08,0,,,,,,,
3773,0,,,,-0.07,-0.02,0.97,0,1,-1,0.08,0,,,,,,,
3778,0,,,,-0.08,-0.01,1.03,0,0,-1,0.09,0,,,,,,,
3783,0,,,,-0.05,-0.01,1.04,0,0,-1,0.05,0,,,,,,,
3788,0,,,,-0.04,-0.01,1.02,0,0,-0,0.04,0,,,,,,,
3793,0,,,,-0.03,0.0,1.0,0,0,-0,0.03,0,,,,,,,
3798,0,,,,-0.01,-0.0,1.0,0,0,-0,0.02,0,,,,,,,
3803,0,2.5,3.092,,-0.04,-0.02,1.01,0,1,-0,0.05,0,,,,,,,
3808,0,,,,-0.04,-0.02,0.94,0,1,-0,0.05,0,,,,,,,
3813,0,,,,-0.02,-0.01,0.98,0,0,-0,0.03,0,,,,,,,
3818,0,,,,-0.01,-0.01,1.0,0,0,-0,0.02,0,,,,,,,
3823,0,,,,0.0,-0.01,0.94,0,0,-0,0.01,0,,,,,,,
3828,0,,,,-0.02,-0.03,0.99,0,-0,-0,0.03,0,,,,,,,
3833,0,,,,-0.02,-0.03,1.03,0,0,-0,0.04,0,,,,,,,
3838,0,,,,-0.06,-0.03,1.01,0,0,-0,0.07,0,,,,,,,
3843,0,2.56,3.328,,-0.1,-0.04,1.04,0,-0,-0,0.11,0,0.0,0.0,0.0,0.0,0,0,0.0
3848,0,,,,-0.1,-0.04,1.1,0,-0,-0,0.1,0,,,,,,,
3853,0,,,,-0.08,-0.02,1.1,0,-0,-1,0.08,0,,,,,,,
3858,0,,,,-0.06,-0.01,1.06,0,-0,-1,0.06,0,,,,,,,
3863,0,,,,-0.07,-0.01,1.09,0,-0,-1,0.07,0,,,,,,,
3868,0,,,,-0.1,-0.02,1.13,0,0,-1,0.1,0,,,,,,,
3873,0,,,,-0.12,-0.0,1.09,0,1,-1,0.12,0,,,,,,,
3878,0,,,,-0.11,-0.0,1.05,0,-0,-0,0.11,0,,,,,,,
3883,0,2.56,3.498,,-0.08,-0.02,1.08,0,-0,-0,0.08,0,,,,,,,
3888,0,,,,-0.05,-0.03,1.04,0,-0,-0,0.06,0,,,,,,,
3893,0,,,,-0.04,-0.01,0.99,0,-1,-0,0.04,0,,,,,,,
3898,0,,,,-0.03,-0.03,1.02,0,-0,-0,0.04,0,,,,,,,
3903,0,,,,-0.03,-0.03,1.03,0,1,-0,0.05,0,,,,,,,
3908,0,,,,-0.05,-0.03,0.95,0,1,-1,0.05,0,,,,,,,
3913,0,,,,-0.05,-0.02,0.96,0,0,-1,0.06,0,,,,,,,
3918,0,,,,-0.02,-0.02,1.01,0,0,-1,0.03,0,,,,,,,
3923,0,2.55,3.249,,-0.0,-0.03,0.98,0,0,-0,0.03,0,,,,,,,
3928,0,,,,0.0,-0.02,0.96,0,-0,-0,0.02,0,,,,,,,
3933,0,,,,-0.0,-0.03,0.99,0,0,-0,0.03,0,,,,,,,
3938,0,,,,-0.02,-0.05,1.01,0,1,-0,0.06,0,,,,,,,
3943,0,,,,-0.04,-0.03,0.96,0,1,-0,0.05,0,0.0,0.0,0.0,0.0,0,0,0.0
3948,0,,,,-0.02,-0.04,0.96,0,0,0,0.04,0,,,,,,,
3953,0,,,,-0.0,-0.04,1.0,0,0,-0,0.04,0,,,,,,,
3958,0,,,,0.02,-0.04,0.92,0,0,-0,0.04,0,,,,,,,
3963,0,2.5,3.374,,-0.0,-0.05,0.93,0,-0,0,0.05,0,,,,,,,
3968,0,,,,-0.01,-0.05,0.99,0,0,-0,0.06,0,,,,,,,
3973,0,,,,-0.04,-0.07,0.99,0,1,-0,0.08,0,,,,,,,
3978,0,,,,-0.05,-0.06,0.93,0,1,-0,0.07,0,,,,,,,
3983,0,,,,-0.04,-0.05,0.95,0,0,0,0.07,0,,,,,,,
3988,0,,,,-0.01,-0.06,0.98,0,0,-0,0.06,0,,,,,,,
3993,0,,,,0.01,-0.05,0.96,0,0,-0,0.05,0,,,,,,,
3998,0,,,,-0.0,-0.04,0.94,0,-0,0,0.04,0,,,,,,,
4003,0,2.52,3.265,,-0.01,-0.05,0.98,0,0,0,0.05,0,,,,,,,
4008,0,,,,-0.04,-0.06,0.97,0,1,0,0.07,0,,,,,,,
4013,0,,,,-0.05,-0.05,0.95,1,1,0,0.07,0,,,,,,,
4018,0,,,,-0.01,-0.06,0.97,1,0,0,0.06,0,,,,,,,
4023,0,,,,-0.01,-0.06,0.98,1,0,0,0.06,0,,,,,,,
4028,0,,,,0.01,-0.04,0.91,0,-0,0,0.04,0,,,,,,,
4033,0,,,,0.01,-0.05,0.94,0,-1,-0,0.05,0,,,,,,,
4038,0,,,,0.02,-0.03,0.97,0,0,-0,0.04,0,,,,,,,
4043,0,2.45,3.254,13.4,-0.02,-0.04,0.94,0,0,-0,0.04,0,0.0,0.0,0.0,0.0,0,0,0.0
4048,0,,,,-0.01,-0.03,0.91,0,0,-0,0.03,0,,,,,,,
4053,0,,,,-0.01,-0.03,0.97,0,0,-0,0.03,0,,,,,,,
4058,0,,,,0.02,-0.03,0.96,0,0,-0,0.04,0,,,,,,,
4063,0,,,,0.03,-0.03,0.93,0,-0,-0,0.04,0,,,,,,,
4068,0,,,,0.03,-0.02,0.93,0,-0,-0,0.03,0,,,,,,,
4073,0,,,,-0.0,-0.02,0.97,0,0,-0,0.02,0,,,,,,,
4078,0,,,,-0.05,-0.02,0.95,0,1,-0,0.05,0,,,,,,,
4083,0,2.41,3.095,,-0.03,-0.02,0.9,0,0,-0,0.03,0,,,,,,,
4088,0,,,,0.0,-0.01,0.95,0,0,-0,0.01,0,,,,,,,
4093,0,,,,0.02,-0.02,0.92,1,-0,-0,0.02,0,,,,,,,
4098,0,,,,0.02,-0.01,0.88,0,-1,-0,0.02,0,,,,,,,
4103,0,,,,0.01,-0.02,0.94,1,-0,-0,0.02,0,,,,,,,
4108,0,,,,-0.0,-0.02,0.96,1,1,-0,0.02,0,,,,,,,
4113,0,,,,-0.04,-0.03,0.92,0,0,-0,0.05,0,,,,,,,
4118,0,,,,-0.08,-0.03,0.98,0,-0,-0,0.08,0,,,,,,,
4123,0,2.35,3.128,,-0.04,-0.01,1.01,0,-0,-0,0.04,0,,,,,,,
4128,0,,,,-0.02,-0.01,0.99,0,-0,-0,0.03,0,,,,,,,
4133,0,,,,-0.0,-0.0,0.96,0,-0,-0,0.0,0,,,,,,,
4138,0,,,,-0.01,-0.02,1.0,0,-0,-0,0.02,0,,,,,,,
4143,0,,,,-0.04,-0.03,1.02,0,1,-0,0.05,0,0.0,0.0,0.0,0.0,0,0,0.0
4148,0,,,,-0.06,-0.0,0.97,0,0,-0,0.06,0,,,,,,,
4153,0,,,,-0.03,-0.02,0.97,1,-0,-0,0.03,0,,,,,,,
4158,0,,,,-0.02,-0.02,1.02,1,-0,-0,0.03,0,,,,,,,
4163,0,2.36,3.488,,-0.0,-0.02,0.95,1,-0,-0,0.02,0,,,,,,,
4168,0,,,,-0.0,-0.01,0.96,0,-0,-0,0.01,0,,,,,,,
4173,0,,,,-0.01,-0.02,1.01,0,0,-0,0.02,0,,,,,,,
4178,0,,,,-0.03,-0.03,0.99,1,0,-0,0.04,0,,,,,,,
4183,0,,,,-0.07,-0.03,0.97,0,-1,-0,0.07,0,,,,,,,
4188,0,,,,-0.07,-0.05,1.03,0,-1,0,0.08,0,,,,,,,
4193,0,,,,-0.03,-0.03,1.05,0,-1,-0,0.04,0,,,,,,,
4198,0,,,,-0.01,-0.02,1.02,0,-1,-0,0.02,0,,,,,,,
4203,0,2.36,3.194,,-0.01,-0.0,1.0,0,-1,-0,0.01,0,,,,,,,
4208,0,,,,-0.02,-0.01,1.04,0,0,-1,0.02,0,,,,,,,
4213,0,,,,-0.06,-0.02,1.0,0,1,-1,0.06,0,,,,,,,
4218,0,,,,-0.06,-0.0,0.97,0,-0,-1,0.06,0,,,,,,,
4223,0,,,,-0.03,-0.0,1.01,0,-1,-1,0.03,0,,,,,,,
4228,0,,,,0.0,-0.01,0.99,0,-0,-1,0.01,0,,,,,,,
4233,0,,,,0.01,0.0,0.93,0,-0,-1,0.01,0,,,,,,,
4238,0,,,,-0.01,-0.01,0.99,0,0,-1,0.01,0,,,,,,,
4243,0,2.34,3.4,,-0.02,-0.0,1.02,0,1,-0,0.02,0,0.0,0.0,0.0,0.0,0,0,0.0
4248,0,,,,-0.05,-0.02,0.97,0,0,-0,0.05,0,,,,,,,
4253,0,,,,-0.06,-0.03,0.98,0,-1,-0,0.07,0,,,,,,,
4258,0,,,,-0.04,-0.03,1.03,0,-1,-0,0.05,0,,,,,,,
4263,0,,,,-0.02,-0.02,1.01,0,-0,-0,0.03,0,,,,,,,
4268,0,,,,-0.0,-0.01,0.97,0,-0,-0,0.01,0,,,,,,,
4273,0,,,,-0.01,-0.02,0.99,0,0,-0,0.03,0,,,,,,,
4278,0,,,,-0.05,-0.04,1.01,0,1,-1,0.06,0,,,,,,,
4283,0,2.38,3.056,,-0.07,-0.02,0.96,0,1,-0,0.07,0,,,,,,,
4288,0,,,,-0.05,-0.02,0.98,0,-0,-0,0.06,0,,,,,,,
4293,0,,,,-0.03,-0.02,1.02,0,-0,-0,0.04,0,,,,,,,
4298,0,,,,-0.01,-0.02,0.95,0,-0,-0,0.03,0,,,,,,,
4303,0,,,,-0.01,-0.02,0.94,0,-0,-0,0.02,0,,,,,,,
4308,0,,,,-0.02,-0.03,1.01,0,1,-0,0.03,0,,,,,,,
4313,0,,,,-0.04,-0.03,0.98,0,1,-0,0.05,0,,,,,,,
4318,0,,,,-0.03,-0.02,0.92,0,0,-0,0.04,0,,,,,,,
4323,0,2.39,3.149,,-0.02,-0.03,0.94,0,-0,0,0.04,0,,,,,,,
4328,0,,,,0.02,-0.04,0.96,0,0,0,0.04,0,,,,,,,
4333,0,,,,0.04,-0.03,0.93,0,0,-0,0.05,0,,,,,,,
4338,0,,,,0.03,-0.02,0.92,0,-0,-0,0.03,0,,,,,,,
4343,0,,,,0.02,-0.03,0.97,0,1,-0,0.03,0,0.0,0.0,0.0,0.0,0,0,0.0
4348,0,,,,-0.03,-0.04,0.95,0,1,-0,0.05,0,,,,,,,
4353,0,,,,-0.06,-0.04,0.95,0,-0,-0,0.07,0,,,,,,,
4358,0,,,,-0.05,-0.04,1.02,0,-1,-0,0.06,0,,,,,,,
4363,0,2.39,3.611,,-0.02,-0.03,1.01,0,-0,-0,0.04,0,,,,,,,
4368,0,,,,0.0,-0.02,0.95,0,-1,-0,0.02,0,,,,,,,
4373,0,,,,0.0,-0.02,0.98,0,-0,-1,0.02,0,,,,,,,
4378,0,,,,-0.01,-0.01,1.02,0,1,-1,0.01,0,,,,,,,
4383,0,,,,-0.03,-0.0,0.96,0,0,-1,0.03,0,,,,,,,
4388,0,,,,-0.05,-0.0,0.95,0,-1,-0,0.05,0,,,,,,,
4393,0,,,,-0.02,-0.01,1.01,0,-1,-1,0.02,0,,,,,,,
4398,0,,,,0.01,-0.0,0.98,0,-1,-1,0.01,0,,,,,,,
4403,0,2.37,3.221,,0.03,0.02,0.96,0,-0,-1,0.03,0,,,,,,,
4408,0,,,,0.02,0.01,0.96,0,-0,-1,0.02,0,,,,,,,
4433,0,,,,0.0,0.0,0.95,0,-1,-0,0.0,0,,,,,,,
4438,0,,,,0.01,0.01,0.94,0,-1,-0,0.01,0,,,,,,,
4443,0,2.36,3.263,,0.0,-0.0,0.99,0,0,-0,0.0,0,0.0,0.0,0.0,0.0,0,0,0.0
4448,0,,,,-0.03,-0.02,0.99,0,1,-0,0.04,0,,,,,,,
4453,0,,,,-0.04,-0.02,0.93,0,-0,-0,0.05,0,,,,,,,
4458,0,,,,-0.04,-0.01,0.96,0,-0,-0,0.04,0,,,,,,,
4483,0,2.36,2.983,,-0.04,-0.02,0.98,0,1,-0,0.05,0,,,,,,,
4488,0,,,,-0.05,-0.02,0.94,0,-0,0,0.05,0,,,,,,,
4493,0,,,,-0.03,-0.03,0.99,0,-1,0,0.04,0,,,,,,,
4498,0,,,,-0.01,-0.03,0.99,0,-0,0,0.03,0,,,,,,,
4503,0,,,,0.0,-0.02,0.93,0,-0,0,0.02,0,,,,,,,
4508,0,,,,-0.01,-0.03,0.98,0,-0,0,0.03,0,,,,,,,
4513,0,,,,-0.01,-0.03,1.01,0,1,-0,0.03,0,,,,,,,
4518,0,,,,-0.06,-0.04,0.99,0,0,-0,0.07,0,,,,,,,
4523,0,2.32,2.932,,-0.08,-0.02,0.99,0,-1,-0,0.08,0,,,,,,,
4528,0,,,,-0.05,-0.02,1.05,0,-1,-0,0.05,0,,,,,,,
4533,0,,,,-0.02,-0.01,1.04,0,-0,-0,0.02,0,,,,,,,
4538,0,,,,-0.0,-0.0,0.99,0,-0,-0,0.0,0,,,,,,,
4543,0,,,,-0.01,-0.01,1.02,0,0,-0,0.01,0,0.0,0.0,0.0,0.0,0,0,0.0
4548,0,,,,-0.05,-0.02,1.04,0,1,-0,0.06,0,,,,,,,
4553,0,,,,-0.1,-0.02,1.03,0,0,-1,0.1,0,,,,,,,
4558,0,,,,-0.09,-0.01,1.05,0,-0,-1,0.09,0,,,,,,,
4563,0,2.36,3.516,,-0.07,-0.0,1.09,0,-0,-1,0.07,0,,,,,,,
4568,0,,,,-0.05,0.0,1.03,0,-1,-1,0.05,0,,,,,,,
4573,0,,,,-0.04,0.01,1.02,0,-1,-1,0.04,0,,,,,,,
4578,0,,,,-0.04,-0.0,1.08,0,0,-0,0.04,0,,,,,,,
4583,0,,,,-0.08,-0.02,1.06,0,0,-0,0.08,0,,,,,,,
4588,0,,,,-0.13,-0.02,1.07,0,-0,-0,0.13,0,,,,,,,
4593,0,,,,-0.12,-0.02,1.13,0,-1,-0,0.12,0,,,,,,,
4598,0,,,,-0.07,-0.0,1.15,0,-1,-1,0.07,0,,,,,,,
4603,0,2.34,3.39,,-0.05,0.02,1.11,0,-1,-1,0.05,0,,,,,,,
4608,0,,,,-0.05,0.03,1.11,0,-1,-1,0.06,0,,,,,,,
4613,0,,,,-0.07,0.01,1.13,0,0,-1,0.07,0,,,,,,,
4618,0,,,,-0.1,0.01,1.09,0,1,-1,0.1,0,,,,,,,
4623,0,,,,-0.07,0.0,1.07,0,-0,-0,0.07,0,,,,,,,
4628,0,,,,-0.04,-0.01,1.11,0,-1,-0,0.04,0,,,,,,,
4633,0,,,,0.0,-0.02,1.04,0,-1,-1,0.02,0,,,,,,,
4638,0,,,,0.01,-0.01,1.0,0,-1,-1,0.02,0,,,,,,,
4643,0,2.37,3.438,,-0.01,-0.02,1.06,0,0,-1,0.03,0,0.0,0.0,0.0,0.0,0,0,0.0
4648,0,,,,-0.05,-0.02,1.08,0,1,-1,0.06,0,,,,,,,
4653,0,,,,-0.07,-0.03,1.02,0,0,-1,0.08,0,,,,,,,
4658,0,,,,-0.08,-0.03,1.05,0,-0,-1,0.09,0,,,,,,,
4663,0,,,,-0.03,-0.03,1.07,0,-0,-1,0.04,0,,,,,,,
4668,0,,,,-0.01,-0.03,1.03,0,-0,-1,0.03,0,,,,,,,
4673,0,,,,-0.01,-0.02,1.01,0,-1,-1,0.02,0,,,,,,,
4678,0,,,,-0.01,-0.03,1.05,0,0,-1,0.03,0,,,,,,,
4683,0,2.33,2.988,,-0.07,-0.04,1.06,0,1,-1,0.08,0,,,,,,,
4688,0,,,,-0.06,-0.02,0.96,0,1,-0,0.07,0,,,,,,,
4693,0,,,,-0.04,-0.03,1.0,0,-0,-0,0.05,0,,,,,,,
4698,0,,,,-0.01,-0.03,1.01,0,-0,-0,0.03,0,,,,,,,
4703,0,,,,-0.01,-0.02,0.96,0,-0,-0,0.03,0,,,,,,,
4708,0,,,,-0.02,-0.03,0.99,0,-0,-0,0.04,0,,,,,,,
4713,0,,,,-0.01,-0.03,1.01,0,1,-0,0.03,0,,,,,,,
4718,0,,,,-0.03,-0.04,0.99,0,1,-0,0.05,0,,,,,,,
4723,0,2.33,3.274,,-0.05,-0.03,0.98,0,-0,-0,0.06,0,,,,,,,
4728,0,,,,-0.05,-0.04,1.06,0,-1,-0,0.06,0,,,,,,,
4733,0,,,,-0.01,-0.03,1.03,0,-1,-0,0.03,0,,,,,,,
4738,0,,,,-0.01,-0.01,1.02,0,-1,-0,0.01,0,,,,,,,
4743,0,,,,-0.02,-0.01,1.04,0,-1,-0,0.02,0,0.0,0.0,0.0,0.0,0,0,0.0
4748,0,,,,-0.04,-0.03,1.07,0,0,-0,0.05,0,,,,,,,
4753,0,,,,-0.06,-0.02,1.03,0,0,-0,0.07,0,,,,,,,
4758,0,,,,-0.05,-0.02,1.03,0,-1,-0,0.05,0,,,,,,,
4763,0,2.38,3.635,,-0.05,-0.03,1.08,0,-1,-0,0.06,0,,,,,,,
4768,0,,,,-0.01,-0.02,0.99,0,-1,-0,0.02,0,,,,,,,
4773,0,,,,0.02,-0.02,0.94,0,-1,-1,0.02,0,,,,,,,
4778,0,,,,0.01,-0.01,1.0,0,-1,-1,0.02,0,,,,,,,
4783,0,,,,-0.03,-0.02,1.0,0,0,-1,0.03,0,,,,,,,
4788,0,,,,-0.07,-0.02,0.99,0,0,-1,0.07,0,,,,,,,
4793,0,,,,-0.06,-0.01,1.02,0,-0,-1,0.06,0,,,,,,,
4798,0,,,,-0.0,-0.01,1.05,0,-0,-1,0.01,0,,,,,,,
4803,0,2.41,3.342,,0.0,0.01,1.0,0,-1,-0,0.01,0,,,,,,,
4808,0,,,,-0.01,0.01,1.01,0,-1,0,0.01,0,,,,,,,
4813,0,,,,-0.03,-0.02,1.06,0,0,0,0.03,0,,,,,,,
4818,0,,,,-0.07,-0.01,1.03,1,1,0,0.07,0,,,,,,,
4823,0,,,,-0.05,-0.01,0.97,1,0,0,0.05,0,,,,,,,
4828,0,,,,-0.01,-0.02,1.01,0,-1,0,0.02,0,,,,,,,
4833,0,,,,0.03,-0.02,0.98,0,-1,0,0.04,0,,,,,,,
4838,0,,,,0.05,-0.02,0.9,0,-1,-0,0.05,0,,,,,,,
4843,0,2.5,3.446,,0.03,-0.02,0.95,0,-1,-0,0.04,0,0.0,0.0,0.0,0.0,0,0,0.0
4848,0,,,,0.02,-0.02,0.96,0,0,-0,0.03,0,,,,,,,
4853,0,,,,-0.0,-0.03,0.89,0,-0,-1,0.03,0,,,,,,,
4858,0,,,,-0.02,-0.04,0.94,0,-1,-1,0.04,0,,,,,,,
4863,0,,,,0.03,-0.03,0.97,0,-0,-1,0.04,0,,,,,,,
4868,0,,,,0.05,-0.03,0.96,0,0,-1,0.05,0,,,,,,,
4873,0,,,,0.05,-0.01,0.91,0,-0,-1,0.05,0,,,,,,,
4878,0,,,,0.04,-0.03,0.97,0,-0,-0,0.05,0,,,,,,,
4883,0,2.51,3.022,,-0.01,-0.03,0.97,0,0,-1,0.03,0,,,,,,,
4888,0,,,,-0.03,-0.01,0.92,0,1,-1,0.03,0,,,,,,,
4893,0,,,,-0.02,0.01,0.98,0,0,-0,0.02,0,,,,,,,
4898,0,,,,0.0,0.01,0.97,0,0,-0,0.01,0,,,,,,,
4903,0,,,,0.01,0.02,0.94,0,-1,-0,0.02,0,,,,,,,
4908,0,,,,0.03,0.01,0.96,0,-1,-0,0.03,0,,,,,,,
4913,0,,,,0.02,-0.0,1.0,0,0,-0,0.02,0,,,,,,,
4918,0,,,,0.01,0.01,0.93,1,1,-0,0.01,0,,,,,,,
4923,0,2.61,3.353,,-0.0,0.01,0.92,1,0,0,0.01,0,,,,,,,
4928,0,,,,0.03,-0.01,0.96,1,-0,0,0.03,0,,,,,,,
4933,0,,,,0.06,-0.02,0.96,1,-0,0,0.07,0,,,,,,,
4938,0,,,,0.08,-0.02,0.89,1,-0,0,0.08,0,,,,,,,
4943,0,,,,0.06,-0.01,0.93,1,-0,0,0.07,0,0.0,0.0,0.0,0.0,0,0,0.0
4948,0,,,,0.03,-0.02,0.96,0,1,0,0.03,0,,,,,,,
4953,0,,,,0.01,-0.01,0.86,1,1,0,0.01,0,,,,,,,
4958,0,,,,0.02,-0.01,0.89,1,0,0,0.02,0,,,,,,,
4963,0,2.66,3.817,,0.04,-0.03,0.92,1,0,0,0.05,0,,,,,,,
4968,0,,,,0.06,-0.02,0.88,1,0,0,0.06,0,,,,,,,
4973,0,,,,0.07,-0.03,0.86,1,-0,0,0.08,0,,,,,,,
4978,0,,,,0.07,-0.05,0.9,0,1,0,0.08,0,,,,,,,
4983,0,,,,0.01,-0.05,0.9,0,1,0,0.05,0,,,,,,,
4988,0,,,,-0.04,-0.06,0.92,0,1,0,0.07,0,,,,,,,
4993,0,,,,-0.04,-0.05,1.0,0,-0,0,0.06,0,,,,,,,
4998,0,,,,0.0,-0.05,1.02,0,-0,0,0.05,0,,,,,,,
5003,0,2.63,3.327,,0.02,-0.04,0.99,0,-0,-0,0.04,0,,,,,,,
5008,0,,,,0.01,-0.03,1.0,0,-0,-0,0.03,0,,,,,,,
5013,0,,,,-0.02,-0.05,1.04,0,0,-0,0.05,0,,,,,,,
5018,0,,,,-0.04,-0.05,0.95,0,1,-0,0.06,0,,,,,,,
5023,0,,,,-0.02,-0.04,0.95,0,0,-0,0.05,0,,,,,,,
5028,0,,,,0.01,-0.04,0.97,0,-0,-0,0.04,0,,,,,,,
5033,0,,,,0.06,-0.04,0.92,0,-0,-0,0.07,0,,,,,,,
5038,0,,,,0.04,-0.03,0.94,0,-1,-0,0.05,0,,,,,,,
5043,0,2.65,3.396,13.37,0.01,-0.03,1.01,0,-0,-0,0.03,0,0.0,0.0,0.0,0.0,0,0,0.0
5048,0,,,,-0.04,-0.03,1.05,0,0,-0,0.05,0,,,,,,,
5053,0,,,,-0.09,-0.04,1.05,0,1,-1,0.1,0,,,,,,,
5058,0,,,,-0.1,-0.03,1.09,0,-0,-1,0.11,0,,,,,,,
5063,0,,,,-0.06,-0.02,1.12,0,-1,-1,0.07,0,,,,,,,
5068,0,,,,-0.04,-0.01,1.08,0,-0,-1,0.04,0,,,,,,,
5073,0,,,,-0.03,0.0,1.05,0,-0,-0,0.03,0,,,,,,,
5078,0,,,,-0.04,-0.02,1.1,0,0,-0,0.05,0,,,,,,,
5083,0,2.74,3.098,,-0.08,-0.01,1.05,0,1,-0,0.08,0,,,,,,,
5088,0,,,,-0.08,-0.01,1.01,0,0,0,0.08,0,,,,,,,
5093,0,,,,-0.03,-0.02,1.05,0,-0,0,0.04,0,,,,,,,
5098,0,,,,0.0,-0.02,1.02,0,-0,-0,0.02,0,,,,,,,
5103,0,,,,0.03,-0.02,0.95,0,-0,-0,0.04,0,,,,,,,
5108,0,,,,0.02,-0.03,1.0,0,-0,-0,0.03,0,,,,,,,
5113,0,,,,0.0,-0.04,1.01,0,1,-0,0.04,0,,,,,,,
5118,0,,,,-0.05,-0.06,0.99,0,1,-0,0.08,0,,,,,,,
5123,0,2.81,2.998,,-0.07,-0.04,1.0,0,0,-1,0.08,0,,,,,,,
5128,0,,,,-0.04,-0.03,1.03,0,-0,-1,0.05,0,,,,,,,
5133,0,,,,0.01,-0.03,0.99,0,-0,-1,0.04,0,,,,,,,
5138,0,,,,0.03,-0.02,0.96,0,-0,-0,0.03,0,,,,,,,
5143,0,,,,0.01,-0.03,1.0,0,0,-0,0.03,0,0.0,0.0,0.0,0.0,0,0,0.0
5148,0,,,,-0.02,-0.01,1.0,0,1,-0,0.03,0,,,,,,,
5153,0,,,,-0.04,-0.02,0.96,0,0,0,0.05,0,,,,,,,
5158,0,,,,-0.03,-0.03,1.0,0,-0,0,0.04,0,,,,,,,
5163,0,2.83,3.341,,-0.01,-0.03,1.02,0,-0,-0,0.03,0,,,,,,,
5168,0,,,,0.02,-0.02,0.94,0,-0,-0,0.03,0,,,,,,,
5173,0,,,,0.02,-0.02,0.95,0,-0,-0,0.03,0,,,,,,,
5178,0,,,,0.02,-0.03,1.01,0,1,-0,0.03,0,,,,,,,
5183,0,,,,0.0,-0.02,0.95,0,1,-0,0.02,0,,,,,,,
5188,0,,,,-0.01,-0.02,0.92,0,0,-0,0.02,0,,,,,,,
5193,0,,,,0.03,-0.03,0.96,0,-1,-0,0.05,0,,,,,,,
5198,0,,,,0.06,-0.03,0.95,0,-1,-0,0.07,0,,,,,,,
5203,0,2.83,3.118,,0.07,-0.02,0.91,0,-0,-0,0.08,0,,,,,,,
5208,0,,,,0.05,-0.02,0.95,0,-0,-0,0.06,0,,,,,,,
5213,0,,,,0.02,-0.03,0.99,0,1,-0,0.04,0,,,,,,,
5218,0,,,,-0.01,-0.03,0.94,0,1,0,0.03,0,,,,,,,
5223,0,,,,-0.01,-0.02,0.95,0,-0,0,0.02,0,,,,,,,
5228,0,,,,0.0,-0.02,1.0,0,-0,-0,0.02,0,,,,,,,
5233,0,,,,0.03,-0.0,0.94,0,-1,-0,0.03,0,,,,,,,
5238,0,,,,0.04,-0.01,0.93,0,-1,-0,0.04,0,,,,,,,
5243,0,2.76,3.277,,0.02,-0.01,0.99,0,0,-0,0.03,0,0.0,0.0,0.0,0.0,0,0,0.0
5248,0,,,,-0.03,-0.01,1.0,0,1,-0,0.03,0,,,,,,,
5253,0,,,,-0.03,-0.01,0.92,0,0,-0,0.04,0,,,,,,,
5258,0,,,,-0.03,-0.01,0.98,0,0,0,0.04,0,,,,,,,
5263,0,,,,0.01,-0.01,0.98,0,-0,0,0.02,0,,,,,,,
5268,0,,,,0.03,-0.01,0.96,0,-0,0,0.03,0,,,,,,,
5273,0,,,,0.02,-0.0,0.97,0,-0,0,0.02,0,,,,,,,
5278,0,,,,0.0,-0.03,1.0,0,1,0,0.03,0,,,,,,,
5283,0,2.7,2.89,,-0.05,-0.04,0.95,0,1,-0,0.06,0,,,,,,,
5288,0,,,,-0.07,-0.04,0.98,0,0,-0,0.09,0,,,,,,,
5293,0,,,,-0.05,-0.04,1.04,0,-0,-0,0.07,0,,,,,,,
5298,0,,,,-0.01,-0.04,1.0,0,-0,-0,0.04,0,,,,,,,
5303,0,,,,0.01,-0.04,0.95,0,-1,-1,0.04,0,,,,,,,
5308,0,,,,-0.01,-0.04,1.0,0,0,-1,0.04,0,,,,,,,
5313,0,,,,-0.05,-0.04,1.02,0,1,-1,0.07,0,,,,,,,
5318,0,,,,-0.07,-0.05,0.97,0,1,-1,0.09,0,,,,,,,
5323,0,2.63,3.008,,-0.08,-0.06,1.0,0,0,-1,0.1,0,,,,,,,
5328,0,,,,-0.05,-0.06,1.03,0,0,-1,0.08,0,,,,,,,
5333,0,,,,-0.02,-0.05,1.0,0,-0,-1,0.06,0,,,,,,,
5338,0,,,,-0.01,-0.04,0.99,0,-0,-1,0.04,0,,,,,,,
5343,0,,,,-0.02,-0.05,1.03,0,1,-1,0.06,0,0.0,0.0,0.0,0.0,0,0,0.0
5348,0,,,,-0.08,-0.05,1.0,0,1,-1,0.09,0,,,,,,,
5353,0,,,,-0.12,-0.05,1.02,0,0,-1,0.13,0,,,,,,,
5358,0,,,,-0.1,-0.05,1.08,0,-0,-1,0.11,0,,,,,,,
5363,0,2.61,3.421,,-0.07,-0.04,1.07,0,-0,-1,0.08,0,,,,,,,
5368,0,,,,-0.04,-0.04,1.01,0,-1,-1,0.05,0,,,,,,,
5373,0,,,,-0.04,-0.03,1.05,0,-0,-1,0.06,0,,,,,,,
5378,0,,,,-0.06,-0.03,1.08,0,1,-1,0.06,0,,,,,,,
5383,0,,,,-0.05,-0.03,0.97,0,1,-1,0.06,0,,,,,,,
5388,0,,,,-0.05,-0.01,0.97,0,0,-0,0.05,0,,,,,,,
5393,0,,,,-0.0,-0.03,1.0,0,-0,-0,0.03,0,,,,,,,
5398,0,,,,0.02,-0.03,0.99,0,-0,-0,0.03,0,,,,,,,
5403,0,2.59,3.357,,0.03,-0.02,0.94,0,-0,-0,0.04,0,,,,,,,
5408,0,,,,0.01,-0.04,0.98,0,0,-0,0.04,0,,,,,,,
5413,0,,,,-0.03,-0.05,1.0,0,1,-0,0.06,0,,,,,,,
5418,0,,,,-0.05,-0.03,0.91,0,1,-0,0.06,0,,,,,,,
5423,0,,,,-0.03,-0.03,0.94,0,0,0,0.04,0,,,,,,,
5428,0,,,,-0.01,-0.03,0.96,0,0,0,0.03,0,,,,,,,
5433,0,,,,0.01,-0.03,0.92,0,-0,0,0.03,0,,,,,,,
5438,0,,,,0.01,-0.04,0.93,0,-0,0,0.04,0,,,,,,,
5443,0,2.59,3.747,,0.02,-0.05,0.98,0,1,0,0.05,0,0.0,0.0,0.0,0.0,0,0,0.0
5448,0,,,,-0.03,-0.06,0.96,0,1,0,0.07,0,,,,,,,
5453,0,,,,-0.08,-0.06,0.99,0,0,0,0.1,0,,,,,,,
5458,0,,,,-0.06,-0.05,1.06,0,-0,0,0.08,0,,,,,,,
5463,0,,,,-0.02,-0.04,1.07,0,-0,-0,0.05,0,,,,,,,
5468,0,,,,-0.01,-0.03,1.04,0,-0,-0,0.03,0,,,,,,,
5473,0,,,,-0.03,-0.03,1.06,0,-0,-0,0.04,0,,,,,,,
5478,0,,,,-0.06,-0.04,1.1,0,1,-0,0.07,0,,,,,,,
5483,0,2.57,3.151,,-0.09,-0.04,1.05,0,1,-0,0.1,0,,,,,,,
5488,0,,,,-0.11,-0.03,1.06,0,-0,0,0.11,0,,,,,,,
5493,0,,,,-0.08,-0.02,1.11,0,-1,-0,0.09,0,,,,,,,
5498,0,,,,-0.04,-0.02,1.07,0,-1,-0,0.05,0,,,,,,,
5503,0,,,,-0.05,-0.01,1.07,0,-1,-0,0.05,0,,,,,,,
5508,0,,,,-0.08,-0.02,1.13,0,-0,-0,0.08,0,,,,,,,
5513,0,,,,-0.11,-0.01,1.14,0,0,-0,0.11,0,,,,,,,
5518,0,,,,-0.16,-0.01,1.15,0,0,-1,0.16,0,,,,,,,
5523,0,2.55,3.067,,-0.16,-0.0,1.19,0,-1,-1,0.16,0,,,,,,,
5528,0,,,,-0.11,-0.0,1.21,0,-1,-1,0.11,0,,,,,,,
5533,0,,,,-0.08,-0.01,1.16,0,-1,-1,0.08,0,,,,,,,
5538,0,,,,-0.06,0.01,1.11,0,-1,-1,0.07,0,,,,,,,
5543,0,,,,-0.07,-0.0,1.14,0,0,-1,0.07,0,0.0,0.0,0.0,0.0,0,0,0.0
5548,0,,,,-0.11,-0.01,1.14,0,1,-1,0.11,0,,,,,,,
5553,0,,,,-0.15,0.0,1.12,0,0,-1,0.15,0,,,,,,,
5558,0,,,,-0.12,-0.0,1.16,0,-1,-0,0.12,0,,,,,,,
5563,0,2.56,3.314,,-0.1,0.0,1.17,0,-1,-1,0.1,0,,,,,,,
5568,0,,,,-0.09,0.02,1.1,0,-1,-0,0.09,0,,,,,,,
5573,0,,,,-0.08,0.01,1.11,0,-1,-0,0.08,0,,,,,,,
5578,0,,,,-0.07,-0.0,1.14,0,0,-0,0.07,0,,,,,,,
5583,0,,,,-0.09,-0.01,1.03,0,1,-0,0.09,0,,,,,,,
5588,0,,,,-0.1,-0.01,1.01,0,0,-0,0.11,0,,,,,,,
5593,0,,,,-0.06,-0.02,1.05,0,-0,-0,0.06,0,,,,,,,
5598,0,,,,-0.01,-0.02,1.04,0,-0,-0,0.03,0,,,,,,,
5603,0,2.55,3.098,,-0.02,-0.01,1.02,0,-0,-0,0.02,0,,,,,,,
5608,0,,,,-0.04,-0.02,1.07,0,-0,-0,0.04,0,,,,,,,
5613,0,,,,-0.07,-0.02,1.09,0,1,-0,0.08,0,,,,,,,
5618,0,,,,-0.08,-0.01,1.02,0,1,0,0.08,0,,,,,,,
5623,0,,,,-0.05,-0.02,1.02,0,0,0,0.05,0,,,,,,,
5628,0,,,,-0.03,-0.02,1.05,0,-0,0,0.04,0,,,,,,,
5633,0,,,,0.01,-0.02,0.97,0,-0,-0,0.02,0,,,,,,,
5638,0,,,,0.03,-0.01,0.93,0,-1,0,0.04,0,,,,,,,
5643,0,2.46,3.63,,0.02,-0.03,0.99,0,0,0,0.04,0,0.0,0.0,0.0,0.0,0,0,0.0
5648,0,,,,-0.02,-0.03,0.97,0,1,-0,0.04,0,,,,,,,
5653,0,,,,-0.08,-0.02,0.97,0,-0,-0,0.08,0,,,,,,,
5658,0,,,,-0.07,-0.02,1.02,0,-1,-0,0.07,0,,,,,,,
5663,0,,,,-0.01,-0.02,1.04,0,-1,-0,0.02,0,,,,,,,
5668,0,,,,-0.0,-0.02,0.99,0,-1,-0,0.02,0,,,,,,,
5673,0,,,,-0.02,-0.01,1.0,0,-1,-0,0.02,0,,,,,,,
5678,0,,,,-0.03,-0.02,1.04,0,1,-0,0.04,0,,,,,,,
5683,0,2.44,3.267,,-0.07,-0.02,1.02,0,1,-0,0.07,0,,,,,,,
5688,0,,,,-0.07,-0.01,1.01,0,-0,-0,0.07,0,,,,,,,
5693,0,,,,-0.05,-0.01,1.06,0,-1,-0,0.05,0,,,,,,,
5698,0,,,,-0.0,-0.01,1.0,0,-1,-0,0.01,0,,,,,,,
5703,0,,,,0.0,0.01,1.0,0,-1,-0,0.01,0,,,,,,,
5708,0,,,,-0.03,0.01,1.05,0,-1,-1,0.03,0,,,,,,,
5713,0,,,,-0.07,0.01,1.08,0,0,-1,0.07,0,,,,,,,
5718,0,,,,-0.1,0.0,1.05,0,0,-1,0.1,0,,,,,,,
5723,0,2.4,3.38,,-0.11,-0.0,1.09,0,-0,-0,0.11,0,,,,,,,
5728,0,,,,-0.09,-0.0,1.12,0,-1,-1,0.09,0,,,,,,,
5733,0,,,,-0.06,0.0,1.08,0,-0,-1,0.06,0,,,,,,,
5738,0,,,,-0.04,0.01,1.03,0,-1,-0,0.04,0,,,,,,,
5743,0,,,,-0.05,-0.0,1.06,0,-0,-0,0.05,0,0.0,0.0,0.0,0.0,0,0,0.0
5748,0,,,,-0.07,0.0,1.0,0,1,-0,0.07,0,,,,,,,
5753,0,,,,-0.07,0.01,0.96,0,0,-0,0.07,0,,,,,,,
5758,0,,,,-0.02,-0.01,0.99,0,-0,-0,0.03,0,,,,,,,
5763,0,2.4,3.651,,0.01,-0.02,0.98,0,-0,-0,0.02,0,,,,,,,
5768,0,,,,0.01,-0.01,0.93,0,-1,0,0.01,0,,,,,,,
5773,0,,,,-0.01,-0.02,0.99,0,-1,0,0.03,0,,,,,,,
5778,0,,,,-0.02,-0.03,1.03,1,1,0,0.04,0,,,,,,,
5783,0,,,,-0.06,-0.04,0.99,1,1,0,0.07,0,,,,,,,
5788,0,,,,-0.09,-0.05,1.0,1,-0,0,0.1,0,,,,,,,
5793,0,,,,-0.04,-0.06,1.04,1,-1,0,0.07,0,,,,,,,
5798,0,,,,-0.01,-0.05,1.02,1,-1,0,0.05,0,,,,,,,
5803,0,2.54,3.131,,0.02,-0.05,0.96,1,-1,0,0.05,0,,,,,,,
5808,0,,,,0.01,-0.08,1.01,1,-0,0,0.08,0,,,,,,,
5813,0,,,,-0.05,-0.08,1.03,1,1,0,0.1,0,,,,,,,
5818,0,,,,-0.08,-0.07,0.98,0,1,0,0.11,0,,,,,,,
5823,0,,,,-0.07,-0.07,1.03,0,-1,0,0.1,0,,,,,,,
5828,0,,,,-0.03,-0.07,1.04,0,-0,0,0.08,0,,,,,,,
5833,0,,,,-0.02,-0.06,0.99,1,-1,0,0.06,0,,,,,,,
5838,0,,,,-0.0,-0.07,0.99,1,-1,0,0.07,0,,,,,,,
5843,0,2.65,3.425,,-0.0,-0.08,1.03,1,0,0,0.08,0,0.0,0.0,0.0,0.0,0,0,0.0
5848,0,,,,-0.06,-0.1,1.02,1,1,0,0.11,0,,,,,,,
5853,0,,,,-0.09,-0.07,0.99,0,-0,0,0.12,0,,,,,,,
5858,0,,,,-0.06,-0.07,1.05,0,-1,0,0.09,0,,,,,,,
5863,0,,,,-0.02,-0.06,1.07,0,-1,0,0.06,0,,,,,,,
5868,0,,,,-0.01,-0.05,1.03,0,-1,0,0.05,0,,,,,,,
5873,0,,,,-0.02,-0.05,1.06,0,-0,0,0.05,0,,,,,,,
5878,0,,,,-0.05,-0.05,1.09,1,1,0,0.07,0,,,,,,,
5883,0,2.85,2.951,,-0.09,-0.06,1.04,1,1,0,0.11,0,,,,,,,
5888,0,,,,-0.09,-0.07,1.05,0,-0,0,0.11,0,,,,,,,
5893,0,,,,-0.05,-0.06,1.08,0,-0,0,0.08,0,,,,,,,
5898,0,,,,-0.02,-0.05,1.02,0,-0,0,0.05,0,,,,,,,
5903,0,,,,-0.01,-0.04,0.99,0,-0,0,0.04,0,,,,,,,
5908,0,,,,-0.03,-0.04,1.05,0,0,0,0.05,0,,,,,,,
5913,0,,,,-0.06,-0.03,1.03,0,1,-0,0.07,0,,,,,,,
5918,0,,,,-0.06,-0.03,0.97,0,0,-0,0.07,0,,,,,,,
5923,0,2.9,3.415,,-0.05,-0.03,1.0,0,-0,0,0.06,0,,,,,,,
5928,0,,,,0.01,-0.03,1.02,0,-1,0,0.03,0,,,,,,,
5933,0,,,,0.03,-0.02,0.99,0,-1,0,0.04,0,,,,,,,
5938,0,,,,0.02,-0.02,0.97,0,-1,0,0.03,0,,,,,,,
5943,0,,,,-0.01,-0.04,1.02,0,0,0,0.04,0,0.0,0.0,0.0,0.0,0,0,0.0
5948,0,,,,-0.05,-0.05,0.99,0,1,0,0.07,0,,,,,,,
5953,0,,,,-0.05,-0.03,0.95,0,-0,-0,0.06,0,,,,,,,
5958,0,,,,-0.01,-0.03,0.99,0,-1,-0,0.04,0,,,,,,,
5963,0,2.9,2.958,,0.01,-0.03,0.98,0,-0,-0,0.03,0,,,,,,,
5968,0,,,,0.01,-0.01,0.93,0,-0,-0,0.02,0,,,,,,,
5973,0,,,,-0.01,-0.02,0.97,0,-0,-0,0.02,0,,,,,,,
5978,0,,,,-0.03,-0.01,1.01,0,1,-0,0.03,0,,,,,,,
5983,0,,,,-0.06,-0.01,0.96,0,0,-0,0.06,0,,,,,,,
5988,0,,,,-0.08,-0.01,0.97,0,-1,-0,0.08,0,,,,,,,
5993,0,,,,-0.04,-0.01,1.02,0,-0,-0,0.04,0,,,,,,,
5998,0,,,,-0.0,-0.01,0.98,0,-0,-0,0.01,0,,,,,,,
6003,0,2.81,2.014,,0.01,-0.0,0.94,0,-0,-0,0.01,0,,,,,,,
6008,0,,,,-0.01,-0.01,0.99,0,0,-0,0.02,0,,,,,,,
6013,0,,,,-0.06,-0.02,1.0,0,1,-0,0.06,0,,,,,,,
6018,0,,,,-0.07,0.0,0.95,0,0,-0,0.07,0,,,,,,,
6023,0,,,,-0.05,0.01,0.99,0,-0,-0,0.05,0,,,,,,,
6028,0,,,,-0.03,0.0,1.0,0,-0,-0,0.03,0,,,,,,,
6033,0,,,,-0.01,0.01,0.94,0,-0,-0,0.01,0,,,,,,,
6038,0,,,,-0.01,0.0,0.97,0,-0,-0,0.01,0,,,,,,,
6043,0,2.8,1.585,13.37,-0.01,-0.01,1.01,0,0,-0,0.02,0,0.0,0.0,0.0,0.0,0,0,0.0
6048,0,,,,-0.05,-0.01,0.98,0,0,-0,0.05,0,,,,,,,
6053,0,,,,-0.08,-0.01,0.96,0,-1,-0,0.08,0,,,,,,,
6058,0,,,,-0.03,-0.01,1.01,0,-1,-0,0.04,0,,,,,,,
6063,0,,,,0.0,-0.02,1.01,0,-0,-1,0.02,0,,,,,,,
6068,0,,,,0.02,-0.01,0.95,0,-1,-1,0.02,0,,,,,,,
6073,0,,,,-0.0,-0.02,1.0,0,-0,-0,0.02,0,,,,,,,
6078,0,,,,-0.03,-0.03,1.01,0,1,-0,0.04,0,,,,,,,
6083,0,2.81,0.729,,-0.07,-0.02,0.98,0,1,-0,0.07,0,,,,,,,
6088,0,,,,-0.05,-0.03,0.98,0,-0,-0,0.06,0,,,,,,,
6093,0,,,,-0.04,-0.03,1.04,0,-0,-0,0.05,0,,,,,,,
6098,0,,,,-0.01,-0.01,0.97,0,-0,-0,0.02,0,,,,,,,
6103,0,,,,-0.0,-0.02,0.95,0,-0,0,0.02,0,,,,,,,
6108,0,,,,-0.02,-0.04,1.02,0,0,0,0.05,0,,,,,,,
6113,0,,,,-0.05,-0.05,1.0,0,1,0,0.07,0,,,,,,,
6118,0,,,,-0.07,-0.04,0.98,0,1,0,0.08,0,,,,,,,
6123,0,2.77,0.001,,-0.06,-0.04,1.01,0,-0,0,0.07,0,,,,,,,
6128,0,,,,-0.01,-0.04,1.04,0,0,-0,0.05,0,,,,,,,
6133,0,,,,0.0,-0.03,0.99,0,0,-0,0.03,0,,,,,,,
6138,0,,,,-0.0,-0.03,0.99,0,0,0,0.03,0,,,,,,,
6143,0,,,,-0.02,-0.04,1.03,0,1,-0,0.05,0,0.0,0.0,0.0,0.0,0,0,0.0
6148,0,,,,-0.06,-0.05,1.0,0,1,0,0.08,0,,,,,,,
6153,0,,,,-0.06,-0.04,0.97,0,0,0,0.07,0,,,,,,,
6158,0,,,,-0.02,-0.04,1.01,0,-0,0,0.05,0,,,,,,,
6163,0,2.74,0.003,,0.01,-0.04,0.99,0,0,-0,0.04,0,,,,,,,
6168,0,,,,0.01,-0.03,0.94,0,-0,-0,0.03,0,,,,,,,
6173,0,,,,-0.0,-0.03,1.01,0,0,-0,0.03,0,,,,,,,
6178,0,,,,-0.02,-0.04,1.02,0,1,-0,0.04,0,,,,,,,
6183,0,,,,-0.05,-0.04,0.96,0,0,-0,0.06,0,,,,,,,
6188,0,,,,-0.06,-0.04,0.99,0,-0,-0,0.07,0,,,,,,,
6193,0,,,,-0.02,-0.04,1.04,0,-0,-0,0.04,0,,,,,,,
6198,0,,,,0.0,-0.04,1.0,0,0,-0,0.04,0,,,,,,,
6203,0,2.75,1.703,,0.01,-0.03,0.98,0,-0,0,0.03,0,,,,,,,
6208,0,,,,-0.01,-0.04,1.02,0,0,0,0.04,0,,,,,,,
6213,0,,,,-0.05,-0.05,1.02,0,1,-0,0.07,0,,,,,,,
6218,0,,,,-0.08,-0.03,0.98,0,0,-0,0.08,0,,,,,,,
6223,0,,,,-0.05,-0.03,1.02,0,-0,-0,0.06,0,,,,,,,
6228,0,,,,-0.03,-0.03,1.04,0,0,-0,0.04,0,,,,,,,
6233,0,,,,-0.01,-0.02,0.98,0,0,-0,0.03,0,,,,,,,
6238,0,,,,-0.01,-0.02,0.98,0,0,-0,0.02,0,,,,,,,
6243,0,2.76,2.445,,-0.01,-0.03,1.03,0,1,-0,0.03,0,0.0,0.0,0.0,0.0,0,0,0.0
6248,0,,,,-0.05,-0.04,0.99,0,1,-0,0.07,0,,,,,,,
6253,0,,,,-0.06,-0.03,0.97,0,-0,-0,0.07,0,,,,,,,
6258,0,,,,-0.02,-0.04,1.01,0,-0,-0,0.04,0,,,,,,,
6263,0,,,,0.0,-0.03,1.02,0,0,-0,0.03,0,,,,,,,
6268,0,,,,0.01,-0.03,0.97,0,0,-0,0.03,0,,,,,,,
6273,0,,,,0.0,-0.03,1.0,0,0,-0,0.03,0,,,,,,,
6278,0,,,,-0.02,-0.03,1.03,0,1,-0,0.04,0,,,,,,,
6283,0,2.76,4.289,,-0.07,-0.04,0.98,0,1,-0,0.07,0,,,,,,,
6288,0,,,,-0.06,-0.03,0.98,0,-0,-0,0.07,0,,,,,,,
6293,0,,,,-0.03,-0.04,1.02,0,-0,-0,0.05,0,,,,,,,
6298,0,,,,-0.0,-0.03,0.98,0,0,-0,0.03,0,,,,,,,
6303,0,,,,-0.0,-0.02,0.95,0,-0,-0,0.02,0,,,,,,,
6308,0,,,,-0.01,-0.03,1.01,0,0,-0,0.03,0,,,,,,,
6313,0,,,,-0.05,-0.03,1.02,0,1,-0,0.05,0,,,,,,,
6318,0,,,,-0.06,-0.03,0.96,0,0,-0,0.06,0,,,,,,,
6323,0,2.79,4.147,,-0.06,-0.03,1.0,0,-0,-0,0.07,0,,,,,,,
6328,0,,,,-0.02,-0.03,1.03,0,0,-0,0.03,0,,,,,,,
6333,0,,,,-0.01,-0.03,1.0,0,0,-0,0.03,0,,,,,,,
6338,0,,,,0.0,-0.02,0.97,0,0,-0,0.02,0,,,,,,,
6343,0,,,,-0.02,-0.03,1.02,0,0,-0,0.03,0,0.0,0.0,0.0,0.0,0,0,0.0
6348,0,,,,-0.06,-0.04,1.01,0,1,-0,0.07,0,,,,,,,
6353,0,,,,-0.07,-0.03,0.98,0,0,-0,0.07,0,,,,,,,
6358,0,,,,-0.04,-0.03,1.01,0,-0,-0,0.05,0,,,,,,,
6363,0,2.78,4.191,,-0.02,-0.03,1.03,0,0,-0,0.03,0,,,,,,,
6368,0,,,,-0.01,-0.02,0.98,0,0,-0,0.02,0,,,,,,,
6373,0,,,,-0.01,-0.02,0.99,0,-0,-0,0.02,0,,,,,,,
6378,0,,,,-0.02,-0.02,1.03,0,0,-0,0.03,0,,,,,,,
6383,0,,,,-0.04,-0.03,1.0,0,0,-0,0.05,0,,,,,,,
6388,0,,,,-0.05,-0.03,0.98,0,-0,-0,0.06,0,,,,,,,
6393,0,,,,-0.03,-0.02,1.04,0,-0,-0,0.04,0,,,,,,,
6398,0,,,,0.0,-0.02,1.03,0,0,-0,0.02,0,,,,,,,
6403,0,2.79,2.213,,0.01,-0.02,0.98,0,-0,-0,0.02,0,,,,,,,
6408,0,,,,0.0,-0.02,1.0,0,-0,-0,0.02,0,,,,,,,
6413,0,,,,-0.03,-0.03,1.03,0,0,-0,0.04,0,,,,,,,
6418,0,,,,-0.05,-0.03,0.98,0,0,-0,0.06,0,,,,,,,
6423,0,,,,-0.04,-0.03,0.99,0,-0,-0,0.05,0,,,,,,,
6428,0,,,,-0.01,-0.03,1.02,0,-0,-0,0.03,0,,,,,,,
6433,0,,,,0.01,-0.03,0.98,0,0,-0,0.03,0,,,,,,,
6438,0,,,,0.01,-0.02,0.95,0,-0,-0,0.02,0,,,,,,,
6443,0,2.78,0.875,,-0.01,-0.03,1.01,0,0,-0,0.03,0,0.0,0.0,0.0,0.0,0,0,0.0
6448,0,,,,-0.04,-0.04,1.01,0,0,-0,0.05,0,,,,,,,
6453,0,,,,-0.05,-0.03,0.97,0,-0,-0,0.06,0,,,,,,,
6458,0,,,,-0.05,-0.03,1.0,0,-0,-0,0.06,0,,,,,,,
6463,0,,,,-0.01,-0.03,1.03,0,0,-0,0.03,0,,,,,,,
6468,0,,,,-0.0,-0.02,0.99,0,0,-0,0.02,0,,,,,,,
6473,0,,,,0.0,-0.01,0.97,0,-0,-0,0.01,0,,,,,,,
6478,0,,,,-0.01,-0.03,1.02,0,0,-0,0.03,0,,,,,,,
6483,0,2.78,0.861,,-0.05,-0.04,1.01,0,0,-0,0.06,0,,,,,,,
6488,0,,,,-0.06,-0.03,0.98,0,-0,-0,0.07,0,,,,,,,
6493,0,,,,-0.03,-0.03,1.01,0,-1,-0,0.05,0,,,,,,,
6498,0,,,,-0.02,-0.03,1.02,0,0,-0,0.03,0,,,,,,,
6503,0,,,,-0.01,-0.02,0.97,0,-0,-0,0.02,0,,,,,,,
6508,0,,,,-0.01,-0.02,0.99,0,-0,-0,0.02,0,,,,,,,
6628,0,,,,-0.02,-0.04,1.02,0,0,-0,0.04,0,,,,,,,
6633,0,,,,-0.0,-0.03,1.02,0,1,-0,0.03,0,,,,,,,
6638,0,,,,0.01,-0.01,0.97,0,1,-0,0.02,0,,,,,,,
6643,0,2.78,3.889,,0.01,-0.01,0.98,0,1,-0,0.01,0,0.0,0.0,0.0,0.0,0,0,0.0
6648,0,,,,-0.0,-0.0,1.01,0,1,-0,0.0,0,,,,,,,
6653,0,,,,-0.04,-0.01,0.98,0,1,-0,0.04,0,,,,,,,
6658,0,,,,-0.05,-0.01,0.96,0,1,-0,0.05,0,,,,,,,
6663,0,,,,-0.04,-0.01,1.0,0,1,-0,0.04,0,,,,,,,
6668,0,,,,-0.02,-0.0,1.01,0,1,-0,0.02,0,,,,,,,
6673,0,,,,-0.02,0.0,0.96,0,2,-0,0.02,0,,,,,,,
6678,0,,,,-0.03,0.01,0.95,0,1,-0,0.03,0,,,,,,,
6683,0,2.81,2.771,,-0.06,-0.02,0.99,0,2,-0,0.06,0,,,,,,,
6688,0,,,,-0.1,-0.03,0.96,0,2,-0,0.11,0,,,,,,,
6693,0,,,,-0.09,-0.04,0.94,0,1,-0,0.1,0,,,,,,,
6698,0,,,,-0.06,-0.04,0.99,0,1,-0,0.07,0,,,,,,,
6703,0,,,,-0.04,-0.05,0.96,0,2,-0,0.07,0,,,,,,,
6708,0,,,,-0.05,-0.04,0.93,0,2,-0,0.07,0,,,,,,,
6713,0,,,,-0.08,-0.05,0.99,0,2,-0,0.09,0,,,,,,,
6718,0,,,,-0.12,-0.05,1.03,1,2,-0,0.13,0,,,,,,,
6723,0,2.81,2.632,,-0.14,-0.05,0.97,1,2,-0,0.15,0,,,,,,,
6728,0,,,,-0.22,-0.04,0.97,1,2,-0,0.22,0,,,,,,,
6828,0,,,,-0.1,-0.03,1.1,1,2,-1,0.1,0,,,,,,,
6833,0,,,,-0.04,-0.01,1.08,0,2,-1,0.04,0,,,,,,,
6838,0,,,,-0.02,-0.02,1.03,0,3,-1,0.02,0,,,,,,,
6843,0,2.82,3.679,,-0.04,-0.02,1.04,0,3,-1,0.05,0,0.0,0.0,0.0,0.0,0,0,0.0
6848,0,,,,-0.09,-0.04,1.08,0,3,-0,0.1,0,,,,,,,
6853,0,,,,-0.14,-0.04,1.02,0,3,-0,0.15,0,,,,,,,
6858,0,,,,-0.29,-0.05,1.01,0,3,-0,0.29,0,,,,,,,
6863,0,,,,-0.09,-0.05,1.04,0,1,-1,0.1,0,,,,,,,
6868,0,,,,-0.05,-0.04,1.11,0,0,-1,0.06,0,,,,,,,
6873,0,,,,-0.03,0.0,1.03,0,2,-1,0.03,0,,,,,,,
6973,0,,,,0.12,-0.03,1.08,0,2,2,0.13,0,,,,,,,
6978,0,,,,0.13,0.0,0.96,0,2,2,0.13,0,,,,,,,
6983,0,,,,0.11,0.01,0.89,0,2,3,0.11,0,,,,,,,
6988,0,,,,0.07,-0.04,0.87,1,2,2,0.08,0,,,,,,,
6993,0,,,,0.04,-0.07,0.97,1,2,2,0.08,0,,,,,,,
6998,0,,,,0.05,-0.07,0.98,1,2,1,0.09,0,,,,,,,
7003,0,2.79,3.392,,0.07,-0.06,0.95,0,2,1,0.1,0,,,,,,,
7008,0,,,,0.02,-0.06,0.93,0,1,0,0.06,0,,,,,,,
7013,0,,,,-0.06,-0.05,1.0,1,2,1,0.08,0,,,,,,,
7018,0,,,,0.02,-0.1,1.04,0,1,2,0.1,0,,,,,,,
7023,0,,,,0.04,-0.05,1.0,0,2,1,0.06,0,,,,,,,
7123,0,2.77,2.672,,-0.19,0.02,1.09,0,5,0,0.19,0,,,,,,,
7128,0,,,,-0.22,0.01,1.09,0,4,0,0.22,0,,,,,,,
7133,0,,,,-0.23,0.04,1.11,0,5,0,0.24,0,,,,,,,
7138,0,,,,-0.25,0.02,1.1,0,5,1,0.25,0,,,,,,,
7143,0,,,,-0.17,-0.01,1.1,0,5,1,0.17,0,0.0,0.0,0.0,0.0,0,0,0.0
7148,0,,,,-0.21,0.02,1.08,0,5,1,0.21,0,,,,,,,
7153,0,,,,-0.23,0.05,1.09,0,6,1,0.24,5,,,,,,,
7158,0,,,,-0.33,0.03,1.09,0,7,0,0.33,5,,,,,,,
7163,0,2.74,2.544,,-0.25,0.04,0.99,0,6,0,0.25,5,,,,,,,
7168,0,,,,-0.26,0.04,1.0,-0,6,0,0.27,5,,,,,,,
7173,0,,,,-0.25,0.05,1.03,-0,6,0,0.25,5,,,,,,,
7273,0,,,,-0.29,-0.07,0.9,-0,0,2,0.3,5,,,,,,,
7278,0,,,,-0.33,-0.11,0.92,-0,-0,2,0.35,18,,,,,,,
7283,0,2.77,3.375,,-0.24,-0.09,0.86,-0,-1,2,0.25,18,,,,,,,
7288,0,,,,-0.24,-0.05,0.91,-0,-2,1,0.24,18,,,,,,,
7293,0,,,,-0.23,-0.04,0.94,-0,-2,1,0.23,18,,,,,,,
7298,0,,,,-0.28,-0.09,0.98,0,-2,1,0.29,18,,,,,,,
7303,0,,,,-0.19,-0.08,0.99,-0,-3,1,0.2,18,,,,,,,
7308,0,,,,-0.26,-0.07,1.05,-0,-2,1,0.27,18,,,,,,,
7313,0,,,,-0.24,-0.02,1.02,0,-2,2,0.24,18,,,,,,,
7318,0,,,,-0.32,-0.08,1.07,0,-2,2,0.33,18,,,,,,,
7423,0,,,,-0.34,0.18,1.0,1,0,2,0.38,30,,,,,,,
7428,0,,,,-0.37,0.16,1.01,0,1,2,0.4,30,,,,,,,
7433,0,,,,-0.39,0.19,1.0,0,0,2,0.43,30,,,,,,,
7438,0,,,,-0.42,0.16,1.08,0,0,1,0.45,30,,,,,,,
7443,0,2.81,3.453,,-0.36,0.17,0.98,0,0,1,0.4,30,0.0,0.0,0.0,0.0,0,0,0.0
7448,0,,,,-0.33,0.16,0.99,-0,-0,1,0.36,30,,,,,,,
7453,0,,,,-0.42,0.16,1.01,0,1,0,0.45,30,,,,,,,
7458,0,,,,-0.32,0.13,0.91,-0,-0,0,0.34,30,,,,,,,
7463,0,,,,-0.31,0.16,0.91,-0,0,-0,0.34,30,,,,,,,
7468,0,,,,-0.29,0.1,0.84,-0,0,-1,0.31,30,,,,,,,
7473,0,,,,-0.32,0.12,0.86,-1,0,-1,0.34,30,,,,,,,
