"Interval"|"ms"|0|0|1,"Utc"|"ms"|0|0|1,"Analog1"|"V"|0.0|5.0|25,"Analog2"|""|0.0|5.0|25,"Battery"|"Volts"|0.0|20.0|1,"AccelX"|"G"|-3.0|3.0|200,"AccelY"|"G"|-3.0|3.0|200,"AccelZ"|"G"|-3.0|3.0|200,"Yaw"|"Deg/Sec"|-120|120|200,"Pitch"|"Deg/Sec"|-120|120|200,"Roll"|"Deg/Sec"|-120|120|200,"Gsum"|"G"|0.0|3.0|200,"RPM2"|"rpm"|0|8000|200,"Latitude"|"Degrees"|-180.0|180.0|10,"Longitude"|"Degrees"|-180.0|180.0|10,"Speed"|"mph"|0.0|150.0|10,"Altitude"|"ft"|0.0|4000.0|10,"GPSSats"|""|0|20|10,"GPSQual"|""|0|5|10,"GPSDOP"|""|0.0|20.0|10
433,0,,,,-0.08,-0.03,0.98,1,1,-0,0.09,15,,,,,,,
438,0,,,,-0.1,-0.03,0.95,1,0,0,0.1,15,,,,,,,
443,0,2.75,1.046,,-0.09,-0.03,0.97,1,-0,0,0.1,15,0.0,0.0,0.0,0.0,0,0,0.0
448,0,,,,-0.06,-0.03,1.01,1,-0,-0,0.06,15,,,,,,,
453,0,,,,-0.04,-0.03,0.98,1,0,-0,0.05,15,,,,,,,
458,0,,,,-0.06,-0.02,0.94,1,-0,0,0.06,15,,,,,,,
463,0,,,,-0.08,-0.03,0.99,1,-0,-0,0.08,15,,,,,,,
468,0,,,,-0.07,-0.04,1.02,1,-0,-0,0.08,15,,,,,,,
473,0,,,,-0.08,-0.03,0.98,1,-0,-0,0.08,10,,,,,,,
478,0,,,,-0.08,-0.02,0.96,1,-1,0,0.09,10,,,,,,,
578,0,,,,0.02,-0.04,0.93,0,-1,0,0.05,10,,,,,,,
583,0,,,,0.02,-0.03,0.92,0,-1,0,0.04,10,,,,,,,
588,0,,,,-0.0,-0.01,0.9,0,-1,0,0.01,10,,,,,,,
593,0,,,,0.02,-0.0,0.94,0,-2,-0,0.02,10,,,,,,,
598,0,,,,0.04,-0.0,0.96,0,-1,-0,0.04,10,,,,,,,
603,0,2.68,1.331,,0.04,0.01,0.9,0,-2,-0,0.04,10,,,,,,,
608,0,,,,0.03,0.0,0.89,0,-2,-0,0.03,10,,,,,,,
613,0,,,,0.04,-0.01,0.95,0,-2,-0,0.04,10,,,,,,,
618,0,,,,0.03,-0.01,0.94,0,-2,-0,0.03,10,,,,,,,
623,0,,,,0.05,-0.0,0.91,0,-3,-0,0.05,10,,,,,,,
628,0,,,,0.04,-0.01,0.95,0,-3,-0,0.04,10,,,,,,,
633,0,,,,0.08,-0.01,0.97,0,-3,-0,0.08,10,,,,,,,
638,0,,,,0.1,-0.01,0.96,0,-3,-0,0.1,10,,,,,,,
643,0,2.73,1.317,,0.12,-0.0,0.95,0,-3,-0,0.12,10,0.0,0.0,0.0,0.0,0,0,0.0
648,0,,,,0.12,-0.01,0.96,0,-3,-0,0.12,10,,,,,,,
653,0,,,,0.1,-0.03,0.99,0,-3,-0,0.1,10,,,,,,,
658,0,,,,0.09,-0.02,0.96,0,-3,-0,0.09,10,,,,,,,
663,0,,,,0.09,-0.0,0.97,0,-4,-0,0.09,10,,,,,,,
668,0,,,,0.13,-0.0,1.02,0,-4,-0,0.13,10,,,,,,,
673,0,,,,0.14,-0.01,1.0,0,-3,-1,0.14,10,,,,,,,
678,0,,,,0.12,-0.01,0.97,0,-3,-0,0.13,10,,,,,,,
683,0,2.7,1.919,,0.12,-0.02,1.0,0,-3,-0,0.12,10,,,,,,,
688,0,,,,0.13,-0.03,1.03,0,-3,-1,0.13,10,,,,,,,
693,0,,,,0.14,-0.02,1.0,0,-3,-1,0.14,10,,,,,,,
698,0,,,,0.15,-0.01,0.99,0,-3,-0,0.15,10,,,,,,,
703,0,,,,0.14,-0.01,1.03,0,-3,-0,0.14,10,,,,,,,
708,0,,,,0.17,-0.01,1.05,0,-3,-1,0.17,10,,,,,,,
713,0,,,,0.18,-0.01,1.04,0,-3,-1,0.18,10,,,,,,,
718,0,,,,0.18,-0.01,1.01,1,-3,-0,0.18,10,,,,,,,
723,0,2.71,2.257,,0.18,-0.02,1.04,1,-3,-1,0.18,10,,,,,,,
728,0,,,,0.16,-0.03,1.05,1,-2,-1,0.16,10,,,,,,,
733,0,,,,0.14,-0.03,1.01,1,-2,-1,0.14,10,,,,,,,
738,0,,,,0.14,-0.02,1.03,1,-3,-0,0.14,10,,,,,,,
743,0,,,,0.16,-0.02,1.07,1,-2,-1,0.17,10,0.0,0.0,0.0,0.0,0,0,0.0
748,0,,,,0.17,-0.01,1.03,1,-2,-1,0.17,10,,,,,,,
753,0,,,,0.17,-0.01,0.98,1,-2,-1,0.17,10,,,,,,,
758,0,,,,0.16,-0.01,1.04,1,-2,-1,0.16,10,,,,,,,
763,0,2.71,2.347,,0.16,-0.02,1.05,1,-2,-1,0.16,10,,,,,,,
768,0,,,,0.16,-0.01,1.01,1,-2,-1,0.16,10,,,,,,,
773,0,,,,0.16,-0.01,1.0,1,-2,-1,0.16,10,,,,,,,
778,0,,,,0.15,-0.01,1.04,1,-2,-1,0.15,10,,,,,,,
783,0,,,,0.17,-0.01,1.04,1,-2,-1,0.17,10,,,,,,,
788,0,,,,0.18,-0.0,1.02,0,-2,-1,0.18,10,,,,,,,
793,0,,,,0.17,0.01,1.01,0,-2,-1,0.17,10,,,,,,,
798,0,,,,0.16,-0.01,1.04,0,-1,-1,0.16,10,,,,,,,
803,0,2.7,1.954,,0.15,-0.01,1.02,0,-1,-1,0.15,10,,,,,,,
808,0,,,,0.13,-0.01,1.0,0,-1,-1,0.13,10,,,,,,,
813,0,,,,0.16,-0.01,1.03,0,-2,-0,0.16,10,,,,,,,
818,0,,,,0.16,-0.0,1.04,0,-1,-1,0.16,10,,,,,,,
823,0,,,,0.16,0.0,0.99,0,-1,-1,0.16,10,,,,,,,
828,0,,,,0.15,-0.01,1.0,0,-1,-0,0.15,10,,,,,,,
833,0,,,,0.14,-0.03,1.04,0,-1,-0,0.14,10,,,,,,,
838,0,,,,0.13,-0.03,1.03,0,-0,-0,0.13,10,,,,,,,
843,0,2.73,2.368,,0.12,-0.02,0.99,0,-0,-0,0.13,10,0.0,0.0,0.0,0.0,0,0,0.0
848,0,,,,0.1,-0.02,1.03,0,-0,-0,0.1,10,,,,,,,
853,0,,,,0.13,-0.02,1.05,0,0,-0,0.13,10,,,,,,,
858,0,,,,0.12,-0.02,1.05,0,0,-0,0.12,10,,,,,,,
863,0,,,,0.12,-0.0,1.02,0,0,-0,0.12,10,,,,,,,
868,0,,,,0.12,-0.01,1.02,0,0,-0,0.12,10,,,,,,,
873,0,,,,0.09,-0.02,1.04,0,1,-0,0.09,10,,,,,,,
878,0,,,,0.06,-0.02,1.01,0,1,0,0.06,10,,,,,,,
883,0,2.69,2.337,,0.07,-0.01,1.0,0,1,0,0.07,10,,,,,,,
888,0,,,,0.09,-0.01,1.03,0,1,0,0.09,10,,,,,,,
893,0,,,,0.09,-0.01,0.99,0,1,-0,0.09,10,,,,,,,
898,0,,,,0.07,-0.01,0.97,0,1,0,0.07,10,,,,,,,
903,0,,,,0.05,-0.01,1.0,0,1,0,0.05,10,,,,,,,
908,0,,,,0.03,-0.01,1.02,0,2,0,0.04,10,,,,,,,
913,0,,,,0.03,-0.02,0.97,0,2,0,0.03,10,,,,,,,
918,0,,,,0.02,-0.02,0.96,-0,1,0,0.02,10,,,,,,,
923,0,2.74,2.48,,0.02,-0.01,1.01,-0,2,0,0.02,10,,,,,,,
928,0,,,,0.03,-0.01,1.03,-0,2,0,0.03,10,,,,,,,
933,0,,,,0.03,-0.0,0.99,-0,2,0,0.03,10,,,,,,,
938,0,,,,0.03,-0.01,0.97,0,2,0,0.03,10,,,,,,,
943,0,,,,-0.0,-0.02,1.01,-0,2,0,0.02,10,0.0,0.0,0.0,0.0,0,0,0.0
948,0,,,,-0.03,-0.03,0.99,0,2,0,0.04,10,,,,,,,
953,0,,,,-0.05,-0.02,0.97,-0,2,0,0.05,10,,,,,,,
958,0,,,,-0.02,-0.01,1.02,-0,2,0,0.03,10,,,,,,,
963,0,2.7,2.996,,-0.02,-0.0,1.02,0,2,0,0.02,10,,,,,,,
968,0,,,,-0.03,0.0,0.96,-0,2,0,0.03,10,,,,,,,
973,0,,,,-0.03,-0.0,0.98,-0,2,0,0.03,10,,,,,,,
978,0,,,,-0.03,-0.01,1.01,0,2,0,0.03,10,,,,,,,
983,0,,,,-0.05,-0.02,0.98,0,2,0,0.05,10,,,,,,,
988,0,,,,-0.04,-0.02,0.95,0,2,0,0.05,10,,,,,,,
993,0,,,,-0.04,-0.02,0.99,0,2,0,0.05,10,,,,,,,
998,0,,,,-0.03,-0.03,1.01,0,2,0,0.04,10,,,,,,,
1003,0,2.74,2.828,,-0.03,-0.04,0.99,0,2,0,0.05,10,,,,,,,
1008,0,,,,-0.04,-0.04,0.97,0,2,0,0.06,10,,,,,,,
1013,0,,,,-0.06,-0.05,1.0,0,2,0,0.08,10,,,,,,,
1018,0,,,,-0.1,-0.06,1.01,0,3,0,0.12,10,,,,,,,
1023,0,,,,-0.11,-0.04,0.97,0,2,0,0.12,10,,,,,,,
1028,0,,,,-0.09,-0.03,1.02,1,2,0,0.1,10,,,,,,,
1033,0,,,,-0.08,-0.02,1.04,1,2,-0,0.08,10,,,,,,,
1038,0,,,,-0.07,-0.02,0.96,1,2,-0,0.07,10,,,,,,,
1043,0,2.74,3.233,13.37,-0.07,-0.03,0.95,1,2,0,0.08,10,0.0,0.0,0.0,0.0,0,0,0.0
1048,0,,,,-0.07,-0.04,1.0,1,3,0,0.08,10,,,,,,,
1053,0,,,,-0.1,-0.04,1.0,1,3,0,0.11,10,,,,,,,
1058,0,,,,-0.09,-0.03,0.94,1,2,0,0.1,10,,,,,,,
1063,0,,,,-0.1,-0.02,0.98,1,2,0,0.1,10,,,,,,,
1068,0,,,,-0.07,-0.02,1.01,1,2,0,0.07,10,,,,,,,
1073,0,,,,-0.07,-0.01,0.99,1,2,0,0.07,10,,,,,,,
1078,0,,,,-0.08,0.0,0.97,1,2,0,0.08,10,,,,,,,
1083,0,2.72,3.748,,-0.1,-0.0,1.0,1,2,0,0.1,10,,,,,,,
1088,0,,,,-0.13,-0.01,1.0,1,3,0,0.13,10,,,,,,,
1093,0,,,,-0.13,0.0,0.96,1,2,0,0.13,10,,,,,,,
1098,0,,,,-0.11,0.01,1.0,1,1,0,0.11,10,,,,,,,
1103,0,,,,-0.09,0.02,1.03,1,2,0,0.09,10,,,,,,,
1108,0,,,,-0.08,0.02,0.97,1,2,0,0.08,10,,,,,,,
1113,0,,,,-0.08,0.01,0.94,1,2,0,0.09,10,,,,,,,
1118,0,,,,-0.09,0.0,1.01,1,2,0,0.09,10,,,,,,,
1123,0,2.68,3.538,,-0.1,-0.0,1.01,1,2,0,0.1,10,,,,,,,
1128,0,,,,-0.13,0.04,0.96,1,2,0,0.14,10,,,,,,,
1133,0,,,,-0.15,0.03,1.0,1,1,0,0.16,10,,,,,,,
1138,0,,,,-0.11,0.02,1.03,1,1,0,0.11,10,,,,,,,
1143,0,,,,-0.09,0.01,1.01,0,2,0,0.09,10,0.0,0.0,0.0,0.0,0,0,0.0
1148,0,,,,-0.09,0.02,0.97,0,1,0,0.1,10,,,,,,,
1153,0,,,,-0.1,0.01,1.01,0,1,0,0.1,10,,,,,,,
1158,0,,,,-0.12,0.01,1.03,0,1,-0,0.12,10,,,,,,,
1163,0,2.66,3.81,,-0.13,0.02,0.99,0,1,0,0.13,10,,,,,,,
1168,0,,,,-0.1,0.02,1.01,0,0,0,0.1,10,,,,,,,
1173,0,,,,-0.08,0.02,1.03,0,1,-0,0.08,10,,,,,,,
1178,0,,,,-0.06,0.02,0.95,0,1,-0,0.07,10,,,,,,,
1183,0,,,,-0.07,0.02,0.9,0,0,-0,0.07,10,,,,,,,
1188,0,,,,-0.05,0.01,0.94,-0,0,-0,0.05,10,,,,,,,
1193,0,,,,-0.06,0.01,0.93,-0,0,-0,0.06,10,,,,,,,
1198,0,,,,-0.06,0.01,0.9,-0,-0,-0,0.06,10,,,,,,,
1203,0,2.67,4.042,,-0.06,0.0,0.95,-0,-1,-0,0.06,10,,,,,,,
1208,0,,,,-0.03,0.01,1.0,-0,-0,-0,0.03,10,,,,,,,
1213,0,,,,-0.02,0.01,0.99,-0,-0,-0,0.02,10,,,,,,,
1218,0,,,,-0.02,0.01,0.97,-0,-0,0,0.02,10,,,,,,,
1223,0,,,,-0.03,0.0,1.04,0,-0,0,0.03,10,,,,,,,
1228,0,,,,-0.06,-0.02,1.04,0,0,0,0.06,10,,,,,,,
1233,0,,,,-0.07,-0.0,1.01,0,-0,0,0.07,10,,,,,,,
1258,0,,,,-0.03,-0.01,1.04,0,1,0,0.03,10,,,,,,,
1263,0,,,,-0.06,0.0,1.03,0,1,0,0.06,10,,,,,,,
1268,0,,,,-0.05,0.01,0.99,1,0,0,0.05,10,,,,,,,
1273,0,,,,-0.05,0.01,1.01,1,0,0,0.05,10,,,,,,,
1278,0,,,,-0.03,0.01,1.03,1,1,0,0.03,10,,,,,,,
1283,0,2.64,3.418,,-0.02,0.01,0.99,1,1,0,0.03,10,,,,,,,
1303,0,,,,-0.1,0.02,0.94,1,0,-0,0.1,10,,,,,,,
1308,0,,,,-0.07,0.03,0.99,1,-0,-0,0.07,10,,,,,,,
1313,0,,,,-0.05,0.03,0.99,1,1,-0,0.05,10,,,,,,,
1318,0,,,,-0.04,0.03,0.92,1,0,-0,0.05,10,,,,,,,
1323,0,2.63,3.531,,-0.05,0.02,0.94,1,-0,-0,0.06,10,,,,,,,
1328,0,,,,-0.06,0.01,0.99,1,0,-0,0.06,10,,,,,,,
1333,0,,,,-0.08,0.01,0.97,1,0,-0,0.09,12,,,,,,,
1338,0,,,,-0.08,0.01,0.94,1,-0,-0,0.08,12,,,,,,,
1343,0,,,,-0.07,0.0,1.0,0,-0,-0,0.07,12,0.0,0.0,0.0,0.0,0,0,0.0
1348,0,,,,-0.04,0.01,1.01,0,-0,-0,0.04,12,,,,,,,
1353,0,,,,-0.03,0.02,0.98,0,-0,-0,0.04,12,,,,,,,
1358,0,,,,-0.04,0.02,0.97,0,-0,-0,0.04,12,,,,,,,
1363,0,2.63,3.22,,-0.07,0.01,1.01,0,0,-0,0.07,12,,,,,,,
1368,0,,,,-0.1,0.01,0.98,0,0,-0,0.1,12,,,,,,,
1373,0,,,,-0.09,0.0,0.96,0,-0,-0,0.09,12,,,,,,,
1378,0,,,,-0.06,0.01,1.01,0,-1,-0,0.06,12,,,,,,,
1383,0,,,,-0.03,0.01,0.99,0,0,-0,0.03,12,,,,,,,
1388,0,,,,-0.04,0.01,0.94,0,-0,-0,0.04,12,,,,,,,
1393,0,,,,-0.06,-0.0,1.0,0,-0,-0,0.06,12,,,,,,,
1398,0,,,,-0.07,0.0,1.03,0,0,-0,0.07,12,,,,,,,
1403,0,2.64,3.091,,-0.09,0.0,0.99,0,0,-0,0.09,12,,,,,,,
1408,0,,,,-0.09,-0.01,0.99,0,-0,-0,0.09,12,,,,,,,
1413,0,,,,-0.06,-0.0,1.02,0,-0,-0,0.06,12,,,,,,,
1418,0,,,,-0.04,0.0,1.02,0,-0,-1,0.04,12,,,,,,,
1423,0,,,,-0.03,0.01,0.98,0,-0,-1,0.03,12,,,,,,,
1428,0,,,,-0.03,0.0,0.99,0,-0,-0,0.03,12,,,,,,,
1433,0,,,,-0.06,-0.01,1.02,0,0,-0,0.07,12,,,,,,,
1438,0,,,,-0.08,-0.01,0.98,0,0,-0,0.09,12,,,,,,,
1443,0,2.6,2.994,,-0.08,-0.01,0.99,0,-1,-0,0.08,12,0.0,0.0,0.0,0.0,0,0,0.0
1448,0,,,,-0.04,-0.01,1.03,0,-0,-0,0.04,12,,,,,,,
1453,0,,,,-0.01,-0.01,0.97,0,0,-0,0.02,12,,,,,,,
1458,0,,,,-0.02,-0.01,0.93,0,-0,-0,0.03,12,,,,,,,
1463,0,,,,-0.05,-0.01,1.0,0,-0,-0,0.05,12,,,,,,,
1468,0,,,,-0.08,-0.02,1.02,0,0,-0,0.08,12,,,,,,,
1473,0,,,,-0.1,-0.01,0.97,0,0,-0,0.1,12,,,,,,,
1478,0,,,,-0.11,-0.01,0.98,0,-0,-0,0.11,12,,,,,,,
1483,0,2.62,2.984,,-0.07,-0.0,1.01,1,-0,-0,0.07,12,,,,,,,
1488,0,,,,-0.04,-0.0,0.99,1,0,-0,0.04,12,,,,,,,
1493,0,,,,-0.04,0.0,0.95,1,-0,-0,0.04,12,,,,,,,
1498,0,,,,-0.06,-0.01,1.0,1,-0,-0,0.06,12,,,,,,,
1503,0,,,,-0.11,-0.01,1.02,1,0,-0,0.11,12,,,,,,,
1508,0,,,,-0.12,-0.0,0.96,1,0,-0,0.12,12,,,,,,,
1513,0,,,,-0.1,-0.0,0.99,1,-1,-0,0.1,12,,,,,,,
1518,0,,,,-0.06,0.0,1.02,1,-0,-0,0.06,12,,,,,,,
1523,0,2.61,3.336,,-0.04,0.01,0.96,1,0,-0,0.04,12,,,,,,,
1528,0,,,,-0.04,0.01,0.92,1,-0,-0,0.04,12,,,,,,,
1533,0,,,,-0.05,-0.01,0.99,1,0,-0,0.05,12,,,,,,,
1538,0,,,,-0.09,-0.02,1.0,1,0,-0,0.09,12,,,,,,,
1543,0,,,,-0.09,-0.01,0.95,1,0,-0,0.09,12,0.0,0.0,0.0,0.0,0,0,0.0
1548,0,,,,-0.1,0.01,0.98,1,-0,-0,0.1,12,,,,,,,
1553,0,,,,-0.06,-0.0,1.01,1,-0,-0,0.06,12,,,,,,,
1558,0,,,,-0.04,-0.0,0.98,1,0,-0,0.04,12,,,,,,,
1563,0,2.61,3.243,,-0.04,0.01,0.94,1,-0,-0,0.04,12,,,,,,,
1568,0,,,,-0.06,0.0,1.0,0,-0,-0,0.06,12,,,,,,,
1573,0,,,,-0.1,-0.0,1.0,0,0,-0,0.1,12,,,,,,,
1578,0,,,,-0.1,0.01,0.95,0,-0,-0,0.1,12,,,,,,,
1583,0,,,,-0.09,0.02,0.99,0,-1,-0,0.09,12,,,,,,,
1588,0,,,,-0.05,0.02,1.01,0,-0,-0,0.06,12,,,,,,,
1593,0,,,,-0.03,0.02,0.96,0,-0,-0,0.04,12,,,,,,,
1598,0,,,,-0.04,0.02,0.94,0,-0,-0,0.04,12,,,,,,,
1603,0,2.59,3.232,,-0.05,0.01,0.99,0,-0,-0,0.05,12,,,,,,,
1608,0,,,,-0.07,-0.0,0.99,0,0,-0,0.07,12,,,,,,,
1613,0,,,,-0.07,-0.01,0.94,0,-0,-0,0.07,12,,,,,,,
1618,0,,,,-0.07,0.0,0.97,0,-1,-0,0.07,12,,,,,,,
1623,0,,,,-0.04,0.0,1.01,0,-0,-0,0.04,12,,,,,,,
1628,0,,,,-0.02,0.0,0.98,0,-0,-0,0.02,12,,,,,,,
1633,0,,,,-0.02,0.01,0.95,0,-1,-0,0.02,12,,,,,,,
1638,0,,,,-0.04,-0.0,1.0,0,-0,-0,0.04,12,,,,,,,
1643,0,2.64,3.532,,-0.08,-0.02,0.99,0,0,-0,0.08,12,0.0,0.0,0.0,0.0,0,0,0.0
1648,0,,,,-0.08,-0.01,0.95,0,-1,-0,0.08,12,,,,,,,
1653,0,,,,-0.06,0.0,1.01,0,-1,-0,0.06,12,,,,,,,
1658,0,,,,-0.04,0.0,1.02,0,-0,-1,0.04,12,,,,,,,
1663,0,,,,-0.01,0.0,0.96,0,-0,-1,0.01,12,,,,,,,
1668,0,,,,-0.02,0.0,0.96,0,-1,-1,0.02,12,,,,,,,
1673,0,,,,-0.03,-0.01,1.02,0,-0,-1,0.03,12,,,,,,,
1678,0,,,,-0.05,-0.01,1.01,0,-0,-1,0.05,12,,,,,,,
1683,0,2.63,3.62,,-0.04,-0.02,0.96,0,-1,-1,0.05,12,,,,,,,
1688,0,,,,-0.03,-0.01,1.02,0,-1,-1,0.03,12,,,,,,,
1693,0,,,,-0.01,-0.01,1.03,0,-1,-1,0.01,12,,,,,,,
1698,0,,,,0.01,-0.0,0.99,0,-0,-1,0.01,12,,,,,,,
1703,0,,,,0.0,-0.0,0.98,0,-1,-1,0.0,12,,,,,,,
1708,0,,,,-0.02,-0.01,1.03,0,-0,-1,0.02,12,,,,,,,
1713,0,,,,-0.05,-0.02,1.0,0,0,-1,0.06,12,,,,,,,
1718,0,,,,-0.05,-0.02,0.97,0,-0,-1,0.05,12,,,,,,,
1723,0,2.66,3.856,,-0.03,-0.01,1.03,0,-1,-1,0.03,12,,,,,,,
1728,0,,,,-0.01,-0.01,1.04,0,-0,-1,0.01,12,,,,,,,
1733,0,,,,0.01,-0.0,0.97,0,-0,-1,0.01,12,,,,,,,
1738,0,,,,-0.0,-0.0,0.98,0,-1,-1,0.0,12,,,,,,,
1743,0,,,,-0.01,-0.01,1.04,0,-0,-1,0.02,12,0.0,0.0,0.0,0.0,0,0,0.0
1748,0,,,,-0.03,-0.01,1.02,0,0,-1,0.03,12,,,,,,,
1753,0,,,,-0.02,-0.01,0.97,0,-0,-1,0.02,12,,,,,,,
1758,0,,,,-0.01,-0.0,1.02,0,-1,-1,0.01,12,,,,,,,
1763,0,2.62,3.493,,0.01,0.0,1.03,0,-0,-1,0.01,12,,,,,,,
1768,0,,,,0.02,0.01,0.99,0,0,-1,0.02,12,,,,,,,
1773,0,,,,0.01,0.01,0.97,0,-0,-0,0.02,12,,,,,,,
1778,0,,,,-0.01,-0.0,1.0,0,0,-1,0.01,12,,,,,,,
1783,0,,,,-0.05,-0.01,0.99,0,0,-1,0.05,12,,,,,,,
1788,0,,,,-0.05,0.0,0.94,0,-0,-1,0.05,12,,,,,,,
1793,0,,,,-0.03,0.0,0.99,0,-0,-1,0.03,12,,,,,,,
1798,0,,,,-0.02,0.0,1.01,0,0,-1,0.02,12,,,,,,,
1803,0,2.63,2.548,,0.0,0.01,0.93,0,0,-1,0.01,12,,,,,,,
1808,0,,,,-0.01,0.01,0.93,0,-0,-1,0.01,12,,,,,,,
1813,0,,,,-0.01,-0.0,1.0,0,0,-1,0.01,12,,,,,,,
1818,0,,,,-0.04,-0.01,0.99,0,1,-1,0.04,12,,,,,,,
1823,0,,,,-0.04,-0.0,0.94,0,0,-1,0.04,12,,,,,,,
1828,0,,,,-0.07,0.0,1.01,-0,-0,-1,0.07,12,,,,,,,
1833,0,,,,-0.08,-0.0,1.03,0,0,-0,0.08,12,,,,,,,
1838,0,,,,-0.06,-0.03,1.01,0,1,-0,0.06,12,,,,,,,
1843,0,2.64,1.508,,-0.05,-0.03,0.95,0,0,-0,0.06,12,0.0,0.0,0.0,0.0,0,0,0.0
1848,0,,,,-0.08,-0.04,1.02,0,0,-0,0.09,12,,,,,,,
1853,0,,,,-0.11,-0.04,1.03,0,1,-1,0.12,12,,,,,,,
1858,0,,,,-0.12,-0.04,0.98,0,0,-0,0.13,12,,,,,,,
1863,0,,,,-0.1,-0.03,1.03,0,-0,-0,0.1,12,,,,,,,
1868,0,,,,-0.08,-0.03,1.06,0,1,-0,0.09,12,,,,,,,
1873,0,,,,-0.06,-0.03,0.99,0,1,-0,0.07,12,,,,,,,
1878,0,,,,-0.07,-0.03,0.97,0,0,-0,0.08,12,,,,,,,
1883,0,2.67,0.392,,-0.07,-0.05,1.04,0,1,-0,0.09,12,,,,,,,
1888,0,,,,-0.1,-0.04,1.04,0,1,-0,0.11,12,,,,,,,
1893,0,,,,-0.09,-0.03,1.0,0,0,-1,0.09,12,,,,,,,
1898,0,,,,-0.1,-0.03,0.98,0,-0,-1,0.1,12,,,,,,,
1903,0,,,,-0.06,-0.03,1.0,0,-0,-1,0.06,12,,,,,,,
1908,0,,,,-0.04,-0.02,0.98,0,-0,-1,0.04,12,,,,,,,
1913,0,,,,-0.03,-0.01,0.93,0,-1,-1,0.04,12,,,,,,,
1918,0,,,,-0.04,-0.04,0.95,0,-1,-1,0.06,12,,,,,,,
1923,0,2.68,0.71,,-0.06,-0.05,0.96,0,-1,-1,0.07,12,,,,,,,
1928,0,,,,-0.06,-0.04,0.89,0,-1,-1,0.07,12,,,,,,,
1933,0,,,,-0.04,-0.02,0.9,0,-2,-1,0.04,12,,,,,,,
1938,0,,,,-0.02,-0.02,0.94,0,-2,-1,0.03,12,,,,,,,
1943,0,,,,-0.01,-0.03,0.91,1,-2,-1,0.03,12,0.0,0.0,0.0,0.0,0,0,0.0
1948,0,,,,-0.03,-0.05,0.89,1,-3,-0,0.05,12,,,,,,,
1953,0,,,,-0.03,-0.07,0.94,1,-3,-0,0.07,12,,,,,,,
1958,0,,,,-0.02,-0.07,0.95,1,-3,-0,0.07,12,,,,,,,
1963,0,2.65,0.882,,-0.01,-0.07,0.91,1,-4,-0,0.07,12,,,,,,,
1968,0,,,,-0.02,-0.05,0.94,1,-4,-0,0.06,12,,,,,,,
1973,0,,,,0.01,-0.04,0.98,1,-4,-0,0.04,12,,,,,,,
1978,0,,,,0.03,-0.04,0.97,1,-4,0,0.05,12,,,,,,,
1983,0,,,,0.05,-0.04,0.95,1,-4,0,0.06,12,,,,,,,
1988,0,,,,0.06,-0.05,0.99,1,-5,0,0.08,12,,,,,,,
1993,0,,,,0.05,-0.08,1.02,1,-4,0,0.09,12,,,,,,,
1998,0,,,,0.04,-0.06,0.99,1,-4,0,0.07,12,,,,,,,
2003,0,2.67,1.246,,0.06,-0.04,1.03,1,-5,0,0.07,12,,,,,,,
2008,0,,,,0.09,-0.03,1.1,1,-4,0,0.1,12,,,,,,,
2013,0,,,,0.11,-0.01,1.06,1,-4,0,0.11,12,,,,,,,
2018,0,,,,0.1,-0.02,1.03,1,-4,0,0.1,12,,,,,,,
2023,0,,,,0.09,-0.02,1.1,1,-3,0,0.09,12,,,,,,,
2028,0,,,,0.08,-0.02,1.13,0,-3,0,0.08,12,,,,,,,
2033,0,,,,0.08,0.0,1.08,0,-3,0,0.08,12,,,,,,,
2038,0,,,,0.06,-0.0,1.11,0,-3,0,0.06,12,,,,,,,
2043,0,2.69,2.821,13.38,0.09,0.0,1.13,0,-2,0,0.09,12,0.0,0.0,0.0,0.0,0,0,0.0
2048,0,,,,0.1,-0.0,1.13,0,-1,0,0.1,12,,,,,,,
2053,0,,,,0.11,0.01,1.1,0,-1,0,0.11,12,,,,,,,
2058,0,,,,0.11,0.0,1.11,0,-1,0,0.11,12,,,,,,,
2063,0,,,,0.08,-0.03,1.13,0,-0,0,0.08,12,,,,,,,
2068,0,,,,0.05,-0.02,1.07,0,-0,0,0.06,12,,,,,,,
2073,0,,,,0.05,-0.01,1.08,-0,-1,0,0.05,12,,,,,,,
2078,0,,,,0.08,-0.01,1.12,-0,-0,0,0.08,12,,,,,,,
2083,0,2.68,3.469,,0.09,-0.01,1.07,0,0,-0,0.09,12,,,,,,,
2088,0,,,,0.08,-0.01,1.02,0,0,0,0.08,12,,,,,,,
2093,0,,,,0.06,-0.03,1.06,0,1,0,0.06,12,,,,,,,
2098,0,,,,0.04,-0.02,1.08,0,1,0,0.04,12,,,,,,,
2103,0,,,,0.03,-0.01,1.03,0,1,0,0.03,12,,,,,,,
2108,0,,,,0.01,-0.01,1.03,0,1,0,0.01,12,,,,,,,
2113,0,,,,0.03,-0.01,1.05,0,1,0,0.03,12,,,,,,,
2118,0,,,,0.04,-0.02,1.06,0,1,0,0.05,12,,,,,,,
2123,0,2.64,3.401,,0.06,-0.01,1.01,0,1,0,0.06,12,,,,,,,
2128,0,,,,0.05,-0.02,1.01,0,1,0,0.05,12,,,,,,,
2133,0,,,,0.01,-0.04,1.03,0,2,-0,0.04,12,,,,,,,
2138,0,,,,-0.02,-0.03,1.0,0,2,-0,0.04,12,,,,,,,
2143,0,,,,-0.02,-0.03,0.99,0,2,0,0.03,12,0.0,0.0,0.0,0.0,0,0,0.0
2148,0,,,,0.01,-0.03,1.02,0,2,-0,0.03,12,,,,,,,
2153,0,,,,0.01,-0.03,0.99,1,2,-0,0.03,12,,,,,,,
2158,0,,,,0.0,-0.03,0.95,1,2,-0,0.03,12,,,,,,,
2163,0,2.62,2.969,,-0.02,-0.04,0.99,1,2,-0,0.05,12,,,,,,,
2168,0,,,,-0.05,-0.04,1.02,1,2,-0,0.06,12,,,,,,,
2173,0,,,,-0.07,-0.04,0.98,1,2,-0,0.08,12,,,,,,,
2178,0,,,,-0.07,-0.03,0.95,1,2,-0,0.08,12,,,,,,,
2183,0,,,,-0.06,-0.03,1.0,1,2,-0,0.07,12,,,,,,,
2188,0,,,,-0.05,-0.02,1.0,1,2,-0,0.05,12,,,,,,,
2193,0,,,,-0.03,-0.01,0.96,1,2,-0,0.03,12,,,,,,,
2198,0,,,,-0.04,-0.02,0.96,1,2,-0,0.05,12,,,,,,,
2203,0,2.65,2.968,,-0.07,-0.03,0.98,1,2,-0,0.08,12,,,,,,,
2208,0,,,,-0.1,-0.03,0.96,1,2,-0,0.11,12,,,,,,,
2213,0,,,,-0.09,-0.02,0.94,1,2,-0,0.1,12,,,,,,,
2218,0,,,,-0.06,-0.02,0.98,1,2,-0,0.06,12,,,,,,,
2223,0,,,,-0.05,-0.01,0.96,0,2,-0,0.05,12,,,,,,,
2228,0,,,,-0.06,-0.01,0.91,0,2,-0,0.06,12,,,,,,,
2233,0,,,,-0.07,-0.02,0.96,0,1,-0,0.07,12,,,,,,,
2238,0,,,,-0.08,-0.02,0.99,0,2,-0,0.08,12,,,,,,,
2243,0,2.62,2.665,,-0.09,-0.02,0.96,0,2,-0,0.09,12,0.0,0.0,0.0,0.0,0,0,0.0
2248,0,,,,-0.09,-0.02,0.94,0,1,-0,0.09,12,,,,,,,
2253,0,,,,-0.08,-0.01,0.99,0,1,-0,0.08,12,,,,,,,
2258,0,,,,-0.06,-0.01,0.99,0,1,-0,0.06,12,,,,,,,
2263,0,,,,-0.04,-0.01,0.95,0,1,-0,0.04,12,,,,,,,
2268,0,,,,-0.05,-0.02,0.96,0,1,-0,0.05,12,,,,,,,
2273,0,,,,-0.07,-0.04,0.99,0,1,-0,0.08,12,,,,,,,
2278,0,,,,-0.09,-0.04,0.96,0,1,-0,0.1,12,,,,,,,
2283,0,2.62,2.525,,-0.09,-0.02,0.95,0,1,-0,0.1,12,,,,,,,
2288,0,,,,-0.06,-0.01,1.0,0,0,-0,0.06,12,,,,,,,
2293,0,,,,-0.05,-0.01,0.99,0,1,-0,0.05,12,,,,,,,
2298,0,,,,-0.04,-0.01,0.92,0,1,-0,0.04,12,,,,,,,
2303,0,,,,-0.06,-0.02,0.96,0,0,-0,0.06,12,,,,,,,
2428,0,,,,-0.01,0.01,0.99,0,-1,-0,0.02,12,,,,,,,
2433,0,,,,-0.0,0.01,1.02,0,-0,-0,0.01,12,,,,,,,
2438,0,,,,0.01,0.02,0.96,0,-0,-0,0.02,12,,,,,,,
2443,0,2.67,2.856,,0.0,0.01,0.96,0,-1,-0,0.01,12,0.0,0.0,0.0,0.0,0,0,0.0
2448,0,,,,-0.01,-0.01,1.01,0,-0,-0,0.01,12,,,,,,,
2453,0,,,,-0.02,-0.01,1.01,0,-0,-0,0.02,12,,,,,,,
2458,0,,,,-0.03,0.0,0.98,0,-1,-0,0.03,12,,,,,,,
2463,0,,,,-0.03,0.01,1.01,0,-1,-0,0.03,12,,,,,,,
2468,0,,,,0.0,0.0,1.03,0,-0,-0,0.0,12,,,,,,,
2473,0,,,,0.02,0.01,1.0,0,-0,-0,0.02,12,,,,,,,
2478,0,,,,0.01,0.02,0.98,0,-0,-0,0.02,12,,,,,,,
2483,0,2.68,3.012,,0.0,-0.0,1.02,0,-0,-0,0.0,12,,,,,,,
2488,0,,,,-0.03,-0.01,1.03,0,0,-0,0.03,12,,,,,,,
2493,0,,,,-0.04,-0.01,0.98,0,-0,-0,0.04,12,,,,,,,
2498,0,,,,-0.02,-0.01,1.01,0,-1,-0,0.02,12,,,,,,,
2503,0,,,,-0.0,-0.0,1.04,0,-0,-0,0.0,12,,,,,,,
2508,0,,,,0.0,0.0,0.99,0,0,-0,0.01,12,,,,,,,
2513,0,,,,-0.01,0.0,0.97,0,-0,0,0.01,12,,,,,,,
2518,0,,,,-0.01,-0.01,1.02,0,0,0,0.02,12,,,,,,,
2523,0,2.65,3.161,,-0.03,-0.01,1.03,0,0,-0,0.03,12,,,,,,,
2528,0,,,,-0.04,0.01,0.98,0,0,-0,0.04,12,,,,,,,
2628,0,,,,-0.05,-0.02,1.02,0,1,-0,0.06,12,,,,,,,
2633,0,,,,-0.08,-0.02,0.99,0,0,-0,0.08,12,,,,,,,
2638,0,,,,-0.08,-0.02,0.99,0,-0,0,0.08,12,,,,,,,
2643,0,2.63,3.454,,-0.05,-0.01,1.02,0,-0,-0,0.05,12,0.0,0.0,0.0,0.0,0,0,0.0
2648,0,,,,-0.03,-0.01,0.97,0,0,-0,0.04,12,,,,,,,
2653,0,,,,-0.05,-0.0,0.93,0,0,-0,0.05,12,,,,,,,
2658,0,,,,-0.06,-0.02,0.98,0,0,-0,0.06,12,,,,,,,
2663,0,,,,-0.07,-0.02,0.99,0,0,-0,0.08,12,,,,,,,
2668,0,,,,-0.07,-0.02,0.95,0,0,-0,0.08,12,,,,,,,
2673,0,,,,-0.09,-0.02,0.98,0,-0,0,0.09,12,,,,,,,
2773,0,,,,-0.06,-0.04,0.97,0,0,-0,0.07,12,,,,,,,
2778,0,,,,-0.06,-0.03,0.96,0,-0,-0,0.06,12,,,,,,,
2783,0,,,,-0.02,-0.02,1.0,0,-0,-0,0.03,12,,,,,,,
2788,0,,,,-0.01,-0.01,0.98,0,0,-0,0.02,12,,,,,,,
2793,0,,,,-0.01,-0.01,0.93,0,-0,-0,0.01,12,,,,,,,
2798,0,,,,-0.02,-0.02,0.98,0,-0,-0,0.02,12,,,,,,,
2803,0,2.64,2.974,,-0.02,-0.03,1.01,0,-0,-0,0.04,12,,,,,,,
2808,0,,,,-0.03,-0.04,0.98,0,0,-0,0.05,12,,,,,,,
2813,0,,,,-0.03,-0.04,0.96,0,-0,-0,0.05,12,,,,,,,
2818,0,,,,-0.03,-0.03,1.01,0,-0,-0,0.04,12,,,,,,,
2918,0,,,,-0.04,-0.0,0.95,0,0,-0,0.04,12,,,,,,,
2923,0,2.67,3.219,,-0.02,-0.0,0.99,0,-0,-0,0.02,12,,,,,,,
2928,0,,,,-0.0,0.01,1.0,0,0,-0,0.01,12,,,,,,,
2933,0,,,,0.01,0.02,0.94,0,0,-0,0.02,12,,,,,,,
2938,0,,,,0.01,0.01,0.95,0,-0,-0,0.01,12,,,,,,,
2943,0,,,,0.01,-0.0,1.0,0,0,-0,0.01,12,0.0,0.0,0.0,0.0,0,0,0.0
2948,0,,,,-0.01,-0.01,0.98,0,0,-0,0.02,12,,,,,,,
2953,0,,,,-0.02,0.01,0.96,0,0,-0,0.02,12,,,,,,,
2958,0,,,,-0.03,0.0,1.0,0,0,-0,0.03,12,,,,,,,
2963,0,2.66,3.293,,0.0,0.0,1.01,0,0,-0,0.0,12,,,,,,,
3063,0,,,,-0.07,-0.01,1.0,0,-0,0,0.07,12,,,,,,,
3068,0,,,,-0.04,-0.01,1.04,0,-0,0,0.04,12,,,,,,,
3073,0,,,,-0.03,-0.0,0.99,0,0,-0,0.03,12,,,,,,,
3078,0,,,,-0.05,0.01,0.97,0,-0,0,0.05,12,,,,,,,
3083,0,2.68,2.971,,-0.06,-0.02,1.02,0,0,0,0.06,12,,,,,,,
3088,0,,,,-0.07,-0.02,1.03,0,0,0,0.07,12,,,,,,,
3093,0,,,,-0.07,-0.01,0.98,0,0,0,0.07,12,,,,,,,
3098,0,,,,-0.08,-0.01,0.99,0,-0,0,0.08,12,,,,,,,
3103,0,,,,-0.06,-0.01,1.03,0,0,0,0.06,12,,,,,,,
3108,0,,,,-0.04,-0.0,1.01,0,0,-0,0.04,12,,,,,,,
3213,0,,,,-0.02,-0.01,0.99,0,1,-0,0.02,12,,,,,,,
3218,0,,,,-0.01,0.0,0.93,0,0,-0,0.01,12,,,,,,,
3223,0,,,,-0.02,-0.02,0.97,0,0,-0,0.03,12,,,,,,,
3228,0,,,,-0.01,-0.03,0.99,0,1,-0,0.03,12,,,,,,,
3233,0,,,,-0.03,-0.03,0.97,0,1,-0,0.05,12,,,,,,,
3238,0,,,,-0.02,-0.03,0.94,0,0,-0,0.04,12,,,,,,,
3243,0,2.7,3.137,,-0.03,-0.03,0.99,0,0,-0,0.04,12,0.0,0.0,0.0,0.0,0,0,0.0
3248,0,,,,0.0,-0.02,0.99,0,0,-0,0.02,12,,,,,,,
3253,0,,,,0.01,-0.01,0.96,0,0,-0,0.02,12,,,,,,,
3258,0,,,,0.01,-0.01,0.96,0,0,-0,0.02,12,,,,,,,
3263,0,,,,-0.01,-0.02,0.99,0,1,-0,0.02,12,,,,,,,
3268,0,,,,-0.02,-0.02,0.98,0,1,-0,0.03,12,,,,,,,
3273,0,,,,-0.03,-0.01,0.95,0,0,-0,0.03,12,,,,,,,
3278,0,,,,-0.02,-0.0,0.99,0,0,-0,0.02,12,,,,,,,
3283,0,2.65,3.581,,-0.01,0.0,1.0,0,1,-0,0.01,12,,,,,,,
3288,0,,,,0.0,0.01,0.94,0,1,-0,0.01,12,,,,,,,
3293,0,,,,-0.01,0.01,0.96,0,0,-0,0.01,12,,,,,,,
3298,0,,,,-0.0,-0.0,0.99,0,1,-0,0.0,12,,,,,,,
3303,0,,,,-0.02,-0.01,0.98,0,1,-0,0.03,12,,,,,,,
3308,0,,,,-0.03,-0.0,0.95,0,1,-0,0.03,12,,,,,,,
3313,0,,,,-0.04,0.0,0.99,0,1,-0,0.04,12,,,,,,,
3318,0,,,,0.0,0.01,1.01,0,1,-0,0.01,12,,,,,,,
3323,0,2.69,3.522,,0.01,0.02,0.98,0,1,-0,0.02,12,,,,,,,
3328,0,,,,0.01,0.02,0.96,0,1,-0,0.02,12,,,,,,,
3333,0,,,,0.01,0.0,0.99,0,1,-0,0.01,12,,,,,,,
3338,0,,,,-0.02,-0.0,1.0,0,2,-0,0.02,12,,,,,,,
3343,0,,,,-0.04,0.0,0.97,0,1,-0,0.04,12,0.0,0.0,0.0,0.0,0,0,0.0
3348,0,,,,-0.03,0.01,0.99,0,1,-0,0.03,12,,,,,,,
3353,0,,,,-0.02,0.01,1.04,0,1,-0,0.02,12,,,,,,,
3358,0,,,,-0.01,0.02,0.99,0,1,-0,0.02,12,,,,,,,
3363,0,2.73,3.587,,-0.03,0.02,0.98,0,0,-0,0.03,12,,,,,,,
3368,0,,,,-0.03,-0.0,1.04,0,0,-0,0.03,12,,,,,,,
3373,0,,,,-0.04,-0.01,1.04,0,1,-0,0.04,12,,,,,,,
3378,0,,,,-0.05,0.0,0.99,0,0,-0,0.05,12,,,,,,,
3383,0,,,,-0.07,0.01,1.02,0,0,-0,0.07,12,,,,,,,
3388,0,,,,-0.04,0.01,1.05,0,0,-0,0.04,12,,,,,,,
3393,0,,,,-0.03,0.02,1.03,0,0,-0,0.03,12,,,,,,,
3398,0,,,,-0.02,0.02,1.0,0,0,-0,0.03,12,,,,,,,
3403,0,2.75,3.704,,-0.03,0.01,1.02,0,0,0,0.03,12,,,,,,,
3408,0,,,,-0.06,-0.01,1.04,0,0,-0,0.06,12,,,,,,,
3413,0,,,,-0.07,-0.01,1.0,0,0,0,0.08,12,,,,,,,
3418,0,,,,-0.07,-0.01,1.01,0,-0,0,0.07,12,,,,,,,
3423,0,,,,-0.04,-0.0,1.04,0,-0,0,0.04,12,,,,,,,
3428,0,,,,-0.03,0.0,1.0,0,0,-0,0.03,12,,,,,,,
3433,0,,,,-0.05,0.02,0.97,0,-0,0,0.05,12,,,,,,,
3438,0,,,,-0.06,-0.0,1.02,0,-0,0,0.06,12,,,,,,,
3443,0,2.75,3.693,,-0.07,-0.0,1.02,0,0,0,0.07,12,0.0,0.0,0.0,0.0,0,0,0.0
3448,0,,,,-0.07,-0.0,0.98,0,-0,0,0.07,12,,,,,,,
3453,0,,,,-0.07,-0.0,0.99,0,-0,0,0.07,12,,,,,,,
3458,0,,,,-0.06,0.0,1.03,0,-0,0,0.06,12,,,,,,,
3463,0,,,,-0.04,0.0,1.01,0,0,-0,0.04,12,,,,,,,
3468,0,,,,-0.02,0.01,0.98,0,-0,-0,0.03,12,,,,,,,
3473,0,,,,-0.03,-0.0,0.99,0,-0,-0,0.03,12,,,,,,,
3478,0,,,,-0.05,-0.02,1.02,0,0,-0,0.06,12,,,,,,,
3483,0,2.74,3.468,,-0.08,-0.02,1.0,0,0,-0,0.08,12,,,,,,,
3488,0,,,,-0.07,-0.02,0.99,0,-0,-0,0.07,12,,,,,,,
3493,0,,,,-0.03,-0.02,1.02,0,-0,-0,0.04,12,,,,,,,
3498,0,,,,-0.02,-0.01,1.0,0,0,-0,0.02,12,,,,,,,
3503,0,,,,-0.02,-0.0,0.95,0,-0,-0,0.02,12,,,,,,,
3508,0,,,,-0.02,-0.02,1.0,0,-0,-0,0.03,12,,,,,,,
3513,0,,,,-0.03,-0.03,1.01,0,0,-0,0.04,12,,,,,,,
3518,0,,,,-0.04,-0.03,0.97,0,-0,-0,0.05,12,,,,,,,
3523,0,2.74,3.426,,-0.04,-0.03,0.97,0,-0,-0,0.05,12,,,,,,,
3528,0,,,,-0.03,-0.03,1.01,0,-0,-0,0.04,12,,,,,,,
3533,0,,,,-0.01,-0.02,1.01,0,-0,-0,0.02,12,,,,,,,
3538,0,,,,0.0,-0.02,0.97,0,-0,-0,0.02,12,,,,,,,
3543,0,,,,-0.0,-0.02,0.98,0,-0,-0,0.02,12,0.0,0.0,0.0,0.0,0,0,0.0
3548,0,,,,-0.02,-0.04,1.02,0,-0,-0,0.05,12,,,,,,,
3553,0,,,,-0.05,-0.03,0.99,0,0,-0,0.06,12,,,,,,,
3558,0,,,,-0.05,-0.03,0.98,0,-0,-0,0.06,12,,,,,,,
3563,0,2.73,3.653,,-0.01,-0.03,1.01,0,-0,-0,0.03,12,,,,,,,
3568,0,,,,-0.01,-0.02,1.01,0,0,-0,0.02,12,,,,,,,
3573,0,,,,-0.0,-0.01,0.95,0,-0,-0,0.01,12,,,,,,,
3578,0,,,,-0.0,-0.02,0.98,0,-0,-0,0.02,12,,,,,,,
3583,0,,,,-0.01,-0.03,1.02,0,0,-0,0.03,12,,,,,,,
3588,0,,,,-0.03,-0.04,0.99,0,0,-0,0.05,12,,,,,,,
3593,0,,,,-0.03,-0.03,0.97,0,-0,-0,0.04,12,,,,,,,
3598,0,,,,-0.03,-0.03,1.01,0,-0,-0,0.04,12,,,,,,,
3603,0,2.7,3.401,,-0.01,-0.02,1.02,0,0,-0,0.02,12,,,,,,,
3608,0,,,,0.0,-0.01,0.98,0,0,-0,0.01,12,,,,,,,
3613,0,,,,-0.0,-0.01,0.98,0,-0,-0,0.01,12,,,,,,,
3618,0,,,,-0.01,-0.02,1.01,0,0,-0,0.02,12,,,,,,,
3623,0,,,,-0.04,-0.02,1.0,0,0,-0,0.04,12,,,,,,,
3628,0,,,,-0.04,-0.01,0.97,0,0,-0,0.04,12,,,,,,,
3633,0,,,,-0.02,-0.0,1.01,0,-0,-0,0.02,12,,,,,,,
3638,0,,,,-0.01,0.0,1.02,0,0,-0,0.01,12,,,,,,,
3643,0,2.69,3.605,,-0.0,0.01,0.96,0,0,-0,0.02,12,0.0,0.0,0.0,0.0,0,0,0.0
3648,0,,,,-0.02,0.01,0.97,0,-0,-0,0.02,12,,,,,,,
3653,0,,,,-0.02,-0.0,1.02,0,0,-0,0.02,12,,,,,,,
3658,0,,,,-0.03,-0.01,1.01,0,0,-0,0.04,12,,,,,,,
3663,0,,,,-0.04,0.01,0.98,0,-0,-0,0.04,12,,,,,,,
3668,0,,,,-0.05,0.01,1.02,0,-0,-0,0.05,12,,,,,,,
3673,0,,,,-0.03,0.01,1.03,0,0,-0,0.03,12,,,,,,,
3678,0,,,,-0.02,0.02,1.0,0,0,-0,0.03,12,,,,,,,
3683,0,2.66,3.282,,-0.01,0.03,0.98,0,-0,-0,0.03,12,,,,,,,
3688,0,,,,-0.02,0.01,1.01,0,-0,-0,0.02,12,,,,,,,
3693,0,,,,-0.04,-0.0,1.02,0,0,-0,0.04,12,,,,,,,
3698,0,,,,-0.07,0.0,0.99,0,0,-0,0.07,12,,,,,,,
3703,0,,,,-0.06,0.01,1.0,0,-0,0,0.06,12,,,,,,,
3708,0,,,,-0.03,0.0,1.03,0,-0,-0,0.03,12,,,,,,,
3713,0,,,,-0.02,0.01,1.0,0,-0,-0,0.03,12,,,,,,,
3718,0,,,,-0.04,0.01,0.98,0,-1,-0,0.04,12,,,,,,,
3723,0,2.68,3.056,,-0.05,0.0,1.03,0,-0,-0,0.05,12,,,,,,,
3728,0,,,,-0.05,-0.0,1.04,0,0,-0,0.05,12,,,,,,,
3733,0,,,,-0.07,0.0,1.0,0,-0,-0,0.07,12,,,,,,,
3738,0,,,,-0.07,0.0,1.0,0,-1,0,0.07,12,,,,,,,
3743,0,,,,-0.06,0.01,1.04,0,-0,-0,0.06,12,0.0,0.0,0.0,0.0,0,0,0.0
3748,0,,,,-0.03,0.01,1.02,0,-0,-0,0.03,12,,,,,,,
3753,0,,,,-0.02,0.02,0.99,0,-0,-0,0.03,12,,,,,,,
3758,0,,,,-0.03,0.01,0.99,0,-0,-0,0.03,12,,,,,,,
3763,0,2.65,3.296,,-0.05,-0.01,1.03,0,0,-0,0.05,12,,,,,,,
3768,0,,,,-0.08,-0.01,1.01,0,0,-0,0.08,12,,,,,,,
3773,0,,,,-0.07,-0.0,0.98,0,-0,-0,0.07,12,,,,,,,
3778,0,,,,-0.03,0.0,1.01,0,-0,-0,0.03,12,,,,,,,
3783,0,,,,-0.02,0.01,1.0,0,-0,-0,0.02,12,,,,,,,
3788,0,,,,-0.02,0.02,0.94,0,-1,-0,0.02,12,,,,,,,
3793,0,,,,-0.01,-0.0,0.97,0,-1,-0,0.01,12,,,,,,,
3798,0,,,,-0.01,-0.01,1.01,0,0,-0,0.02,12,,,,,,,
3803,0,2.7,2.777,,-0.02,-0.02,0.96,0,-0,-0,0.03,12,,,,,,,
3808,0,,,,-0.02,-0.02,0.96,0,-1,-0,0.02,12,,,,,,,
3813,0,,,,-0.01,-0.01,1.0,0,-1,-0,0.02,12,,,,,,,
3818,0,,,,0.01,-0.01,1.0,0,-0,-0,0.01,12,,,,,,,
3823,0,,,,0.02,0.0,0.95,0,-0,-0,0.02,12,,,,,,,
3828,0,,,,0.02,-0.0,0.96,0,-1,-0,0.02,12,,,,,,,
3833,0,,,,0.01,-0.02,0.99,0,-0,-0,0.02,12,,,,,,,
3838,0,,,,-0.01,-0.02,0.99,0,-0,-0,0.03,12,,,,,,,
3843,0,2.69,3.399,,-0.03,-0.01,0.96,0,-0,-0,0.03,12,0.0,0.0,0.0,0.0,0,0,0.0
3848,0,,,,-0.01,-0.01,0.99,0,-1,-0,0.01,12,,,,,,,
3853,0,,,,0.0,-0.0,1.0,0,-1,-0,0.0,12,,,,,,,
3858,0,,,,0.01,0.01,0.96,0,-1,-0,0.02,12,,,,,,,
3863,0,,,,0.0,0.01,0.95,0,-1,-0,0.01,12,,,,,,,
3868,0,,,,0.0,-0.02,1.0,0,-1,-0,0.02,12,,,,,,,
3873,0,,,,-0.01,-0.02,1.0,0,-0,-0,0.03,12,,,,,,,
3878,0,,,,-0.02,-0.01,0.97,0,-1,-0,0.02,12,,,,,,,
3883,0,2.77,3.492,,-0.03,-0.02,1.01,0,-1,-0,0.04,12,,,,,,,
3888,0,,,,-0.01,-0.01,1.03,0,-0,-0,0.02,12,,,,,,,
3893,0,,,,-0.0,-0.0,1.0,0,-0,-0,0.01,12,,,,,,,
3898,0,,,,0.0,0.0,0.97,0,-1,-0,0.0,12,,,,,,,
3903,0,,,,-0.0,-0.02,1.0,0,-0,-0,0.02,12,,,,,,,
3908,0,,,,-0.04,-0.03,1.03,0,-0,-0,0.05,12,,,,,,,
3913,0,,,,-0.06,-0.03,0.99,0,-0,-0,0.07,12,,,,,,,
3918,0,,,,-0.06,-0.02,0.99,0,-1,-0,0.06,12,,,,,,,
3923,0,2.73,3.727,,-0.03,-0.01,1.02,0,-0,-0,0.03,12,,,,,,,
3928,0,,,,-0.02,-0.01,0.99,0,-0,-0,0.02,12,,,,,,,
3933,0,,,,-0.03,-0.01,0.95,0,-1,-0,0.03,12,,,,,,,
3938,0,,,,-0.04,-0.02,1.0,0,-0,-0,0.04,12,,,,,,,
3943,0,,,,-0.05,-0.03,1.02,0,-0,-0,0.05,12,0.0,0.0,0.0,0.0,0,0,0.0
3948,0,,,,-0.07,-0.02,0.99,0,-0,-0,0.07,12,,,,,,,
3953,0,,,,-0.07,-0.02,0.99,0,-1,-0,0.08,12,,,,,,,
3958,0,,,,-0.06,-0.01,1.03,0,-0,-0,0.06,12,,,,,,,
3963,0,2.79,3.326,,-0.04,-0.01,1.01,0,-0,-0,0.04,12,,,,,,,
3968,0,,,,-0.03,-0.01,0.98,0,-0,-0,0.03,12,,,,,,,
3973,0,,,,-0.02,-0.01,0.99,0,-0,-0,0.03,12,,,,,,,
3978,0,,,,-0.04,-0.02,1.03,0,0,-0,0.05,12,,,,,,,
3983,0,,,,-0.07,-0.02,1.0,0,0,-0,0.07,12,,,,,,,
3988,0,,,,-0.07,-0.01,0.97,0,-0,-0,0.07,12,,,,,,,
3993,0,,,,-0.04,-0.01,1.01,0,-0,-0,0.04,12,,,,,,,
3998,0,,,,-0.03,-0.0,1.01,0,0,-0,0.03,12,,,,,,,
4003,0,2.78,3.526,,-0.03,0.01,0.95,0,-0,-0,0.03,12,,,,,,,
4008,0,,,,-0.02,-0.01,0.97,0,-0,-0,0.02,12,,,,,,,
4013,0,,,,-0.02,-0.02,1.0,0,0,-0,0.03,12,,,,,,,
4018,0,,,,-0.03,-0.02,0.98,0,0,-0,0.04,12,,,,,,,
4023,0,,,,-0.03,-0.02,0.96,0,-0,-0,0.04,12,,,,,,,
4028,0,,,,-0.03,-0.01,0.99,0,-0,-0,0.04,12,,,,,,,
4033,0,,,,0.0,-0.01,1.0,0,-0,-0,0.01,12,,,,,,,
4038,0,,,,0.01,-0.01,0.98,0,-0,-0,0.01,12,,,,,,,
4043,0,2.78,3.446,13.35,0.01,-0.0,0.96,0,-0,-0,0.01,12,0.0,0.0,0.0,0.0,0,0,0.0
4048,0,,,,0.0,-0.02,0.99,0,-0,-0,0.02,12,,,,,,,
4053,0,,,,-0.02,-0.03,1.01,0,0,-0,0.04,12,,,,,,,
4058,0,,,,-0.04,-0.02,0.97,0,0,-0,0.04,12,,,,,,,
4063,0,,,,-0.03,-0.02,0.99,0,-0,-0,0.03,12,,,,,,,
4068,0,,,,-0.0,-0.01,1.01,0,-0,-0,0.01,12,,,,,,,
4073,0,,,,0.01,0.0,0.96,0,-0,-0,0.01,12,,,,,,,
4078,0,,,,-0.01,-0.0,0.95,0,-0,-0,0.01,12,,,,,,,
4083,0,2.82,3.111,,-0.01,-0.02,1.01,0,-0,-0,0.03,12,,,,,,,
4088,0,,,,-0.03,-0.03,1.01,0,0,-0,0.04,12,,,,,,,
4093,0,,,,-0.04,-0.01,0.97,0,0,-0,0.04,12,,,,,,,
4098,0,,,,-0.05,-0.01,1.0,0,-0,-0,0.05,12,,,,,,,
4103,0,,,,-0.03,-0.01,1.03,0,0,-0,0.03,12,,,,,,,
4108,0,,,,-0.02,0.0,1.0,0,0,-0,0.02,12,,,,,,,
4113,0,,,,-0.01,0.01,0.98,0,-0,-0,0.01,12,,,,,,,
4118,0,,,,-0.01,-0.01,1.0,0,-0,-0,0.01,12,,,,,,,
4123,0,2.8,3.37,,-0.04,-0.03,1.03,0,0,-0,0.04,12,,,,,,,
4128,0,,,,-0.06,-0.02,0.99,0,1,-0,0.07,12,,,,,,,
4133,0,,,,-0.06,-0.02,0.99,0,0,-0,0.07,12,,,,,,,
4138,0,,,,-0.03,-0.01,1.03,0,0,-0,0.04,12,,,,,,,
4143,0,,,,-0.03,-0.01,1.01,0,0,-0,0.03,12,0.0,0.0,0.0,0.0,0,0,0.0
4148,0,,,,-0.03,-0.0,0.96,0,0,-0,0.03,12,,,,,,,
4153,0,,,,-0.03,-0.02,1.0,0,0,-0,0.04,12,,,,,,,
4158,0,,,,-0.03,-0.03,1.02,0,1,-0,0.04,12,,,,,,,
4163,0,2.83,2.821,,-0.05,-0.03,0.99,0,0,-0,0.06,12,,,,,,,
4168,0,,,,-0.05,-0.02,0.98,0,-0,-0,0.05,12,,,,,,,
4173,0,,,,-0.05,-0.02,1.02,0,0,-0,0.05,12,,,,,,,
4178,0,,,,-0.02,-0.01,1.01,0,0,-0,0.03,12,,,,,,,
4183,0,,,,-0.02,-0.01,0.98,0,0,-0,0.02,12,,,,,,,
4188,0,,,,-0.02,-0.01,0.98,0,0,-0,0.02,12,,,,,,,
4193,0,,,,-0.03,-0.02,1.01,0,0,-0,0.04,12,,,,,,,
4198,0,,,,-0.05,-0.03,0.99,0,1,-0,0.06,12,,,,,,,
4203,0,2.8,3.056,,-0.06,-0.02,0.96,0,0,-0,0.06,12,,,,,,,
4208,0,,,,-0.03,-0.01,1.0,0,0,-0,0.04,12,,,,,,,
4213,0,,,,-0.02,0.0,1.01,0,0,-0,0.02,12,,,,,,,
4218,0,,,,-0.01,0.02,0.95,0,0,-0,0.02,12,,,,,,,
4223,0,,,,-0.01,0.01,0.95,0,-0,-0,0.01,12,,,,,,,
4228,0,,,,-0.01,-0.02,1.0,0,0,-0,0.02,12,,,,,,,
4233,0,,,,-0.02,-0.02,0.99,0,1,-0,0.03,12,,,,,,,
4238,0,,,,-0.03,-0.02,0.95,0,0,-0,0.03,12,,,,,,,
4243,0,2.78,3.291,,-0.03,-0.02,0.99,0,0,-0,0.03,12,0.0,0.0,0.0,0.0,0,0,0.0
4248,0,,,,-0.01,-0.01,1.01,0,0,-0,0.01,12,,,,,,,
4253,0,,,,-0.0,-0.0,0.97,0,0,-0,0.01,12,,,,,,,
4258,0,,,,0.0,0.0,0.96,0,0,-0,0.0,12,,,,,,,
4263,0,,,,-0.0,-0.01,1.0,0,0,-0,0.01,12,,,,,,,
4268,0,,,,-0.03,-0.02,1.0,0,1,-0,0.04,12,,,,,,,
4273,0,,,,-0.05,-0.02,0.97,0,0,-0,0.06,12,,,,,,,
4278,0,,,,-0.05,-0.02,0.98,0,0,-0,0.05,12,,,,,,,
4283,0,2.78,3.544,,-0.02,-0.02,1.02,0,0,-0,0.03,12,,,,,,,
4288,0,,,,-0.01,-0.0,0.98,0,0,-0,0.01,12,,,,,,,
4293,0,,,,-0.03,0.0,0.95,0,0,-0,0.03,12,,,,,,,
4298,0,,,,-0.04,-0.02,0.99,0,0,-0,0.04,12,,,,,,,
4303,0,,,,-0.04,-0.02,1.01,0,0,-0,0.05,12,,,,,,,
4308,0,,,,-0.05,-0.02,0.97,0,0,-0,0.05,12,,,,,,,
4313,0,,,,-0.06,-0.01,0.99,0,-0,-0,0.06,12,,,,,,,
4318,0,,,,-0.06,-0.0,1.03,0,0,-0,0.06,12,,,,,,,
4323,0,2.73,3.176,,-0.04,0.0,1.02,0,0,-0,0.04,12,,,,,,,
4328,0,,,,-0.03,0.01,0.99,0,0,-0,0.03,12,,,,,,,
4333,0,,,,-0.03,-0.0,0.99,0,0,-0,0.03,12,,,,,,,
4338,0,,,,-0.05,-0.02,1.02,0,1,-0,0.05,12,,,,,,,
4343,0,,,,-0.08,-0.02,1.0,0,1,-0,0.08,12,0.0,0.0,0.0,0.0,0,0,0.0
4348,0,,,,-0.08,-0.01,0.97,0,0,-0,0.08,12,,,,,,,
4353,0,,,,-0.05,-0.0,1.0,0,0,-0,0.05,12,,,,,,,
4358,0,,,,-0.03,0.01,1.0,0,1,-0,0.04,12,,,,,,,
4363,0,2.76,3.317,,-0.03,0.02,0.95,0,0,-0,0.04,12,,,,,,,
4368,0,,,,-0.03,0.01,0.96,0,0,-0,0.03,12,,,,,,,
4373,0,,,,-0.02,-0.0,1.0,0,0,-0,0.03,12,,,,,,,
4378,0,,,,-0.04,-0.01,0.98,0,0,-0,0.04,12,,,,,,,
4383,0,,,,-0.03,-0.01,0.96,0,0,-0,0.04,12,,,,,,,
4388,0,,,,-0.04,-0.01,0.99,0,0,-0,0.04,12,,,,,,,
4393,0,,,,0.0,-0.0,0.99,0,0,-0,0.0,12,,,,,,,
4398,0,,,,0.01,0.01,0.96,0,0,-0,0.01,12,,,,,,,
4403,0,2.73,3.247,,0.01,0.01,0.96,0,-0,-0,0.02,12,,,,,,,
4408,0,,,,0.0,-0.01,0.99,0,0,-0,0.01,12,,,,,,,
4413,0,,,,-0.02,-0.01,1.01,0,0,-0,0.02,12,,,,,,,
4418,0,,,,-0.03,-0.01,0.97,0,0,-0,0.03,12,,,,,,,
4423,0,,,,-0.03,-0.01,1.0,0,-0,-0,0.03,12,,,,,,,
4428,0,,,,-0.01,-0.0,1.03,0,0,-0,0.01,12,,,,,,,
4433,0,,,,-0.0,0.01,0.98,0,0,-0,0.01,12,,,,,,,
4438,0,,,,-0.02,0.01,0.97,0,-0,-0,0.02,12,,,,,,,
4443,0,2.69,3.074,,-0.03,-0.01,1.04,0,0,-0,0.03,12,0.0,0.0,0.0,0.0,0,0,0.0
4448,0,,,,-0.04,-0.01,1.03,0,0,-0,0.04,12,,,,,,,
4453,0,,,,-0.05,-0.0,1.0,0,0,-0,0.05,12,,,,,,,
4603,0,2.72,3.111,,-0.04,-0.03,1.0,0,0,-0,0.05,12,,,,,,,
4608,0,,,,-0.01,-0.02,0.99,0,0,-0,0.03,12,,,,,,,
4613,0,,,,-0.0,-0.02,0.97,0,0,-0,0.02,12,,,,,,,
4618,0,,,,0.0,-0.02,0.97,0,0,-0,0.02,12,,,,,,,
4623,0,,,,-0.02,-0.03,0.99,0,0,-0,0.04,12,,,,,,,
4628,0,,,,-0.04,-0.03,0.98,0,0,-0,0.05,12,,,,,,,
4633,0,,,,-0.04,-0.02,0.96,0,0,-0,0.05,12,,,,,,,
4638,0,,,,-0.02,-0.01,0.99,0,-0,-0,0.03,12,,,,,,,
4643,0,2.74,3.492,,-0.01,-0.01,0.99,0,0,-0,0.01,12,0.0,0.0,0.0,0.0,0,0,0.0
4648,0,,,,0.0,0.01,0.94,0,0,-0,0.01,12,,,,,,,
4653,0,,,,-0.01,-0.0,0.96,0,-0,-0,0.01,12,,,,,,,
4658,0,,,,-0.02,-0.02,0.99,0,0,-0,0.02,12,,,,,,,
4663,0,,,,-0.03,-0.02,0.99,0,0,-0,0.04,12,,,,,,,
4668,0,,,,-0.03,-0.01,0.97,0,-0,-0,0.03,12,,,,,,,
4673,0,,,,-0.04,-0.01,1.0,0,0,-0,0.04,12,,,,,,,
4773,0,,,,-0.06,0.0,1.0,0,0,-0,0.06,12,,,,,,,
4778,0,,,,-0.06,0.01,1.02,0,-0,0,0.06,12,,,,,,,
4783,0,,,,-0.03,0.01,1.04,0,-0,-0,0.03,12,,,,,,,
4788,0,,,,-0.02,0.02,0.99,0,0,-0,0.03,12,,,,,,,
4793,0,,,,-0.03,0.02,0.98,0,-0,-0,0.04,12,,,,,,,
4798,0,,,,-0.04,0.01,1.03,0,0,-0,0.04,12,,,,,,,
4803,0,2.71,3.215,,-0.05,0.0,1.03,0,0,-0,0.05,12,,,,,,,
4808,0,,,,-0.06,0.0,0.99,0,-0,-0,0.06,12,,,,,,,
4813,0,,,,-0.07,0.01,1.01,0,-0,0,0.07,12,,,,,,,
4818,0,,,,-0.05,0.01,1.04,0,0,0,0.05,12,,,,,,,
4823,0,,,,-0.03,0.02,1.02,0,0,-0,0.04,12,,,,,,,
4923,0,2.7,3.434,,-0.04,-0.03,1.01,0,-0,-0,0.05,12,,,,,,,
4928,0,,,,-0.03,-0.03,0.99,0,0,-0,0.04,12,,,,,,,
4933,0,,,,-0.02,-0.01,0.94,0,0,-0,0.03,12,,,,,,,
4938,0,,,,-0.04,-0.03,0.99,0,0,-0,0.05,12,,,,,,,
4943,0,,,,-0.05,-0.04,1.01,0,0,-0,0.06,12,0.0,0.0,0.0,0.0,0,0,0.0
4948,0,,,,-0.05,-0.04,0.97,0,0,-0,0.07,12,,,,,,,
4953,0,,,,-0.06,-0.04,0.98,0,-0,-0,0.07,12,,,,,,,
4958,0,,,,-0.04,-0.04,1.02,0,0,-0,0.05,12,,,,,,,
4963,0,2.71,3.239,,-0.02,-0.03,1.0,0,0,-0,0.03,12,,,,,,,
5063,0,,,,-0.03,-0.01,1.0,0,-0,-0,0.03,12,,,,,,,
5068,0,,,,-0.01,-0.0,0.99,0,0,-0,0.01,12,,,,,,,
5073,0,,,,-0.0,0.01,0.94,0,0,-0,0.01,12,,,,,,,
5078,0,,,,-0.01,-0.01,0.97,0,-0,-0,0.01,12,,,,,,,
5083,0,2.69,3.18,,-0.02,-0.02,1.0,0,0,-0,0.03,12,,,,,,,
5088,0,,,,-0.04,-0.02,0.97,0,0,-0,0.04,12,,,,,,,
5093,0,,,,-0.03,-0.02,0.96,0,-0,-0,0.04,12,,,,,,,
5098,0,,,,-0.04,-0.01,1.0,0,-0,-0,0.04,12,,,,,,,
5103,0,,,,-0.0,-0.01,0.99,0,0,-0,0.01,12,,,,,,,
5108,0,,,,0.01,-0.0,0.97,0,-0,-0,0.01,12,,,,,,,
5113,0,,,,0.01,0.0,0.97,0,0,-0,0.01,12,,,,,,,
5213,0,,,,0.0,0.03,0.96,0,0,-0,0.03,12,,,,,,,
5218,0,,,,-0.01,0.02,0.98,0,-0,-0,0.03,12,,,,,,,
5223,0,,,,-0.02,0.01,1.02,0,-0,-0,0.02,12,,,,,,,
5228,0,,,,-0.04,0.01,1.01,0,0,-0,0.04,12,,,,,,,
5233,0,,,,-0.03,0.01,0.98,0,-0,-0,0.04,12,,,,,,,
5238,0,,,,-0.05,0.01,1.02,0,-0,0,0.05,12,,,,,,,
5243,0,2.74,3.27,,-0.02,0.02,1.02,0,0,-0,0.03,12,0.0,0.0,0.0,0.0,0,0,0.0
5248,0,,,,-0.01,0.02,1.0,0,-0,-0,0.02,12,,,,,,,
5253,0,,,,0.0,0.02,0.98,0,-0,0,0.02,12,,,,,,,
5258,0,,,,-0.02,0.01,1.0,0,0,0,0.02,12,,,,,,,
5358,0,,,,-0.04,-0.01,0.96,0,0,0,0.04,12,,,,,,,
5363,0,2.72,3.211,,-0.05,-0.03,1.0,0,0,0,0.06,12,,,,,,,
5368,0,,,,-0.06,-0.03,1.01,0,0,0,0.07,12,,,,,,,
5373,0,,,,-0.06,-0.03,0.97,0,0,0,0.07,12,,,,,,,
5378,0,,,,-0.06,-0.03,0.98,0,0,0,0.07,12,,,,,,,
5383,0,,,,-0.05,-0.03,1.02,0,0,0,0.05,12,,,,,,,
5388,0,,,,-0.03,-0.02,1.01,0,0,0,0.04,12,,,,,,,
5393,0,,,,-0.01,-0.02,0.98,0,0,0,0.02,12,,,,,,,
5398,0,,,,-0.02,-0.03,0.99,0,0,0,0.03,12,,,,,,,
5403,0,2.7,3.533,,-0.04,-0.05,1.01,0,0,-0,0.06,12,,,,,,,
5408,0,,,,-0.07,-0.05,0.99,0,0,-0,0.08,12,,,,,,,
5413,0,,,,-0.06,-0.04,0.97,0,0,-0,0.08,12,,,,,,,
5418,0,,,,-0.03,-0.03,1.01,0,0,-0,0.05,12,,,,,,,
5423,0,,,,-0.02,-0.02,0.98,0,0,-0,0.03,12,,,,,,,
5428,0,,,,-0.01,-0.02,0.93,0,0,-0,0.02,12,,,,,,,
5433,0,,,,-0.02,-0.03,0.98,0,0,-0,0.04,12,,,,,,,
5438,0,,,,-0.03,-0.04,1.0,0,0,-0,0.05,12,,,,,,,
5443,0,2.71,3.033,,-0.04,-0.05,0.97,0,0,-0,0.06,12,0.0,0.0,0.0,0.0,0,0,0.0
5448,0,,,,-0.04,-0.04,0.96,0,-0,-0,0.05,12,,,,,,,
5453,0,,,,-0.03,-0.04,1.0,0,0,-0,0.05,12,,,,,,,
5458,0,,,,-0.01,-0.03,0.99,0,0,-0,0.03,12,,,,,,,
5463,0,,,,0.0,-0.03,0.96,0,0,-0,0.03,12,,,,,,,
5468,0,,,,0.0,-0.03,0.97,0,0,-0,0.03,12,,,,,,,
5473,0,,,,-0.02,-0.04,1.0,0,0,-0,0.05,12,,,,,,,
5478,0,,,,-0.04,-0.04,0.98,0,0,-0,0.06,12,,,,,,,
5483,0,2.73,3.189,,-0.05,-0.03,0.96,0,0,-0,0.05,12,,,,,,,
5488,0,,,,-0.02,-0.02,0.99,0,-0,-0,0.03,12,,,,,,,
5493,0,,,,-0.01,-0.01,0.99,0,0,-0,0.01,12,,,,,,,
5498,0,,,,0.01,-0.0,0.93,0,0,-0,0.01,12,,,,,,,
5503,0,,,,-0.0,-0.01,0.97,0,-0,-0,0.01,12,,,,,,,
5508,0,,,,-0.01,-0.02,0.99,0,-0,-0,0.03,12,,,,,,,
5513,0,,,,-0.02,-0.03,0.96,0,0,-1,0.04,12,,,,,,,
5518,0,,,,-0.02,-0.02,0.96,0,-0,-1,0.03,12,,,,,,,
5523,0,2.73,3.282,,-0.03,-0.02,1.0,0,-0,-0,0.04,12,,,,,,,
5528,0,,,,-0.0,-0.01,1.0,0,-0,-0,0.01,12,,,,,,,
5533,0,,,,0.01,-0.01,0.98,0,-0,-0,0.01,12,,,,,,,
5538,0,,,,0.01,-0.0,0.98,0,-0,-0,0.01,12,,,,,,,
5543,0,,,,-0.0,-0.01,1.0,0,-0,-0,0.01,12,0.0,0.0,0.0,0.0,0,0,0.0
5548,0,,,,-0.03,-0.02,0.99,0,0,-0,0.03,12,,,,,,,
5553,0,,,,-0.04,-0.01,0.97,0,-0,-0,0.04,12,,,,,,,
5558,0,,,,-0.02,-0.0,1.01,0,-0,-0,0.02,12,,,,,,,
5563,0,2.73,3.597,,-0.01,0.0,1.02,0,-0,-0,0.01,12,,,,,,,
5568,0,,,,0.01,0.02,0.96,0,-0,-0,0.02,12,,,,,,,
5573,0,,,,-0.0,0.02,0.97,0,-0,-0,0.02,12,,,,,,,
5578,0,,,,-0.01,0.0,1.02,0,-0,-0,0.01,12,,,,,,,
5583,0,,,,-0.03,0.0,1.02,0,0,-0,0.03,12,,,,,,,
5588,0,,,,-0.03,0.01,0.98,0,-0,-0,0.03,12,,,,,,,
5593,0,,,,-0.04,0.01,1.02,0,-0,-0,0.04,12,,,,,,,
5598,0,,,,-0.02,0.01,1.03,0,0,-0,0.02,12,,,,,,,
5603,0,2.7,3.253,,-0.01,0.02,1.01,0,-0,-0,0.02,12,,,,,,,
5608,0,,,,0.0,0.03,0.99,0,-0,-0,0.03,12,,,,,,,
5613,0,,,,-0.01,0.01,1.02,0,-0,-0,0.01,12,,,,,,,
5618,0,,,,-0.04,-0.0,1.03,0,0,-0,0.04,12,,,,,,,
5623,0,,,,-0.06,-0.0,1.0,0,0,-0,0.06,12,,,,,,,
5628,0,,,,-0.05,0.0,1.02,0,-0,-0,0.05,12,,,,,,,
5633,0,,,,-0.03,0.01,1.04,0,-0,-0,0.03,12,,,,,,,
5638,0,,,,-0.02,0.01,1.0,0,0,-0,0.03,12,,,,,,,
5643,0,2.69,3.273,,-0.03,0.02,0.98,0,-0,-0,0.04,12,0.0,0.0,0.0,0.0,0,0,0.0
5648,0,,,,-0.05,-0.0,1.03,0,-0,-0,0.05,12,,,,,,,
5653,0,,,,-0.06,-0.0,1.03,0,0,-0,0.06,12,,,,,,,
5658,0,,,,-0.06,-0.0,0.99,0,-0,-0,0.06,12,,,,,,,
5663,0,,,,-0.07,0.0,1.02,0,-0,0,0.07,12,,,,,,,
5668,0,,,,-0.06,0.01,1.04,0,0,-0,0.06,12,,,,,,,
5673,0,,,,-0.04,0.01,1.02,0,0,-0,0.04,12,,,,,,,
5678,0,,,,-0.02,0.01,0.99,0,0,-0,0.02,12,,,,,,,
5683,0,2.68,3.407,,-0.03,-0.01,1.01,0,0,-0,0.03,12,,,,,,,
5688,0,,,,-0.06,-0.02,1.02,0,0,-0,0.06,12,,,,,,,
5693,0,,,,-0.08,-0.03,1.0,0,0,-0,0.08,12,,,,,,,
5698,0,,,,-0.08,-0.02,1.0,0,-0,-0,0.08,12,,,,,,,
5703,0,,,,-0.05,-0.02,1.03,0,0,-0,0.05,12,,,,,,,
5708,0,,,,-0.03,-0.01,0.99,0,0,-0,0.04,12,,,,,,,
5713,0,,,,-0.03,-0.01,0.95,0,0,-0,0.03,12,,,,,,,
5718,0,,,,-0.04,-0.02,1.0,0,0,-0,0.05,12,,,,,,,
5723,0,2.71,3.636,,-0.05,-0.03,1.01,0,0,-0,0.06,12,,,,,,,
5728,0,,,,-0.05,-0.04,0.97,0,0,-0,0.06,12,,,,,,,
5733,0,,,,-0.05,-0.03,0.97,0,-0,-0,0.06,12,,,,,,,
5738,0,,,,-0.05,-0.03,1.01,0,0,-0,0.06,12,,,,,,,
5743,0,,,,-0.02,-0.02,0.99,0,0,-0,0.03,12,0.0,0.0,0.0,0.0,0,0,0.0
5748,0,,,,-0.01,-0.02,0.96,0,-0,-0,0.02,12,,,,,,,
5753,0,,,,-0.01,-0.02,0.98,0,0,-0,0.03,12,,,,,,,
5758,0,,,,-0.04,-0.04,1.0,0,0,-0,0.06,12,,,,,,,
5763,0,2.73,3.186,,-0.06,-0.04,0.98,0,0,-0,0.07,12,,,,,,,
5768,0,,,,-0.06,-0.04,0.97,0,0,-0,0.07,12,,,,,,,
5773,0,,,,-0.03,-0.03,0.99,0,-0,-0,0.04,12,,,,,,,
5778,0,,,,-0.01,-0.02,0.98,0,0,-0,0.02,12,,,,,,,
5783,0,,,,-0.0,-0.01,0.93,0,0,-0,0.01,12,,,,,,,
5788,0,,,,-0.01,-0.02,0.96,0,0,-0,0.03,12,,,,,,,
5793,0,,,,-0.01,-0.04,0.99,0,0,-0,0.04,12,,,,,,,
5798,0,,,,-0.03,-0.04,0.96,0,0,-0,0.05,12,,,,,,,
5803,0,2.72,3.392,,-0.02,-0.03,0.95,0,-0,-0,0.04,12,,,,,,,
5808,0,,,,-0.03,-0.03,0.99,0,0,-0,0.04,12,,,,,,,
5813,0,,,,0.0,-0.02,0.98,0,0,-0,0.03,12,,,,,,,
5818,0,,,,0.02,-0.02,0.96,0,0,-0,0.02,12,,,,,,,
5823,0,,,,0.02,-0.01,0.96,0,0,-0,0.02,12,,,,,,,
5828,0,,,,-0.0,-0.03,0.98,0,0,-0,0.03,12,,,,,,,
5833,0,,,,-0.02,-0.03,0.97,0,0,-0,0.04,12,,,,,,,
5838,0,,,,-0.03,-0.02,0.94,0,0,-0,0.03,12,,,,,,,
5843,0,2.72,3.478,,-0.01,-0.01,0.98,0,-0,-0,0.02,12,0.0,0.0,0.0,0.0,0,0,0.0
5848,0,,,,0.0,0.0,0.99,0,0,-0,0.0,12,,,,,,,
5853,0,,,,0.01,0.02,0.94,0,0,-0,0.02,12,,,,,,,
5858,0,,,,0.01,0.01,0.94,0,-0,-0,0.01,12,,,,,,,
5863,0,,,,-0.0,-0.0,0.99,0,-0,-0,0.0,12,,,,,,,
5868,0,,,,-0.02,-0.01,0.99,0,-0,-0,0.02,12,,,,,,,
5873,0,,,,-0.02,0.0,0.97,0,-0,-0,0.02,12,,,,,,,
5878,0,,,,-0.03,0.0,1.01,0,-0,-0,0.03,12,,,,,,,
5883,0,2.71,3.257,,-0.01,0.01,1.01,0,-0,-0,0.01,12,,,,,,,
5888,0,,,,0.0,0.02,0.99,0,-0,-0,0.02,12,,,,,,,
5893,0,,,,0.01,0.02,0.97,0,-0,-0,0.03,12,,,,,,,
5898,0,,,,-0.0,0.01,1.0,0,-0,-0,0.01,12,,,,,,,
5903,0,,,,-0.03,-0.0,1.01,0,0,-0,0.03,12,,,,,,,
5908,0,,,,-0.05,-0.0,0.99,0,0,-0,0.05,12,,,,,,,
5913,0,,,,-0.04,0.0,1.01,0,-0,-0,0.04,12,,,,,,,
5918,0,,,,-0.02,0.01,1.04,0,-0,-0,0.02,12,,,,,,,
5923,0,2.7,3.501,,-0.01,0.01,0.99,0,0,-0,0.02,12,,,,,,,
5928,0,,,,-0.03,0.01,0.98,0,-0,-0,0.04,12,,,,,,,
5933,0,,,,-0.05,-0.0,1.04,0,-0,-0,0.05,12,,,,,,,
5938,0,,,,-0.06,-0.0,1.03,0,0,-0,0.06,12,,,,,,,
5943,0,,,,-0.07,-0.0,0.99,0,-0,-0,0.07,12,0.0,0.0,0.0,0.0,0,0,0.0
5948,0,,,,-0.07,0.0,1.01,0,-0,0,0.07,12,,,,,,,
5953,0,,,,-0.05,0.01,1.04,0,0,-0,0.05,12,,,,,,,
5958,0,,,,-0.04,0.01,1.02,0,0,-0,0.04,12,,,,,,,
5963,0,2.68,3.404,,-0.02,0.02,1.0,0,-0,-0,0.03,12,,,,,,,
5968,0,,,,-0.02,0.0,1.01,0,0,-0,0.02,12,,,,,,,
5973,0,,,,-0.05,-0.01,1.03,0,0,-0,0.06,12,,,,,,,
5978,0,,,,-0.07,-0.02,1.0,0,0,-0,0.07,12,,,,,,,
5983,0,,,,-0.07,-0.01,1.01,0,-0,0,0.07,12,,,,,,,
5988,0,,,,-0.05,-0.01,1.03,0,-0,0,0.05,12,,,,,,,
5993,0,,,,-0.03,-0.0,1.0,0,0,-0,0.03,12,,,,,,,
5998,0,,,,-0.05,0.0,0.97,0,-0,-0,0.05,12,,,,,,,
6003,0,2.73,3.242,,-0.05,-0.01,1.0,0,-0,-0,0.05,12,,,,,,,
6008,0,,,,-0.04,-0.02,1.01,0,0,-0,0.05,12,,,,,,,
6013,0,,,,-0.05,-0.03,0.97,0,-0,-0,0.06,12,,,,,,,
6018,0,,,,-0.05,-0.03,0.98,0,-0,0,0.06,12,,,,,,,
6023,0,,,,-0.05,-0.03,1.02,0,-0,0,0.06,12,,,,,,,
6028,0,,,,-0.03,-0.02,1.0,0,-0,-0,0.03,12,,,,,,,
6033,0,,,,-0.01,-0.02,0.97,0,-0,-0,0.02,12,,,,,,,
6038,0,,,,-0.01,-0.02,0.97,0,-0,-0,0.02,12,,,,,,,
6043,0,2.71,3.641,13.35,-0.03,-0.04,1.0,0,0,-0,0.05,12,0.0,0.0,0.0,0.0,0,0,0.0
6048,0,,,,-0.05,-0.04,0.97,0,0,-0,0.06,12,,,,,,,
6053,0,,,,-0.06,-0.03,0.95,0,-0,-0,0.07,12,,,,,,,
6058,0,,,,-0.03,-0.02,0.99,0,-0,-0,0.03,12,,,,,,,
6063,0,,,,-0.01,-0.01,0.98,0,0,-0,0.02,12,,,,,,,
6068,0,,,,-0.01,0.0,0.93,0,-0,-0,0.01,12,,,,,,,
6073,0,,,,-0.0,-0.01,0.95,0,-1,-0,0.01,12,,,,,,,
6078,0,,,,-0.01,-0.01,0.99,0,-0,-0,0.02,12,,,,,,,
6083,0,2.72,3.346,,-0.03,-0.02,0.97,0,0,-0,0.04,12,,,,,,,
6088,0,,,,-0.04,-0.02,0.97,0,-0,-0,0.05,12,,,,,,,
6093,0,,,,-0.05,-0.02,1.03,0,-0,-0,0.05,12,,,,,,,
6098,0,,,,-0.01,-0.01,1.04,0,0,-0,0.02,12,,,,,,,
6103,0,,,,-0.0,-0.0,1.01,0,0,-0,0.0,12,,,,,,,
6108,0,,,,-0.0,0.0,1.0,0,-0,-0,0.0,12,,,,,,,
6113,0,,,,-0.02,-0.01,1.03,0,0,-0,0.02,12,,,,,,,
6118,0,,,,-0.05,-0.01,1.04,0,1,-0,0.05,12,,,,,,,
6123,0,2.77,3.115,,-0.08,-0.02,0.99,0,1,-0,0.08,12,,,,,,,
6128,0,,,,-0.07,-0.01,1.02,0,0,-0,0.07,12,,,,,,,
6133,0,,,,-0.05,0.01,1.04,0,1,-0,0.05,12,,,,,,,
6138,0,,,,-0.04,0.01,0.99,0,1,-0,0.04,12,,,,,,,
6143,0,,,,-0.05,0.0,0.98,0,0,-0,0.05,12,0.0,0.0,0.0,0.0,0,0,0.0
6148,0,,,,-0.06,-0.02,1.04,0,1,-0,0.06,12,,,,,,,
6153,0,,,,-0.08,-0.03,1.03,0,1,-0,0.09,12,,,,,,,
6158,0,,,,-0.1,-0.02,0.99,0,1,-0,0.1,12,,,,,,,
6163,0,2.76,3.375,,-0.11,-0.02,1.01,0,1,-0,0.11,12,,,,,,,
6168,0,,,,-0.06,-0.01,1.04,0,1,-0,0.06,12,,,,,,,
6173,0,,,,-0.05,-0.01,1.02,0,1,-0,0.05,12,,,,,,,
6178,0,,,,-0.04,-0.01,0.97,0,1,-0,0.05,12,,,,,,,
6183,0,,,,-0.04,-0.02,0.99,0,1,-0,0.04,12,,,,,,,
6188,0,,,,-0.08,-0.03,1.0,0,2,-0,0.08,0,,,,,,,
6193,0,,,,-0.1,-0.03,0.96,0,1,-0,0.11,0,,,,,,,
6198,0,,,,-0.09,-0.02,0.99,0,0,-0,0.09,0,,,,,,,
6203,0,2.8,4.123,,-0.05,-0.02,1.03,0,1,-0,0.06,0,,,,,,,
6208,0,,,,-0.04,-0.0,0.97,0,1,-0,0.04,0,,,,,,,
6213,0,,,,-0.06,-0.01,0.94,0,1,-0,0.06,0,,,,,,,
6218,0,,,,-0.07,-0.01,1.0,0,1,-0,0.07,0,,,,,,,
6223,0,,,,-0.09,-0.01,1.01,0,1,-0,0.09,0,,,,,,,
6228,0,,,,-0.11,0.02,0.93,0,1,-0,0.11,0,,,,,,,
6233,0,,,,-0.12,0.01,0.95,0,1,-0,0.12,0,,,,,,,
6238,0,,,,-0.07,-0.01,1.01,0,1,-0,0.07,0,,,,,,,
6243,0,2.78,3.909,,-0.04,0.01,0.97,0,1,-0,0.04,0,0.0,0.0,0.0,0.0,0,0,0.0
6248,0,,,,-0.03,0.02,0.9,0,0,-0,0.04,0,,,,,,,
6253,0,,,,-0.01,0.01,0.9,0,0,-0,0.01,0,,,,,,,
6258,0,,,,-0.04,0.0,0.93,0,1,-1,0.04,0,,,,,,,
6263,0,,,,-0.06,0.01,0.88,0,1,-0,0.06,0,,,,,,,
6268,0,,,,-0.05,0.01,0.87,0,-0,-1,0.06,0,,,,,,,
6273,0,,,,-0.01,0.02,0.94,0,-1,-1,0.02,0,,,,,,,
6278,0,,,,0.0,0.01,0.94,0,0,-1,0.01,0,,,,,,,
6283,0,2.73,2.681,,-0.02,0.02,0.91,0,-1,-1,0.03,0,,,,,,,
6288,0,,,,-0.03,0.0,0.98,0,-1,-1,0.03,0,,,,,,,
6293,0,,,,-0.02,0.0,1.02,0,-0,-1,0.02,0,,,,,,,
6298,0,,,,-0.05,0.01,0.98,0,-0,-1,0.05,0,,,,,,,
6303,0,,,,-0.05,0.01,0.99,0,-1,-1,0.05,0,,,,,,,
6308,0,,,,-0.03,0.02,1.05,0,-0,-1,0.04,0,,,,,,,
6313,0,,,,-0.01,0.01,1.05,0,-0,-1,0.02,0,,,,,,,
6318,0,,,,-0.01,0.01,1.02,0,-0,-1,0.01,0,,,,,,,
6323,0,2.67,2.859,,-0.01,0.0,1.02,0,-0,-0,0.01,0,,,,,,,
6328,0,,,,-0.04,-0.02,1.06,0,0,-0,0.05,0,,,,,,,
6333,0,,,,-0.07,-0.02,1.02,0,0,-0,0.07,0,,,,,,,
6338,0,,,,-0.07,-0.01,1.0,0,-0,-0,0.07,0,,,,,,,
6343,0,,,,-0.04,-0.02,1.06,0,-0,-0,0.04,0,0.0,0.0,0.0,0.0,0,0,0.0
6348,0,,,,-0.02,-0.01,1.02,0,1,-0,0.03,0,,,,,,,
6353,0,,,,-0.05,0.01,0.97,0,0,-0,0.05,0,,,,,,,
6358,0,,,,-0.06,0.0,1.01,0,0,-0,0.06,0,,,,,,,
6363,0,2.65,3.453,,-0.07,-0.01,1.05,0,1,-0,0.07,0,,,,,,,
6368,0,,,,-0.09,-0.01,1.0,0,1,-0,0.09,0,,,,,,,
6373,0,,,,-0.09,-0.01,0.97,0,0,-0,0.09,0,,,,,,,
6378,0,,,,-0.07,-0.0,1.02,0,0,-0,0.07,0,,,,,,,
6383,0,,,,-0.05,-0.01,1.03,0,1,-0,0.05,0,,,,,,,
6388,0,,,,-0.04,-0.01,0.97,0,0,-0,0.04,0,,,,,,,
6393,0,,,,-0.05,-0.02,0.98,0,0,-0,0.05,0,,,,,,,
6398,0,,,,-0.08,-0.03,1.01,0,1,-1,0.09,0,,,,,,,
6403,0,2.64,3.301,,-0.09,-0.03,0.97,0,1,-0,0.1,0,,,,,,,
6408,0,,,,-0.1,-0.02,0.96,0,-0,-0,0.1,0,,,,,,,
6413,0,,,,-0.05,-0.02,1.0,0,-0,-0,0.06,0,,,,,,,
6418,0,,,,-0.04,-0.02,0.99,0,0,-1,0.04,0,,,,,,,
6423,0,,,,-0.04,-0.01,0.94,0,0,-1,0.04,0,,,,,,,
6428,0,,,,-0.06,-0.02,0.98,0,-0,-1,0.06,0,,,,,,,
6433,0,,,,-0.06,-0.02,1.01,0,0,-1,0.06,0,,,,,,,
6438,0,,,,-0.08,-0.03,0.99,0,0,-1,0.08,0,,,,,,,
6443,0,2.67,3.617,,-0.07,-0.03,0.97,0,-0,-0,0.07,0,0.0,0.0,0.0,0.0,0,0,0.0
6448,0,,,,-0.08,-0.02,1.02,0,0,-0,0.08,0,,,,,,,
6453,0,,,,-0.06,-0.02,1.02,0,0,-1,0.06,0,,,,,,,
6458,0,,,,-0.04,-0.01,0.99,0,0,-1,0.04,0,,,,,,,
6463,0,,,,-0.05,-0.02,0.99,0,0,-1,0.05,0,,,,,,,
6468,0,,,,-0.08,-0.03,1.03,0,0,-1,0.09,0,,,,,,,
6473,0,,,,-0.1,-0.02,0.99,0,1,-1,0.1,0,,,,,,,
6478,0,,,,-0.1,-0.01,0.97,0,-0,-1,0.1,0,,,,,,,
6483,0,2.66,4.186,,-0.06,-0.01,1.01,0,-0,-1,0.06,0,,,,,,,
6488,0,,,,-0.04,-0.01,1.01,0,0,-0,0.04,0,,,,,,,
6493,0,,,,-0.02,-0.01,0.92,0,0,-0,0.03,0,,,,,,,
6498,0,,,,-0.04,-0.02,0.96,0,-0,-0,0.05,0,,,,,,,
6503,0,,,,-0.04,-0.02,1.0,0,0,-0,0.05,0,,,,,,,
6508,0,,,,-0.06,-0.02,0.98,0,0,-0,0.07,0,,,,,,,
6513,0,,,,-0.05,-0.02,0.94,0,-0,-0,0.05,0,,,,,,,
6518,0,,,,-0.05,-0.01,1.0,0,-0,-0,0.05,0,,,,,,,
6523,0,2.64,3.878,,-0.03,-0.01,1.01,0,-0,-0,0.03,0,,,,,,,
6528,0,,,,-0.01,-0.01,0.97,0,-0,-0,0.02,0,,,,,,,
6533,0,,,,-0.02,-0.01,0.97,0,-0,-0,0.02,0,,,,,,,
6538,0,,,,-0.05,-0.01,1.01,0,0,-0,0.05,0,,,,,,,
6543,0,,,,-0.07,-0.01,0.98,0,0,-0,0.07,0,0.0,0.0,0.0,0.0,0,0,0.0
6548,0,,,,-0.07,-0.01,0.95,0,-1,-0,0.07,0,,,,,,,
6553,0,,,,-0.03,-0.01,1.0,0,-1,-0,0.03,0,,,,,,,
6558,0,,,,-0.02,0.01,1.0,0,0,-0,0.02,0,,,,,,,
6563,0,2.69,3.788,,-0.01,0.01,0.93,0,-0,-0,0.02,0,,,,,,,
6568,0,,,,-0.02,0.01,0.96,0,-1,-0,0.03,0,,,,,,,
6573,0,,,,-0.03,-0.0,1.0,0,-0,-0,0.03,0,,,,,,,
6578,0,,,,-0.05,-0.01,0.97,0,-0,-0,0.05,0,,,,,,,
6583,0,,,,-0.03,-0.01,0.94,0,-1,-0,0.04,0,,,,,,,
6588,0,,,,-0.03,-0.0,1.0,0,-1,-0,0.03,0,,,,,,,
6593,0,,,,-0.01,-0.0,1.02,0,-0,-0,0.01,0,,,,,,,
6598,0,,,,0.0,0.0,0.98,0,-1,-0,0.0,0,,,,,,,
6603,0,2.66,3.459,,-0.0,0.0,0.97,0,-1,-1,0.01,0,,,,,,,
6608,0,,,,-0.03,-0.0,1.02,0,-0,-1,0.03,0,,,,,,,
6613,0,,,,-0.06,-0.01,0.99,0,-0,-1,0.06,0,,,,,,,
6618,0,,,,-0.05,-0.0,0.95,0,-1,-1,0.05,0,,,,,,,
6623,0,,,,-0.02,-0.01,1.01,0,-1,-1,0.02,0,,,,,,,
6628,0,,,,-0.01,-0.0,1.02,0,-0,-1,0.01,0,,,,,,,
6763,0,2.65,3.358,,-0.03,-0.01,1.02,0,-1,-1,0.03,0,,,,,,,
6768,0,,,,-0.01,-0.01,1.01,0,-0,-1,0.01,0,,,,,,,
6773,0,,,,0.0,-0.0,0.94,0,-0,-1,0.0,0,,,,,,,
6778,0,,,,-0.02,-0.01,0.99,0,-1,-1,0.02,0,,,,,,,
6783,0,,,,-0.04,-0.01,1.03,0,-0,-1,0.04,0,,,,,,,
6788,0,,,,-0.06,-0.02,1.0,0,-0,-0,0.07,0,,,,,,,
6793,0,,,,-0.06,-0.02,0.97,0,-1,-0,0.06,0,,,,,,,
6798,0,,,,-0.02,-0.01,1.01,0,-0,-0,0.03,0,,,,,,,
6803,0,2.7,3.176,,0.0,-0.01,1.01,0,-0,-0,0.01,0,,,,,,,
6808,0,,,,0.02,-0.01,0.96,0,-0,-0,0.02,0,,,,,,,
6813,0,,,,0.0,-0.02,0.99,0,-0,-0,0.02,0,,,,,,,
6818,0,,,,-0.04,-0.03,1.02,0,0,-1,0.05,0,,,,,,,
6823,0,,,,-0.07,-0.03,1.0,0,0,-0,0.08,0,,,,,,,
6828,0,,,,-0.06,-0.03,1.01,0,-1,-0,0.07,0,,,,,,,
6833,0,,,,-0.02,-0.03,1.05,0,-0,-1,0.03,0,,,,,,,
6838,0,,,,-0.01,-0.01,1.0,0,0,-1,0.02,0,,,,,,,
6843,0,2.69,3.852,,-0.01,-0.0,0.95,0,0,-0,0.02,0,0.0,0.0,0.0,0.0,0,0,0.0
6848,0,,,,-0.02,-0.03,1.0,0,0,-1,0.04,0,,,,,,,
6853,0,,,,-0.05,-0.03,1.01,0,1,-1,0.05,0,,,,,,,
6858,0,,,,-0.07,-0.03,0.98,0,1,-1,0.08,0,,,,,,,
6863,0,,,,-0.07,-0.03,0.98,0,1,-1,0.08,0,,,,,,,
6963,0,2.59,3.655,,-0.16,-0.02,0.85,0,-2,-0,0.16,0,,,,,,,
6968,0,,,,-0.13,-0.01,0.86,0,-3,-0,0.13,0,,,,,,,
6973,0,,,,-0.1,-0.01,0.91,0,-3,-0,0.1,0,,,,,,,
6978,0,,,,-0.07,-0.01,0.88,0,-4,-0,0.07,0,,,,,,,
6983,0,,,,-0.05,-0.0,0.86,-0,-4,0,0.05,0,,,,,,,
6988,0,,,,-0.04,-0.0,0.91,-0,-5,0,0.04,0,,,,,,,
6993,0,,,,-0.03,0.01,0.97,-0,-4,0,0.03,0,,,,,,,
6998,0,,,,-0.01,0.02,0.95,-0,-4,0,0.02,0,,,,,,,
7003,0,2.55,4.182,,-0.07,0.02,1.0,-0,-4,0,0.07,0,,,,,,,
7008,0,,,,0.02,0.03,1.05,-0,-4,-0,0.03,0,,,,,,,
7108,0,,,,-0.08,-0.03,0.92,1,2,-1,0.09,0,,,,,,,
7113,0,,,,-0.08,-0.02,0.97,1,1,-1,0.09,0,,,,,,,
7118,0,,,,-0.01,-0.03,0.94,1,1,-1,0.03,0,,,,,,,
7123,0,2.41,3.78,,-0.04,0.01,0.87,1,0,-1,0.04,0,,,,,,,
7128,0,,,,-0.07,0.02,0.91,1,1,-1,0.07,0,,,,,,,
7133,0,,,,-0.12,0.03,0.92,1,1,-0,0.12,0,,,,,,,
7138,0,,,,-0.26,0.03,0.89,1,1,-0,0.26,0,,,,,,,
7143,0,,,,-0.06,0.1,0.86,1,-1,0,0.12,0,0.0,0.0,0.0,0.0,0,0,0.0
7148,0,,,,0.09,0.06,0.96,1,-2,0,0.11,0,,,,,,,
7153,0,,,,0.17,0.07,0.95,1,-1,0,0.18,0,,,,,,,
7253,0,,,,0.03,0.08,1.07,0,2,1,0.08,0,,,,,,,
7258,0,,,,-0.05,0.05,0.99,0,3,1,0.07,0,,,,,,,
7263,0,,,,-0.11,0.0,0.99,0,3,1,0.11,0,,,,,,,
7268,0,,,,-0.2,-0.04,1.01,0,4,1,0.2,0,,,,,,,
7273,0,,,,-0.14,0.02,1.06,0,3,0,0.14,0,,,,,,,
7278,0,,,,-0.08,0.11,1.01,-0,2,0,0.14,0,,,,,,,
7283,0,2.33,2.552,,-0.04,0.09,0.94,0,2,1,0.1,0,,,,,,,
7288,0,,,,0.04,0.07,0.97,1,2,1,0.08,0,,,,,,,
7293,0,,,,0.02,0.04,1.05,0,3,2,0.04,2,,,,,,,
7298,0,,,,-0.06,0.08,1.03,0,3,2,0.1,2,,,,,,,
7303,0,,,,-0.1,0.08,1.01,0,4,2,0.13,2,,,,,,,
7403,0,2.29,1.958,,-0.17,-0.14,1.05,1,2,-0,0.21,2,,,,,,,
7408,0,,,,-0.11,-0.13,1.07,1,3,-1,0.17,2,,,,,,,
7413,0,,,,-0.11,-0.11,1.07,1,2,-0,0.15,2,,,,,,,
7418,0,,,,-0.19,-0.05,1.12,1,3,1,0.2,2,,,,,,,
7423,0,,,,-0.2,-0.07,1.04,1,4,1,0.21,2,,,,,,,
7428,0,,,,-0.2,-0.12,1.02,1,4,1,0.24,2,,,,,,,
7433,0,,,,-0.17,-0.09,0.99,1,4,0,0.19,2,,,,,,,
7438,0,,,,-0.11,-0.03,1.04,1,3,0,0.11,2,,,,,,,
7443,0,2.29,2.146,,-0.26,-0.02,1.09,1,5,-0,0.26,2,0.0,0.0,0.0,0.0,0,0,0.0
7448,0,,,,-0.12,-0.11,1.0,1,4,-0,0.16,2,,,,,,,
7548,0,,,,-0.26,0.03,0.96,0,2,-2,0.27,5,,,,,,,
7553,0,,,,-0.25,-0.01,1.0,0,2,-2,0.25,5,,,,,,,
7558,0,,,,-0.26,0.0,1.02,0,3,-1,0.26,5,,,,,,,
7563,0,2.23,3.147,,-0.22,-0.03,0.96,0,2,-1,0.22,5,,,,,,,
7568,0,,,,-0.26,-0.01,0.95,0,2,-1,0.26,5,,,,,,,
7573,0,,,,-0.28,-0.04,0.92,0,3,-0,0.28,5,,,,,,,
7578,0,,,,-0.31,-0.05,0.94,0,3,-0,0.31,5,,,,,,,
7583,0,,,,-0.27,-0.01,0.87,0,2,-0,0.27,5,,,,,,,
7588,0,,,,-0.22,-0.01,0.87,0,2,1,0.22,5,,,,,,,
7593,0,,,,-0.33,-0.03,0.9,1,2,0,0.33,5,,,,,,,
7598,0,,,,-0.2,-0.06,0.89,0,1,-0,0.21,5,,,,,,,
7603,0,2.19,3.609,,-0.21,0.03,0.86,0,-0,-1,0.21,5,,,,,,,
7608,0,,,,-0.2,0.07,0.87,0,-0,-0,0.21,18,,,,,,,
7613,0,,,,-0.27,0.08,0.85,0,-1,-0,0.28,18,,,,,,,
7618,0,,,,-0.25,0.01,0.89,0,-1,-1,0.25,18,,,,,,,
7623,0,,,,-0.28,0.04,0.9,-0,-1,-0,0.29,18,,,,,,,
7628,0,,,,-0.26,0.04,0.94,-0,-1,-1,0.27,18,,,,,,,
7633,0,,,,-0.33,0.08,0.97,-0,-0,-1,0.34,18,,,,,,,
7638,0,,,,-0.27,0.02,0.88,-0,-1,0,0.28,18,,,,,,,
7643,0,2.19,4.012,,-0.33,0.04,0.95,-0,-0,1,0.34,18,0.0,0.0,0.0,0.0,0,0,0.0
7648,0,,,,-0.33,0.03,0.93,-0,0,1,0.33,18,,,,,,,
7653,0,,,,-0.41,0.01,0.98,-0,1,1,0.41,18,,,,,,,
7658,0,,,,-0.37,0.04,0.94,-0,1,1,0.38,18,,,,,,,
7663,0,,,,-0.31,0.06,0.96,-0,0,1,0.31,18,,,,,,,
7668,0,,,,-0.38,0.06,1.01,-0,1,1,0.39,18,,,,,,,
7673,0,,,,-0.24,0.02,0.93,-0,-0,0,0.24,18,,,,,,,
7678,0,,,,-0.24,0.06,0.91,-0,-1,0,0.25,18,,,,,,,
7683,0,2.2,3.855,,-0.25,0.07,0.96,-0,-1,0,0.26,18,,,,,,,
7688,0,,,,-0.3,0.09,0.95,-0,-0,0,0.31,18,,,,,,,
7693,0,,,,-0.2,0.03,0.93,-0,-1,-0,0.2,18,,,,,,,
7698,0,,,,-0.25,0.06,0.9,-0,-1,0,0.25,25,,,,,,,
7703,0,,,,-0.19,0.06,0.94,-1,-2,-0,0.2,25,,,,,,,
7708,0,,,,-0.19,0.12,0.96,-1,-1,-0,0.23,25,,,,,,,
7713,0,,,,-0.14,0.04,0.93,-1,-1,0,0.15,25,,,,,,,
7718,0,,,,-0.23,0.05,0.99,-1,-1,0,0.24,25,,,,,,,
7723,0,2.23,3.844,,-0.24,0.01,0.99,-1,-0,0,0.24,25,,,,,,,
7728,0,,,,-0.3,-0.03,1.04,-1,-0,-0,0.3,25,,,,,,,
7733,0,,,,-0.26,0.04,0.99,-1,-0,-0,0.26,25,,,,,,,
7738,0,,,,-0.22,0.01,1.0,-1,-1,1,0.22,25,,,,,,,
7743,0,,,,-0.33,-0.01,1.03,-1,-0,0,0.33,25,0.0,0.0,0.0,0.0,0,0,0.0
7748,0,,,,-0.2,-0.09,0.95,-0,-0,0,0.22,25,,,,,,,
7753,0,,,,-0.24,-0.03,0.9,-1,-1,0,0.24,25,,,,,,,
7758,0,,,,-0.24,-0.04,0.92,-1,-1,0,0.24,25,,,,,,,
7763,0,2.25,3.474,,-0.31,-0.0,0.94,-1,-0,0,0.31,30,,,,,,,
7768,0,,,,-0.2,-0.07,0.93,-0,0,-0,0.22,30,,,,,,,
7773,0,,,,-0.24,-0.05,0.91,-0,0,1,0.24,30,,,,,,,
7778,0,,,,-0.21,-0.1,1.0,-0,0,0,0.24,30,,,,,,,
7783,0,,,,-0.24,-0.09,1.06,-1,1,-0,0.26,30,,,,,,,
7788,0,,,,-0.24,-0.05,1.01,-1,1,-1,0.24,30,,,,,,,
7793,0,,,,-0.28,-0.0,1.02,-0,1,0,0.28,30,,,,,,,
7798,0,,,,-0.26,-0.05,1.04,-0,2,-0,0.26,30,,,,,,,
7803,0,2.3,3.421,,-0.26,-0.11,1.09,-0,2,-1,0.28,30,,,,,,,
7808,0,,,,-0.28,-0.04,1.01,-0,2,-1,0.28,30,,,,,,,
7813,0,,,,-0.23,-0.05,1.01,-0,2,-1,0.24,30,,,,,,,
7818,0,,,,-0.37,-0.01,1.1,-0,4,-1,0.37,40,,,,,,,
7823,0,,,,-0.25,-0.07,1.04,-0,4,-2,0.26,40,,,,,,,
7828,0,,,,-0.3,-0.05,1.0,-0,4,-2,0.31,40,,,,,,,
7833,0,,,,-0.26,-0.09,1.0,-0,4,-2,0.28,40,,,,,,,
7838,0,,,,-0.37,-0.06,1.04,-0,5,-2,0.37,40,,,,,,,
7843,0,2.4,3.116,,-0.32,-0.04,0.99,-0,5,-3,0.32,40,0.0,0.0,0.0,0.0,0,0,0.0
7848,0,,,,-0.35,-0.05,0.97,-0,4,-2,0.35,40,,,,,,,
7853,0,,,,-0.32,-0.06,0.98,-0,4,-2,0.32,40,,,,,,,
7858,0,,,,-0.28,-0.08,1.03,-0,5,-2,0.29,40,,,,,,,
7863,0,,,,-0.23,-0.03,0.97,-0,4,-2,0.24,40,,,,,,,
7868,0,,,,-0.26,0.01,0.98,-0,4,-1,0.26,40,,,,,,,
7873,0,,,,-0.26,-0.03,0.97,-0,4,-1,0.26,42,,,,,,,
7878,0,,,,-0.29,-0.09,0.97,-0,4,-1,0.3,42,,,,,,,
7883,0,2.45,2.127,,-0.3,-0.01,0.88,-1,3,-1,0.3,42,,,,,,,
7888,0,,,,-0.25,0.02,0.93,-1,3,-0,0.25,42,,,,,,,
7893,0,,,,-0.36,0.08,0.97,-1,4,-0,0.37,42,,,,,,,
7898,0,,,,-0.27,-0.01,0.97,-1,4,0,0.27,42,,,,,,,
7903,0,,,,-0.35,0.02,0.91,-1,4,1,0.35,42,,,,,,,
7908,0,,,,-0.34,0.02,0.88,-1,4,1,0.34,42,,,,,,,
7913,0,,,,-0.47,0.05,0.93,-1,4,1,0.47,42,,,,,,,
7918,0,,,,-0.38,0.04,0.87,-1,4,1,0.38,42,,,,,,,
7923,0,2.45,2.053,,-0.39,0.0,0.94,-1,3,2,0.39,45,,,,,,,
7928,0,,,,-0.37,-0.01,0.98,-1,3,2,0.37,45,,,,,,,
7933,0,,,,-0.31,-0.03,1.02,-1,4,1,0.31,45,,,,,,,
7938,0,,,,-0.33,-0.01,1.0,-1,3,2,0.33,45,,,,,,,
7943,0,,,,-0.37,-0.01,1.03,-1,3,2,0.37,45,0.0,0.0,0.0,0.0,0,0,0.0
7948,0,,,,-0.38,-0.04,1.06,-1,3,3,0.38,45,,,,,,,
7953,0,,,,-0.34,-0.08,1.06,-1,3,2,0.35,45,,,,,,,
7958,0,,,,-0.35,-0.0,0.99,-1,3,3,0.35,45,,,,,,,
7963,0,2.38,2.139,,-0.31,-0.01,1.02,-1,3,3,0.31,45,,,,,,,
7968,0,,,,-0.44,0.04,1.06,-1,4,2,0.44,55,,,,,,,
7973,0,,,,-0.35,-0.02,1.02,-1,4,3,0.35,55,,,,,,,
7978,0,,,,-0.39,0.01,1.06,-1,4,3,0.39,55,,,,,,,
7983,0,,,,-0.33,0.02,0.96,-1,4,2,0.33,55,,,,,,,
7988,0,,,,-0.39,0.04,1.0,-1,4,2,0.39,55,,,,,,,
7993,0,,,,-0.34,0.02,0.94,-1,3,1,0.35,55,,,,,,,
7998,0,,,,-0.38,0.01,0.94,-1,3,2,0.38,55,,,,,,,
8003,0,2.24,2.467,,-0.4,0.02,0.98,-1,3,1,0.4,55,,,,,,,
8008,0,,,,-0.3,0.02,1.0,-1,3,0,0.3,52,,,,,,,
8013,0,,,,-0.28,0.06,0.99,-1,2,-0,0.29,52,,,,,,,
8018,0,,,,-0.31,0.08,1.03,-1,2,-0,0.32,52,,,,,,,
8023,0,,,,-0.33,0.05,1.04,-1,2,-1,0.34,52,,,,,,,
8028,0,,,,-0.33,0.02,1.05,-1,2,-1,0.33,52,,,,,,,
8033,0,,,,-0.36,0.05,0.99,-1,1,-1,0.36,52,,,,,,,
8038,0,,,,-0.3,0.06,1.02,-1,1,-1,0.31,52,,,,,,,
8043,0,2.26,2.711,13.35,-0.39,0.13,1.09,-0,2,-2,0.41,52,0.0,0.0,0.0,0.0,0,0,0.0
8048,0,,,,-0.27,0.06,1.03,-0,2,-2,0.28,60,,,,,,,
8053,0,,,,-0.35,0.12,1.08,-0,2,-2,0.37,60,,,,,,,
8058,0,,,,-0.3,0.07,1.03,-0,2,-2,0.31,60,,,,,,,
8063,0,,,,-0.4,0.08,1.12,0,2,-2,0.41,60,,,,,,,
8068,0,,,,-0.3,0.13,1.05,0,2,-3,0.32,60,,,,,,,
8073,0,,,,-0.27,0.11,1.03,1,2,-2,0.29,60,,,,,,,
8078,0,,,,-0.34,0.09,1.11,1,2,-2,0.35,60,,,,,,,
8083,0,2.3,3.086,,-0.19,-0.0,1.04,1,2,-3,0.19,60,,,,,,,
8088,0,,,,-0.23,0.04,0.99,1,2,-3,0.24,62,,,,,,,
8093,0,,,,-0.26,0.05,1.01,1,2,-3,0.26,62,,,,,,,
8098,0,,,,-0.31,0.09,0.99,2,2,-3,0.33,62,,,,,,,
8103,0,,,,-0.23,0.04,1.03,2,2,-3,0.24,62,,,,,,,
8108,0,,,,-0.28,0.08,1.02,2,1,-3,0.29,62,,,,,,,
8113,0,,,,-0.24,0.03,1.08,2,1,-3,0.24,62,,,,,,,
8118,0,,,,-0.26,0.1,1.09,2,2,-4,0.28,62,,,,,,,
8123,0,2.44,2.783,,-0.22,0.07,1.05,2,1,-4,0.23,62,,,,,,,
8128,0,,,,-0.3,0.12,1.04,2,1,-3,0.33,65,,,,,,,
8133,0,,,,-0.29,0.07,1.04,2,1,-3,0.3,65,,,,,,,
8138,0,,,,-0.35,0.03,1.06,2,2,-3,0.35,65,,,,,,,
8143,0,,,,-0.28,0.05,0.99,2,2,-4,0.29,65,0.0,0.0,0.0,0.0,0,0,0.0
8148,0,,,,-0.27,0.07,1.01,1,1,-4,0.28,65,,,,,,,
8153,0,,,,-0.35,0.09,1.06,1,2,-4,0.36,65,,,,,,,
8158,0,,,,-0.24,0.01,1.02,1,2,-4,0.24,65,,,,,,,
8163,0,2.51,1.839,,-0.3,0.05,1.01,1,2,-4,0.3,65,,,,,,,
8168,0,,,,-0.29,-0.02,0.97,1,2,-3,0.29,65,,,,,,,
8173,0,,,,-0.4,-0.01,1.0,1,2,-4,0.4,65,,,,,,,
8178,0,,,,-0.27,0.0,1.0,1,2,-4,0.27,65,,,,,,,
8183,0,,,,-0.31,0.01,1.04,0,2,-3,0.31,65,,,,,,,
8188,0,,,,-0.3,-0.04,1.07,1,2,-3,0.3,65,,,,,,,
8193,0,,,,-0.23,-0.09,1.05,0,1,-3,0.25,78,,,,,,,
8198,0,,,,-0.21,-0.12,1.03,0,2,-3,0.24,78,,,,,,,
8203,0,2.45,1.515,,-0.28,-0.1,1.07,-0,2,-2,0.3,78,,,,,,,
8208,0,,,,-0.26,-0.13,1.05,-0,2,-2,0.29,78,,,,,,,
8213,0,,,,-0.24,-0.19,1.08,-0,2,-1,0.3,78,,,,,,,
8218,0,,,,-0.27,-0.14,1.01,-1,2,-1,0.3,78,,,,,,,
8223,0,,,,-0.25,-0.14,1.06,-1,2,-1,0.29,78,,,,,,,
8228,0,,,,-0.36,-0.09,1.1,-1,3,-1,0.37,72,,,,,,,
8233,0,,,,-0.31,-0.13,1.03,-1,3,-0,0.34,72,,,,,,,
8238,0,,,,-0.37,-0.09,1.04,-2,3,1,0.38,72,,,,,,,
8243,0,2.3,1.712,,-0.3,-0.11,1.01,-2,3,1,0.32,72,0.0,0.0,0.0,0.0,0,0,0.0
8248,0,,,,-0.38,-0.11,1.08,-2,3,1,0.39,72,,,,,,,
8253,0,,,,-0.3,-0.09,1.0,-2,3,0,0.31,72,,,,,,,
8258,0,,,,-0.33,-0.1,1.03,-2,3,2,0.34,75,,,,,,,
8263,0,,,,-0.43,-0.11,1.04,-2,4,1,0.45,75,,,,,,,
8268,0,,,,-0.37,-0.15,0.98,-2,3,1,0.4,75,,,,,,,
8273,0,,,,-0.34,-0.11,0.9,-2,3,2,0.36,75,,,,,,,
8278,0,,,,-0.32,-0.08,0.89,-2,2,2,0.33,75,,,,,,,
8283,0,2.16,2.529,,-0.37,-0.06,0.9,-2,3,2,0.37,75,,,,,,,
8288,0,,,,-0.32,-0.1,0.86,-2,2,2,0.34,88,,,,,,,
8293,0,,,,-0.41,-0.07,0.85,-2,2,2,0.41,88,,,,,,,
8298,0,,,,-0.35,-0.07,0.88,-2,1,2,0.36,88,,,,,,,
8303,0,,,,-0.34,-0.02,0.89,-2,1,2,0.34,88,,,,,,,
8308,0,,,,-0.27,-0.02,0.82,-3,0,2,0.27,88,,,,,,,
8313,0,,,,-0.33,0.01,0.86,-2,-0,2,0.33,88,,,,,,,
