"Interval"|"ms"|0|0|1,"Utc"|"ms"|0|0|1,"Analog1"|"V"|0.0|5.0|25,"Analog2"|""|0.0|5.0|25,"Battery"|"Volts"|0.0|20.0|1,"AccelX"|"G"|-3.0|3.0|200,"AccelY"|"G"|-3.0|3.0|200,"AccelZ"|"G"|-3.0|3.0|200,"Yaw"|"Deg/Sec"|-120|120|200,"Pitch"|"Deg/Sec"|-120|120|200,"Roll"|"Deg/Sec"|-120|120|200,"Gsum"|"G"|0.0|3.0|200,"RPM2"|"rpm"|0|8000|200,"Latitude"|"Degrees"|-180.0|180.0|10,"Longitude"|"Degrees"|-180.0|180.0|10,"Speed"|"mph"|0.0|150.0|10,"Altitude"|"ft"|0.0|4000.0|10,"GPSSats"|""|0|20|10,"GPSQual"|""|0|5|10,"GPSDOP"|""|0.0|20.0|10
438,0,,,,-0.04,-0.05,1.02,0,1,-0,0.06,0,,,,,,,
443,0,2.81,2.994,,-0.07,-0.04,0.98,0,1,-0,0.08,0,0.0,0.0,0.0,0.0,0,0,0.0
448,0,,,,-0.06,-0.04,0.98,0,-0,-0,0.07,0,,,,,,,
453,0,,,,-0.03,-0.04,1.03,0,-0,-0,0.05,0,,,,,,,
458,0,,,,-0.01,-0.04,0.98,0,0,-0,0.04,0,,,,,,,
463,0,,,,-0.01,-0.03,0.94,0,-0,-0,0.03,0,,,,,,,
468,0,,,,-0.02,-0.04,1.0,0,0,-0,0.04,0,,,,,,,
473,0,,,,-0.04,-0.05,1.0,0,1,-0,0.06,0,,,,,,,
478,0,,,,-0.06,-0.05,0.96,0,0,-0,0.07,0,,,,,,,
483,0,2.82,2.393,,-0.07,-0.05,0.99,0,-0,0,0.09,0,,,,,,,
513,0,,,,-0.07,-0.05,0.96,0,0,0,0.08,0,,,,,,,
518,0,,,,-0.05,-0.05,0.99,0,-1,0,0.07,0,,,,,,,
523,0,2.81,2.472,,-0.03,-0.04,1.03,0,-0,0,0.05,0,,,,,,,
528,0,,,,-0.02,-0.04,0.97,0,-0,0,0.04,0,,,,,,,
533,0,,,,-0.02,-0.04,0.96,0,-0,0,0.04,0,,,,,,,
558,0,,,,-0.01,-0.04,1.02,0,-0,0,0.04,0,,,,,,,
563,0,2.81,2.629,,-0.0,-0.05,0.99,1,-0,0,0.05,0,,,,,,,
568,0,,,,-0.01,-0.04,0.98,0,-0,0,0.04,0,,,,,,,
573,0,,,,-0.03,-0.05,1.02,0,0,0,0.05,0,,,,,,,
578,0,,,,-0.05,-0.05,0.99,0,0,0,0.07,0,,,,,,,
583,0,,,,-0.06,-0.05,0.97,0,-0,0,0.07,0,,,,,,,
588,0,,,,-0.03,-0.04,1.0,0,-0,0,0.05,0,,,,,,,
593,0,,,,-0.02,-0.03,1.01,0,0,-0,0.04,0,,,,,,,
598,0,,,,-0.02,-0.02,0.96,0,-0,-0,0.03,0,,,,,,,
603,0,2.79,3.401,,-0.02,-0.03,0.98,0,-0,-0,0.03,0,,,,,,,
608,0,,,,-0.02,-0.03,1.02,0,0,-0,0.04,0,,,,,,,
613,0,,,,-0.04,-0.04,0.99,0,0,-0,0.06,0,,,,,,,
618,0,,,,-0.04,-0.04,0.96,0,-0,-0,0.06,0,,,,,,,
623,0,,,,-0.03,-0.03,1.01,0,-0,-0,0.04,0,,,,,,,
628,0,,,,-0.01,-0.03,1.01,0,-0,-0,0.03,0,,,,,,,
633,0,,,,0.0,-0.03,0.97,0,-0,-0,0.03,0,,,,,,,
638,0,,,,-0.0,-0.02,0.98,0,-0,-0,0.02,0,,,,,,,
643,0,2.77,3.203,,-0.03,-0.03,1.02,0,0,-0,0.04,0,0.0,0.0,0.0,0.0,0,0,0.0
648,0,,,,-0.06,-0.04,0.97,0,0,-0,0.07,0,,,,,,,
653,0,,,,-0.06,-0.03,0.97,0,-0,-0,0.07,0,,,,,,,
658,0,,,,-0.03,-0.03,1.02,0,-0,-0,0.04,0,,,,,,,
663,0,,,,-0.01,-0.03,1.0,0,0,-0,0.03,0,,,,,,,
668,0,,,,-0.02,-0.02,0.95,0,-0,-0,0.03,0,,,,,,,
673,0,,,,-0.03,-0.03,1.0,0,-0,-0,0.04,0,,,,,,,
678,0,,,,-0.03,-0.03,1.02,0,0,-0,0.05,0,,,,,,,
683,0,2.77,2.991,,-0.05,-0.03,0.97,0,-0,-0,0.06,0,,,,,,,
688,0,,,,-0.05,-0.03,0.97,0,-1,-0,0.06,0,,,,,,,
693,0,,,,-0.03,-0.03,1.02,0,-0,-0,0.04,0,,,,,,,
698,0,,,,-0.02,-0.04,1.02,0,0,-0,0.04,0,,,,,,,
703,0,,,,-0.01,-0.03,0.98,0,-0,-0,0.03,0,,,,,,,
708,0,,,,-0.01,-0.03,1.0,0,-0,-0,0.03,0,,,,,,,
713,0,,,,-0.04,-0.04,1.03,0,0,-0,0.05,0,,,,,,,
718,0,,,,-0.06,-0.04,0.98,0,0,-0,0.07,0,,,,,,,
723,0,2.77,2.56,,-0.05,-0.04,0.98,0,-0,-0,0.07,0,,,,,,,
728,0,,,,-0.02,-0.04,1.02,0,-0,-0,0.05,0,,,,,,,
733,0,,,,-0.01,-0.04,0.99,0,0,-0,0.04,0,,,,,,,
738,0,,,,-0.02,-0.03,0.95,0,-0,-0,0.04,0,,,,,,,
743,0,,,,-0.03,-0.04,1.0,0,-0,-0,0.05,0,0.0,0.0,0.0,0.0,0,0,0.0
748,0,,,,-0.04,-0.04,1.01,0,0,-0,0.06,0,,,,,,,
753,0,,,,-0.06,-0.04,0.96,0,0,-0,0.07,0,,,,,,,
758,0,,,,-0.06,-0.04,0.99,0,-0,-0,0.07,0,,,,,,,
763,0,2.74,1.957,,-0.03,-0.05,1.02,0,0,-0,0.06,0,,,,,,,
768,0,,,,-0.03,-0.05,1.0,0,0,-0,0.06,0,,,,,,,
773,0,,,,-0.02,-0.04,0.96,0,0,-0,0.04,0,,,,,,,
778,0,,,,-0.02,-0.04,0.99,0,0,-0,0.05,0,,,,,,,
783,0,,,,-0.05,-0.05,1.0,0,1,-0,0.07,0,,,,,,,
788,0,,,,-0.06,-0.04,0.96,0,0,-0,0.08,0,,,,,,,
793,0,,,,-0.04,-0.03,0.98,0,-0,-0,0.06,0,,,,,,,
798,0,,,,-0.03,-0.03,1.02,0,0,-0,0.05,0,,,,,,,
803,0,2.76,1.629,,-0.02,-0.03,0.96,0,0,-0,0.03,0,,,,,,,
808,0,,,,-0.03,-0.02,0.96,0,-0,-0,0.04,0,,,,,,,
813,0,,,,-0.03,-0.02,1.01,0,0,-0,0.04,0,,,,,,,
818,0,,,,-0.06,-0.03,1.0,0,1,-0,0.06,0,,,,,,,
823,0,,,,-0.05,-0.03,0.95,0,0,-0,0.06,0,,,,,,,
828,0,,,,-0.05,-0.03,0.99,0,-0,-0,0.05,0,,,,,,,
833,0,,,,-0.02,-0.03,1.02,0,0,-0,0.03,0,,,,,,,
838,0,,,,-0.01,-0.02,0.99,0,0,-0,0.03,0,,,,,,,
843,0,2.79,1.863,,-0.01,-0.02,0.97,0,0,0,0.02,0,0.0,0.0,0.0,0.0,0,0,0.0
848,0,,,,-0.02,-0.03,1.0,0,0,-0,0.03,0,,,,,,,
853,0,,,,-0.04,-0.03,1.0,0,1,-0,0.06,0,,,,,,,
858,0,,,,-0.06,-0.04,0.96,0,0,-0,0.07,0,,,,,,,
863,0,,,,-0.03,-0.03,1.0,0,-0,-0,0.05,0,,,,,,,
868,0,,,,-0.02,-0.03,1.02,0,0,-0,0.03,0,,,,,,,
873,0,,,,-0.0,-0.02,0.96,1,0,-0,0.02,0,,,,,,,
878,0,,,,-0.01,-0.03,0.98,1,-0,-0,0.03,0,,,,,,,
883,0,2.81,2.144,,-0.01,-0.03,1.02,1,0,-0,0.04,0,,,,,,,
888,0,,,,-0.04,-0.04,1.0,1,1,-0,0.06,0,,,,,,,
893,0,,,,-0.04,-0.04,0.96,1,0,-0,0.05,0,,,,,,,
898,0,,,,-0.04,-0.04,1.01,1,-0,-0,0.05,0,,,,,,,
903,0,,,,-0.01,-0.03,1.03,1,0,-0,0.03,0,,,,,,,
908,0,,,,0.01,-0.01,1.0,1,0,-0,0.01,0,,,,,,,
913,0,,,,-0.01,-0.0,0.99,0,0,0,0.01,0,,,,,,,
918,0,,,,-0.03,-0.01,1.02,0,0,0,0.04,0,,,,,,,
923,0,2.79,2.0,,-0.07,-0.0,1.02,0,1,-0,0.07,0,,,,,,,
928,0,,,,-0.09,0.0,0.98,0,0,0,0.09,0,,,,,,,
933,0,,,,-0.05,0.01,1.03,0,0,0,0.05,0,,,,,,,
938,0,,,,-0.03,0.01,1.03,0,1,-0,0.03,0,,,,,,,
943,0,,,,-0.02,0.0,0.96,0,1,-0,0.02,0,0.0,0.0,0.0,0.0,0,0,0.0
948,0,,,,-0.04,-0.01,1.0,-0,0,-0,0.04,0,,,,,,,
953,0,,,,-0.05,-0.01,1.04,-0,1,-0,0.06,0,,,,,,,
958,0,,,,-0.09,-0.01,1.01,-0,1,-0,0.09,0,,,,,,,
963,0,2.85,2.019,,-0.08,-0.01,0.97,-0,1,-0,0.08,0,,,,,,,
968,0,,,,-0.06,-0.01,1.02,-0,0,-0,0.06,0,,,,,,,
973,0,,,,-0.04,-0.01,1.02,-0,1,-0,0.04,0,,,,,,,
978,0,,,,-0.02,-0.0,0.98,-1,1,-0,0.02,0,,,,,,,
983,0,,,,-0.03,-0.01,0.97,-1,1,-0,0.03,0,,,,,,,
988,0,,,,-0.06,-0.02,1.01,-1,1,-0,0.07,0,,,,,,,
993,0,,,,-0.1,-0.03,0.99,-1,1,-0,0.1,0,,,,,,,
998,0,,,,-0.1,-0.03,0.96,-1,1,-0,0.1,0,,,,,,,
1003,0,2.81,1.85,,-0.06,-0.02,1.01,-1,0,-0,0.06,0,,,,,,,
1008,0,,,,-0.04,-0.02,1.01,-0,1,-0,0.04,0,,,,,,,
1013,0,,,,-0.03,-0.02,0.95,-0,1,-0,0.04,0,,,,,,,
1018,0,,,,-0.05,-0.02,0.99,-0,0,-0,0.05,0,,,,,,,
1023,0,,,,-0.06,-0.03,1.02,-0,1,-0,0.07,0,,,,,,,
1028,0,,,,-0.09,-0.03,0.99,-0,1,-0,0.1,0,,,,,,,
1033,0,,,,-0.08,-0.04,0.97,-0,0,-0,0.09,0,,,,,,,
1038,0,,,,-0.06,-0.03,1.02,-0,0,-0,0.07,0,,,,,,,
1043,0,2.8,1.68,13.35,-0.03,-0.02,1.02,-0,1,-0,0.04,0,0.0,0.0,0.0,0.0,0,0,0.0
1048,0,,,,-0.02,-0.02,0.98,0,1,-0,0.03,0,,,,,,,
1053,0,,,,-0.03,-0.02,0.97,0,0,-0,0.04,0,,,,,,,
1058,0,,,,-0.06,-0.04,1.02,0,1,-0,0.07,0,,,,,,,
1063,0,,,,-0.09,-0.04,0.98,0,1,-0,0.09,0,,,,,,,
1068,0,,,,-0.08,-0.04,0.97,0,0,-0,0.09,0,,,,,,,
1073,0,,,,-0.03,-0.03,1.01,0,0,-0,0.04,0,,,,,,,
1078,0,,,,-0.01,-0.03,0.99,0,1,-0,0.03,0,,,,,,,
1083,0,2.83,2.337,,-0.03,-0.02,0.93,0,1,-0,0.03,0,,,,,,,
1088,0,,,,-0.04,-0.02,0.95,0,0,-1,0.05,0,,,,,,,
1093,0,,,,-0.07,-0.02,0.98,0,0,-1,0.08,0,,,,,,,
1098,0,,,,-0.1,-0.02,0.96,1,0,-0,0.11,0,,,,,,,
1103,0,,,,-0.1,-0.02,0.94,1,-0,-0,0.1,0,,,,,,,
1108,0,,,,-0.08,-0.02,0.99,1,-0,-0,0.08,0,,,,,,,
1113,0,,,,-0.04,-0.01,1.0,1,-0,-1,0.04,0,,,,,,,
1118,0,,,,-0.03,-0.0,0.99,1,-0,-0,0.03,0,,,,,,,
1123,0,2.81,2.961,,-0.03,-0.01,0.99,1,-0,-0,0.04,0,,,,,,,
1128,0,,,,-0.07,-0.02,1.03,0,0,-0,0.07,0,,,,,,,
1133,0,,,,-0.09,-0.02,1.0,0,0,-0,0.09,0,,,,,,,
1138,0,,,,-0.08,-0.01,0.99,0,-0,-0,0.08,0,,,,,,,
1143,0,,,,-0.02,-0.01,1.04,0,-0,-0,0.03,0,0.0,0.0,0.0,0.0,0,0,0.0
1148,0,,,,-0.01,-0.0,1.02,0,1,-0,0.01,0,,,,,,,
1153,0,,,,-0.0,-0.0,0.96,0,0,-0,0.0,0,,,,,,,
1158,0,,,,-0.03,-0.0,1.01,0,0,-0,0.03,0,,,,,,,
1163,0,2.84,3.538,,-0.04,-0.01,1.04,0,1,-0,0.04,0,,,,,,,
1168,0,,,,-0.07,-0.01,1.0,0,1,-0,0.07,0,,,,,,,
1173,0,,,,-0.06,-0.01,0.99,0,0,-0,0.06,0,,,,,,,
1178,0,,,,-0.04,-0.01,1.03,0,0,-0,0.05,0,,,,,,,
1183,0,,,,-0.03,-0.0,1.03,-0,1,-0,0.03,0,,,,,,,
1188,0,,,,-0.01,0.0,0.99,-0,1,-0,0.01,0,,,,,,,
1193,0,,,,-0.02,-0.01,0.99,-0,1,-0,0.02,0,,,,,,,
1198,0,,,,-0.05,-0.02,1.01,-0,1,-0,0.05,0,,,,,,,
1203,0,2.84,4.148,,-0.07,-0.03,0.98,-0,1,-0,0.08,0,,,,,,,
1208,0,,,,-0.07,-0.03,0.96,-0,0,-0,0.08,0,,,,,,,
1213,0,,,,-0.03,-0.03,0.99,-0,0,-0,0.04,0,,,,,,,
1218,0,,,,-0.02,-0.02,0.98,-0,1,-0,0.03,0,,,,,,,
1223,0,,,,-0.02,-0.03,0.92,-0,1,-0,0.03,0,,,,,,,
1228,0,,,,-0.03,-0.03,0.95,-0,0,-0,0.04,0,,,,,,,
1233,0,,,,-0.04,-0.04,0.98,-0,1,-0,0.05,0,,,,,,,
1238,0,,,,-0.06,-0.05,0.95,-0,1,-0,0.08,0,,,,,,,
1263,0,,,,-0.02,-0.04,0.93,-0,-0,-0,0.04,0,,,,,,,
1268,0,,,,-0.05,-0.05,0.98,-0,0,-0,0.07,0,,,,,,,
1273,0,,,,-0.07,-0.05,0.96,0,0,-0,0.09,0,,,,,,,
1278,0,,,,-0.08,-0.05,0.94,0,-0,-0,0.1,0,,,,,,,
1283,0,2.79,4.028,,-0.05,-0.04,0.98,0,-0,-0,0.07,0,,,,,,,
1288,0,,,,-0.04,-0.04,1.01,0,0,-0,0.06,0,,,,,,,
1308,0,,,,-0.06,-0.05,0.99,0,0,-0,0.08,0,,,,,,,
1313,0,,,,-0.06,-0.04,0.94,0,0,-0,0.07,0,,,,,,,
1318,0,,,,-0.06,-0.04,0.99,0,-0,-0,0.07,0,,,,,,,
1323,0,2.83,3.874,,-0.02,-0.03,1.01,0,0,-0,0.04,0,,,,,,,
1328,0,,,,0.0,-0.03,0.99,0,0,-0,0.03,0,,,,,,,
1333,0,,,,-0.0,-0.01,0.97,0,-0,-0,0.01,0,,,,,,,
1338,0,,,,-0.03,-0.03,1.02,0,0,-0,0.04,0,,,,,,,
1343,0,,,,-0.05,-0.03,1.01,0,0,-0,0.06,0,0.0,0.0,0.0,0.0,0,0,0.0
1348,0,,,,-0.06,-0.03,0.97,0,0,-0,0.07,0,,,,,,,
1353,0,,,,-0.04,-0.02,1.01,0,-0,0,0.04,0,,,,,,,
1358,0,,,,-0.01,-0.02,1.04,0,0,-0,0.02,0,,,,,,,
1363,0,2.83,3.747,,0.0,-0.02,0.97,0,0,-0,0.02,0,,,,,,,
1368,0,,,,-0.01,-0.03,0.95,0,-0,-0,0.03,0,,,,,,,
1373,0,,,,-0.02,-0.03,1.01,0,0,-0,0.04,0,,,,,,,
1378,0,,,,-0.04,-0.03,1.02,0,0,-0,0.05,0,,,,,,,
1383,0,,,,-0.04,-0.02,0.96,0,0,-0,0.04,0,,,,,,,
1388,0,,,,-0.04,-0.03,0.99,0,-0,-0,0.05,0,,,,,,,
1393,0,,,,-0.01,-0.02,1.03,0,0,-0,0.02,0,,,,,,,
1398,0,,,,0.01,-0.02,0.99,0,0,-0,0.02,0,,,,,,,
1403,0,2.79,3.592,,0.0,-0.02,0.97,0,-0,-0,0.02,0,,,,,,,
1408,0,,,,-0.01,-0.03,1.0,0,-0,-0,0.03,0,,,,,,,
1413,0,,,,-0.03,-0.04,1.0,0,0,-0,0.05,0,,,,,,,
1418,0,,,,-0.05,-0.03,0.97,-0,0,-0,0.06,0,,,,,,,
1423,0,,,,-0.04,-0.03,1.0,-0,-1,-0,0.05,0,,,,,,,
1428,0,,,,-0.01,-0.03,1.04,-0,-0,-0,0.03,0,,,,,,,
1433,0,,,,0.0,-0.03,0.99,-0,0,-0,0.03,0,,,,,,,
1438,0,,,,-0.02,-0.03,0.95,-0,-0,-0,0.04,0,,,,,,,
1443,0,2.83,3.534,,-0.03,-0.04,1.02,-0,-0,-0,0.05,0,0.0,0.0,0.0,0.0,0,0,0.0
1448,0,,,,-0.04,-0.03,1.03,-0,0,-0,0.06,0,,,,,,,
1453,0,,,,-0.04,-0.03,0.98,-0,0,-0,0.05,0,,,,,,,
1458,0,,,,-0.05,-0.03,1.0,-0,-0,-0,0.06,0,,,,,,,
1463,0,,,,-0.03,-0.03,1.04,0,0,-0,0.04,0,,,,,,,
1468,0,,,,-0.02,-0.03,1.02,0,0,-0,0.03,0,,,,,,,
1473,0,,,,-0.01,-0.03,0.99,0,0,-0,0.03,0,,,,,,,
1478,0,,,,-0.01,-0.04,0.99,0,0,-0,0.04,0,,,,,,,
1483,0,2.81,3.654,,-0.04,-0.05,1.03,0,1,-0,0.07,0,,,,,,,
1488,0,,,,-0.06,-0.05,0.99,0,1,-0,0.08,0,,,,,,,
1493,0,,,,-0.06,-0.04,0.98,0,-0,-0,0.07,0,,,,,,,
1498,0,,,,-0.02,-0.04,1.03,0,0,-0,0.04,0,,,,,,,
1503,0,,,,-0.01,-0.04,1.0,0,1,-0,0.04,0,,,,,,,
1508,0,,,,-0.03,-0.03,0.95,0,0,-0,0.04,0,,,,,,,
1513,0,,,,-0.04,-0.03,1.0,0,-0,-0,0.05,0,,,,,,,
1518,0,,,,-0.04,-0.04,1.03,0,0,-0,0.05,0,,,,,,,
1523,0,2.82,3.864,,-0.05,-0.04,0.98,0,1,-0,0.06,0,,,,,,,
1528,0,,,,-0.05,-0.03,0.97,0,0,-0,0.06,0,,,,,,,
1533,0,,,,-0.03,-0.03,1.02,0,0,-0,0.04,0,,,,,,,
1538,0,,,,-0.02,-0.02,1.02,0,0,-0,0.03,0,,,,,,,
1543,0,,,,-0.0,-0.03,0.98,0,0,-0,0.03,0,0.0,0.0,0.0,0.0,0,0,0.0
1548,0,,,,-0.0,-0.03,0.99,0,0,-0,0.03,0,,,,,,,
1553,0,,,,-0.03,-0.04,1.02,0,1,-0,0.05,0,,,,,,,
1558,0,,,,-0.05,-0.04,0.99,0,1,-0,0.07,0,,,,,,,
1563,0,2.78,3.655,,-0.05,-0.03,0.97,0,0,-0,0.06,0,,,,,,,
1568,0,,,,-0.02,-0.03,1.02,0,0,-0,0.03,0,,,,,,,
1573,0,,,,-0.01,-0.02,1.01,0,1,-0,0.02,0,,,,,,,
1578,0,,,,-0.01,-0.02,0.95,0,0,-0,0.02,0,,,,,,,
1583,0,,,,-0.02,-0.02,0.98,0,0,-0,0.03,0,,,,,,,
1588,0,,,,-0.02,-0.03,1.02,0,0,-0,0.04,0,,,,,,,
1593,0,,,,-0.04,-0.03,1.0,0,1,-0,0.05,0,,,,,,,
1598,0,,,,-0.04,-0.03,0.96,0,0,-0,0.05,0,,,,,,,
1603,0,2.81,3.781,,-0.05,-0.03,1.01,0,0,0,0.06,0,,,,,,,
1608,0,,,,-0.03,-0.03,1.02,0,0,-0,0.04,0,,,,,,,
1613,0,,,,-0.0,-0.02,0.98,-0,0,-0,0.02,0,,,,,,,
1618,0,,,,-0.0,-0.02,0.97,-0,0,-0,0.02,0,,,,,,,
1623,0,,,,-0.02,-0.03,1.0,-0,0,-0,0.04,0,,,,,,,
1628,0,,,,-0.05,-0.03,0.99,-0,1,-0,0.06,0,,,,,,,
1633,0,,,,-0.06,-0.03,0.96,-0,0,-0,0.07,0,,,,,,,
1638,0,,,,-0.05,-0.03,0.99,-0,-0,-0,0.05,0,,,,,,,
1643,0,2.8,4.076,,-0.02,-0.02,1.02,-0,0,-0,0.03,0,0.0,0.0,0.0,0.0,0,0,0.0
1648,0,,,,-0.01,-0.02,0.97,-0,0,-0,0.03,0,,,,,,,
1653,0,,,,-0.02,-0.03,0.94,-0,0,0,0.04,0,,,,,,,
1658,0,,,,-0.04,-0.04,1.0,-0,0,0,0.05,0,,,,,,,
1663,0,,,,-0.05,-0.04,1.02,-0,0,-0,0.06,0,,,,,,,
1668,0,,,,-0.05,-0.02,0.97,-0,0,-0,0.06,0,,,,,,,
1673,0,,,,-0.06,-0.03,0.98,-0,-0,0,0.07,0,,,,,,,
1678,0,,,,-0.05,-0.02,1.02,-0,0,-0,0.05,0,,,,,,,
1683,0,2.8,3.361,,-0.03,-0.02,1.01,-0,0,-0,0.04,0,,,,,,,
1688,0,,,,-0.02,-0.02,0.98,-0,-0,-0,0.03,0,,,,,,,
1693,0,,,,-0.01,-0.03,0.99,-0,-0,-0,0.03,0,,,,,,,
1698,0,,,,-0.04,-0.04,1.01,-0,0,-0,0.05,0,,,,,,,
1703,0,,,,-0.05,-0.04,0.98,-0,0,-0,0.07,0,,,,,,,
1708,0,,,,-0.06,-0.03,0.98,-0,-0,-0,0.07,0,,,,,,,
1713,0,,,,-0.02,-0.03,1.02,-0,-0,-0,0.04,0,,,,,,,
1718,0,,,,-0.02,-0.02,1.0,-0,0,-0,0.03,0,,,,,,,
1723,0,2.79,3.629,,-0.03,-0.02,0.96,-0,0,-0,0.03,0,,,,,,,
1728,0,,,,-0.03,-0.02,0.99,-0,-0,-0,0.04,0,,,,,,,
1733,0,,,,-0.03,-0.03,1.02,0,0,-0,0.04,0,,,,,,,
1738,0,,,,-0.04,-0.03,1.0,0,0,-0,0.05,0,,,,,,,
1743,0,,,,-0.04,-0.03,0.97,0,-0,-0,0.05,0,0.0,0.0,0.0,0.0,0,0,0.0
1748,0,,,,-0.05,-0.03,1.01,0,-0,-0,0.05,0,,,,,,,
1753,0,,,,-0.03,-0.02,1.02,0,0,-0,0.03,0,,,,,,,
1758,0,,,,0.0,-0.02,0.98,0,0,-0,0.02,0,,,,,,,
1763,0,2.76,3.811,,-0.0,-0.02,0.97,0,-0,-0,0.02,0,,,,,,,
1768,0,,,,-0.02,-0.03,1.0,0,0,-0,0.03,0,,,,,,,
1773,0,,,,-0.04,-0.03,1.0,0,0,-0,0.05,0,,,,,,,
1778,0,,,,-0.05,-0.03,0.97,0,0,-0,0.06,0,,,,,,,
1783,0,,,,-0.04,-0.02,0.99,0,-0,-0,0.04,0,,,,,,,
1788,0,,,,-0.0,-0.02,1.02,0,-0,-0,0.02,0,,,,,,,
1793,0,,,,0.01,-0.03,0.97,0,0,-0,0.03,0,,,,,,,
1798,0,,,,-0.0,-0.03,0.94,0,-0,-0,0.03,0,,,,,,,
1803,0,2.8,3.763,,-0.02,-0.03,1.0,0,-0,-0,0.04,0,,,,,,,
1808,0,,,,-0.02,-0.03,1.02,0,0,-0,0.04,0,,,,,,,
1813,0,,,,-0.03,-0.02,0.97,0,-0,-0,0.04,0,,,,,,,
1818,0,,,,-0.03,-0.02,0.97,0,-0,-0,0.04,0,,,,,,,
1823,0,,,,-0.03,-0.02,1.02,0,-0,-0,0.04,0,,,,,,,
1828,0,,,,-0.02,-0.01,1.02,0,-0,-0,0.02,0,,,,,,,
1833,0,,,,-0.01,-0.02,0.99,0,-0,-0,0.02,0,,,,,,,
1838,0,,,,-0.0,-0.02,0.98,0,-0,-0,0.02,0,,,,,,,
1843,0,2.76,3.734,,-0.03,-0.03,1.02,0,-0,-0,0.04,0,0.0,0.0,0.0,0.0,0,0,0.0
1848,0,,,,-0.04,-0.03,0.99,0,0,-0,0.05,0,,,,,,,
1853,0,,,,-0.05,-0.02,0.98,0,-0,-0,0.05,0,,,,,,,
1858,0,,,,-0.02,-0.02,1.01,0,-0,-0,0.03,0,,,,,,,
1863,0,,,,-0.01,-0.01,1.02,0,-0,-0,0.02,0,,,,,,,
1868,0,,,,-0.01,-0.01,0.97,0,-0,-0,0.02,0,,,,,,,
1873,0,,,,-0.02,-0.02,0.96,0,-0,-0,0.02,0,,,,,,,
1878,0,,,,-0.02,-0.03,1.01,0,-0,-0,0.04,0,,,,,,,
1883,0,2.78,3.376,,-0.03,-0.04,1.0,0,0,-0,0.05,0,,,,,,,
1888,0,,,,-0.03,-0.03,0.96,0,-0,-0,0.04,0,,,,,,,
1893,0,,,,-0.04,-0.03,0.99,0,-0,-0,0.05,0,,,,,,,
1898,0,,,,-0.02,-0.03,1.02,0,-0,-0,0.03,0,,,,,,,
1903,0,,,,0.0,-0.03,0.99,0,-0,-0,0.03,0,,,,,,,
1908,0,,,,0.0,-0.03,0.97,0,-0,-0,0.03,0,,,,,,,
1913,0,,,,0.0,-0.04,0.99,0,-0,-0,0.04,0,,,,,,,
1918,0,,,,-0.02,-0.05,1.0,0,-0,-0,0.05,0,,,,,,,
1923,0,2.8,3.999,,-0.04,-0.04,0.97,0,-0,-0,0.06,0,,,,,,,
1928,0,,,,-0.03,-0.04,0.97,0,-1,-0,0.05,0,,,,,,,
1933,0,,,,0.0,-0.04,1.01,0,-1,-0,0.04,0,,,,,,,
1938,0,,,,0.02,-0.04,0.98,0,-0,-0,0.04,0,,,,,,,
1943,0,,,,-0.0,-0.03,0.94,0,-0,-0,0.03,0,0.0,0.0,0.0,0.0,0,0,0.0
1948,0,,,,-0.02,-0.04,0.99,0,-1,-0,0.04,0,,,,,,,
1953,0,,,,-0.02,-0.04,1.02,0,-0,-0,0.04,0,,,,,,,
1958,0,,,,-0.03,-0.04,0.98,0,-0,-0,0.05,0,,,,,,,
1963,0,2.77,3.762,,-0.02,-0.03,0.97,0,-1,-0,0.04,0,,,,,,,
1968,0,,,,-0.02,-0.02,1.02,0,-0,-0,0.03,0,,,,,,,
1973,0,,,,-0.01,-0.02,1.02,0,-0,-0,0.02,0,,,,,,,
1978,0,,,,0.0,-0.03,0.99,0,-0,-0,0.03,0,,,,,,,
1983,0,,,,0.0,-0.02,0.98,0,-0,-0,0.02,0,,,,,,,
1988,0,,,,-0.02,-0.03,1.02,0,-0,-0,0.04,0,,,,,,,
1993,0,,,,-0.03,-0.03,0.99,0,0,-0,0.04,0,,,,,,,
1998,0,,,,-0.05,-0.03,0.97,0,-0,-0,0.06,0,,,,,,,
2003,0,2.78,4.04,,-0.02,-0.02,1.0,0,-1,-0,0.03,0,,,,,,,
2008,0,,,,-0.0,-0.02,1.02,0,-0,-0,0.02,0,,,,,,,
2013,0,,,,0.01,-0.02,0.96,0,-0,-0,0.02,0,,,,,,,
2018,0,,,,0.0,-0.02,0.95,0,-0,-0,0.02,0,,,,,,,
2023,0,,,,-0.0,-0.03,1.01,0,-0,-0,0.03,0,,,,,,,
2028,0,,,,-0.02,-0.04,1.01,0,0,-0,0.04,0,,,,,,,
2033,0,,,,-0.02,-0.03,0.97,0,-0,-0,0.04,0,,,,,,,
2038,0,,,,-0.02,-0.03,1.0,0,-0,-0,0.04,0,,,,,,,
2043,0,2.76,3.976,13.35,0.01,-0.03,1.02,0,0,-1,0.03,0,0.0,0.0,0.0,0.0,0,0,0.0
2048,0,,,,0.02,-0.02,1.0,0,0,-1,0.03,0,,,,,,,
2053,0,,,,0.02,-0.03,0.98,0,-0,-1,0.03,0,,,,,,,
2058,0,,,,0.01,-0.04,1.0,0,0,-1,0.04,0,,,,,,,
2063,0,,,,-0.01,-0.05,1.0,0,0,-1,0.05,0,,,,,,,
2068,0,,,,-0.03,-0.04,0.96,0,0,-1,0.05,0,,,,,,,
2073,0,,,,-0.02,-0.03,0.98,0,-0,-0,0.04,0,,,,,,,
2078,0,,,,0.01,-0.03,1.01,0,0,-1,0.03,0,,,,,,,
2083,0,2.78,3.738,,0.03,-0.03,0.97,0,0,-1,0.04,0,,,,,,,
2088,0,,,,0.01,-0.04,0.93,0,-0,-0,0.04,0,,,,,,,
2093,0,,,,-0.01,-0.04,0.99,0,-0,-0,0.04,0,,,,,,,
2098,0,,,,-0.01,-0.04,1.01,0,0,-1,0.04,0,,,,,,,
2103,0,,,,-0.03,-0.03,0.96,0,0,-0,0.04,0,,,,,,,
2108,0,,,,-0.03,-0.03,0.96,0,-0,-0,0.04,0,,,,,,,
2113,0,,,,-0.02,-0.02,1.0,0,-0,-0,0.03,0,,,,,,,
2118,0,,,,-0.01,-0.02,1.0,0,0,-0,0.02,0,,,,,,,
2123,0,2.78,3.886,,0.0,-0.03,0.97,0,-0,-0,0.03,0,,,,,,,
2128,0,,,,0.0,-0.03,0.98,0,-0,-0,0.03,0,,,,,,,
2133,0,,,,-0.02,-0.04,1.02,0,0,-0,0.04,0,,,,,,,
2138,0,,,,-0.04,-0.04,0.99,0,0,-0,0.06,0,,,,,,,
2143,0,,,,-0.05,-0.03,0.98,0,-0,-0,0.06,0,0.0,0.0,0.0,0.0,0,0,0.0
2148,0,,,,-0.02,-0.03,1.02,0,-0,-0,0.03,0,,,,,,,
2153,0,,,,-0.0,-0.02,1.03,0,0,-0,0.02,0,,,,,,,
2158,0,,,,-0.0,-0.02,0.97,0,0,-0,0.02,0,,,,,,,
2163,0,2.8,3.849,,-0.0,-0.02,0.99,0,-0,-0,0.02,0,,,,,,,
2168,0,,,,-0.0,-0.03,1.02,0,0,-0,0.03,0,,,,,,,
2173,0,,,,-0.02,-0.03,1.0,0,1,-0,0.04,0,,,,,,,
2178,0,,,,-0.02,-0.03,0.97,0,0,-0,0.04,0,,,,,,,
2183,0,,,,-0.02,-0.03,1.02,0,0,-0,0.04,0,,,,,,,
2188,0,,,,-0.0,-0.03,1.03,0,0,-0,0.03,0,,,,,,,
2193,0,,,,0.02,-0.04,0.99,0,0,-0,0.04,0,,,,,,,
2198,0,,,,0.02,-0.03,0.97,0,-0,-0,0.04,0,,,,,,,
2203,0,2.81,3.793,,-0.0,-0.04,1.01,0,0,-0,0.04,0,,,,,,,
2208,0,,,,-0.02,-0.04,1.0,0,1,-0,0.05,0,,,,,,,
2213,0,,,,-0.04,-0.05,0.97,0,0,-0,0.06,0,,,,,,,
2218,0,,,,-0.03,-0.04,1.01,0,-0,0,0.05,0,,,,,,,
2223,0,,,,-0.0,-0.04,1.03,0,0,-0,0.04,0,,,,,,,
2228,0,,,,0.01,-0.04,0.98,0,0,-0,0.04,0,,,,,,,
2233,0,,,,-0.0,-0.04,0.96,0,-0,0,0.04,0,,,,,,,
2238,0,,,,-0.02,-0.05,1.03,0,0,-0,0.05,0,,,,,,,
2243,0,2.81,3.732,,-0.04,-0.05,1.01,0,0,-0,0.06,0,0.0,0.0,0.0,0.0,0,0,0.0
2248,0,,,,-0.04,-0.05,0.97,0,-0,0,0.06,0,,,,,,,
2253,0,,,,-0.04,-0.04,1.0,0,-0,0,0.06,0,,,,,,,
2258,0,,,,-0.02,-0.04,1.04,0,0,-0,0.04,0,,,,,,,
2263,0,,,,-0.0,-0.03,1.01,0,0,-0,0.03,0,,,,,,,
2268,0,,,,0.0,-0.02,0.97,0,-0,-0,0.02,0,,,,,,,
2273,0,,,,0.0,-0.03,1.0,0,-0,-0,0.03,0,,,,,,,
2278,0,,,,-0.03,-0.04,1.02,0,0,-0,0.05,0,,,,,,,
2283,0,2.8,3.82,,-0.05,-0.03,0.98,0,0,-0,0.06,0,,,,,,,
2288,0,,,,-0.05,-0.03,0.99,0,-0,0,0.05,0,,,,,,,
2293,0,,,,-0.02,-0.03,1.03,0,-0,-0,0.03,0,,,,,,,
2298,0,,,,-0.0,-0.03,0.98,0,0,-0,0.03,0,,,,,,,
2303,0,,,,-0.02,-0.03,0.95,0,-0,-0,0.04,0,,,,,,,
2308,0,,,,-0.03,-0.03,1.01,0,-0,-0,0.04,0,,,,,,,
2423,0,,,,-0.07,-0.03,1.0,0,1,-1,0.07,0,,,,,,,
2428,0,,,,-0.07,-0.02,0.97,0,-0,-1,0.07,0,,,,,,,
2433,0,,,,-0.03,-0.02,1.01,0,-0,-1,0.03,0,,,,,,,
2438,0,,,,-0.01,-0.01,0.99,0,0,-1,0.01,0,,,,,,,
2443,0,2.82,3.827,,-0.02,-0.02,0.92,0,-0,-1,0.02,0,0.0,0.0,0.0,0.0,0,0,0.0
2448,0,,,,-0.02,-0.03,0.95,0,-0,-0,0.03,0,,,,,,,
2453,0,,,,-0.03,-0.03,1.01,0,0,-1,0.04,0,,,,,,,
2458,0,,,,-0.06,-0.04,0.99,0,0,-1,0.07,0,,,,,,,
2463,0,,,,-0.05,-0.03,0.96,0,-1,-0,0.06,0,,,,,,,
2468,0,,,,-0.03,-0.04,1.01,0,-1,-0,0.05,0,,,,,,,
2473,0,,,,-0.01,-0.04,1.02,0,-0,-0,0.04,0,,,,,,,
2573,0,,,,-0.06,-0.04,0.99,0,-0,0,0.08,0,,,,,,,
2578,0,,,,-0.04,-0.05,1.0,0,0,-0,0.06,0,,,,,,,
2583,0,,,,-0.03,-0.04,0.93,0,0,0,0.05,0,,,,,,,
2588,0,,,,-0.03,-0.04,0.94,0,-0,0,0.05,0,,,,,,,
2593,0,,,,-0.04,-0.04,1.0,0,-0,0,0.06,0,,,,,,,
2598,0,,,,-0.07,-0.05,0.98,0,0,0,0.09,0,,,,,,,
2603,0,2.82,3.095,,-0.06,-0.04,0.94,0,-1,0,0.08,0,,,,,,,
2608,0,,,,-0.06,-0.04,0.98,0,-1,0,0.07,0,,,,,,,
2613,0,,,,-0.03,-0.04,1.01,0,-0,0,0.05,0,,,,,,,
2618,0,,,,-0.01,-0.04,0.98,0,-0,0,0.04,0,,,,,,,
2623,0,,,,-0.01,-0.03,0.96,0,-1,0,0.03,0,,,,,,,
2723,0,2.77,3.844,,0.0,-0.04,0.96,0,0,0,0.04,0,,,,,,,
2728,0,,,,-0.01,-0.04,0.96,0,-0,0,0.04,0,,,,,,,
2733,0,,,,-0.01,-0.06,1.02,0,0,0,0.06,0,,,,,,,
2738,0,,,,-0.04,-0.06,1.0,0,0,-0,0.07,0,,,,,,,
2743,0,,,,-0.03,-0.05,0.96,0,-0,-0,0.06,0,0.0,0.0,0.0,0.0,0,0,0.0
2748,0,,,,-0.02,-0.05,1.0,0,-0,0,0.05,0,,,,,,,
2753,0,,,,0.01,-0.05,1.02,0,0,-0,0.05,0,,,,,,,
2758,0,,,,0.03,-0.04,0.98,0,0,-0,0.05,0,,,,,,,
2763,0,2.8,3.318,,0.02,-0.04,0.98,0,-0,-0,0.05,0,,,,,,,
2768,0,,,,0.01,-0.05,1.01,0,0,-0,0.05,0,,,,,,,
2868,0,,,,-0.01,-0.04,0.99,0,-0,-0,0.04,0,,,,,,,
2873,0,,,,-0.02,-0.04,1.02,0,0,-0,0.04,0,,,,,,,
2878,0,,,,-0.04,-0.04,0.99,0,0,-0,0.06,0,,,,,,,
2883,0,2.82,1.456,,-0.04,-0.05,0.98,0,-0,-0,0.06,0,,,,,,,
2888,0,,,,-0.02,-0.04,1.03,0,-0,-0,0.05,0,,,,,,,
2893,0,,,,-0.01,-0.04,1.04,0,0,-0,0.04,0,,,,,,,
2898,0,,,,0.01,-0.04,0.99,0,0,-0,0.04,0,,,,,,,
2903,0,,,,0.01,-0.05,0.99,0,-0,-0,0.05,0,,,,,,,
2908,0,,,,-0.03,-0.06,1.02,0,0,-0,0.06,0,,,,,,,
2913,0,,,,-0.06,-0.05,0.98,0,1,-0,0.08,0,,,,,,,
2918,0,,,,-0.05,-0.05,0.97,0,0,-0,0.08,0,,,,,,,
3018,0,,,,-0.06,-0.02,0.97,0,-0,-0,0.07,0,,,,,,,
3023,0,,,,-0.06,-0.02,0.99,0,-1,-0,0.06,0,,,,,,,
3028,0,,,,-0.03,-0.02,1.02,0,-0,-0,0.03,0,,,,,,,
3033,0,,,,-0.01,-0.01,0.99,0,-0,-0,0.02,0,,,,,,,
3038,0,,,,-0.0,-0.01,0.96,0,-0,-0,0.01,0,,,,,,,
3043,0,2.79,2.09,13.32,-0.01,-0.03,0.98,0,-0,-0,0.03,0,0.0,0.0,0.0,0.0,0,0,0.0
3048,0,,,,-0.04,-0.04,0.99,0,0,-0,0.06,0,,,,,,,
3053,0,,,,-0.05,-0.03,0.95,0,-0,-0,0.06,0,,,,,,,
3058,0,,,,-0.04,-0.02,0.98,0,-1,-0,0.04,0,,,,,,,
3163,0,2.79,2.763,,-0.08,-0.05,0.98,0,-0,-0,0.1,0,,,,,,,
3168,0,,,,-0.04,-0.05,0.99,0,0,-0,0.07,0,,,,,,,
3173,0,,,,-0.02,-0.05,0.96,0,0,-0,0.05,0,,,,,,,
3178,0,,,,-0.03,-0.04,0.94,0,-0,-0,0.05,0,,,,,,,
3183,0,,,,-0.06,-0.06,0.99,0,0,-0,0.09,0,,,,,,,
3188,0,,,,-0.09,-0.06,0.98,0,1,-0,0.1,0,,,,,,,
3193,0,,,,-0.09,-0.06,0.95,0,-0,-0,0.11,0,,,,,,,
3198,0,,,,-0.05,-0.04,1.01,0,-0,-0,0.07,0,,,,,,,
3203,0,2.77,3.328,,-0.03,-0.03,1.0,0,0,-0,0.04,0,,,,,,,
3208,0,,,,-0.02,-0.03,0.94,0,0,-0,0.03,0,,,,,,,
3213,0,,,,-0.02,-0.04,0.97,0,-0,-0,0.04,0,,,,,,,
3218,0,,,,-0.04,-0.04,1.02,0,0,-0,0.05,0,,,,,,,
3223,0,,,,-0.07,-0.04,0.98,0,0,-0,0.08,0,,,,,,,
3228,0,,,,-0.07,-0.04,0.98,0,-0,-0,0.08,0,,,,,,,
3233,0,,,,-0.04,-0.03,1.02,0,-0,-0,0.05,0,,,,,,,
3238,0,,,,-0.03,-0.03,1.02,0,0,-0,0.04,0,,,,,,,
3243,0,2.78,3.218,,-0.01,-0.02,0.98,0,-0,-0,0.02,0,0.0,0.0,0.0,0.0,0,0,0.0
3248,0,,,,-0.02,-0.03,1.0,0,-0,-0,0.03,0,,,,,,,
3253,0,,,,-0.06,-0.04,1.03,0,0,-0,0.07,0,,,,,,,
3258,0,,,,-0.09,-0.03,1.0,0,0,-0,0.1,0,,,,,,,
3263,0,,,,-0.08,-0.03,1.0,0,-0,-0,0.08,0,,,,,,,
3268,0,,,,-0.03,-0.03,1.04,0,-0,-0,0.05,0,,,,,,,
3273,0,,,,-0.01,-0.04,1.0,0,0,-0,0.04,0,,,,,,,
3278,0,,,,-0.02,-0.03,0.98,0,-0,-0,0.04,0,,,,,,,
3283,0,2.81,2.812,,-0.05,-0.04,1.04,0,0,-0,0.06,0,,,,,,,
3288,0,,,,-0.07,-0.04,1.03,0,0,-0,0.08,0,,,,,,,
3293,0,,,,-0.07,-0.03,0.99,0,0,-0,0.08,0,,,,,,,
3298,0,,,,-0.07,-0.03,1.0,0,-0,-0,0.07,0,,,,,,,
3303,0,,,,-0.03,-0.03,1.03,0,0,-0,0.04,0,,,,,,,
3308,0,,,,-0.01,-0.03,0.99,0,0,-0,0.03,0,,,,,,,
3313,0,,,,-0.0,-0.02,0.97,0,-0,-0,0.02,0,,,,,,,
3318,0,,,,-0.02,-0.03,1.01,0,0,-0,0.04,0,,,,,,,
3323,0,2.79,2.241,,-0.05,-0.04,0.99,0,1,-0,0.06,0,,,,,,,
3328,0,,,,-0.06,-0.03,0.95,0,0,-0,0.07,0,,,,,,,
3333,0,,,,-0.03,-0.03,1.0,0,-0,-0,0.04,0,,,,,,,
3338,0,,,,-0.02,-0.02,1.03,0,0,-0,0.02,0,,,,,,,
3343,0,,,,0.01,-0.03,0.95,0,0,-0,0.03,0,0.0,0.0,0.0,0.0,0,0,0.0
3348,0,,,,0.01,-0.05,0.95,0,-0,-0,0.05,0,,,,,,,
3353,0,,,,0.0,-0.06,1.0,0,0,-0,0.06,0,,,,,,,
3358,0,,,,-0.04,-0.06,0.98,1,1,-0,0.07,0,,,,,,,
3363,0,2.77,2.746,,-0.04,-0.07,0.94,1,-0,0,0.08,0,,,,,,,
3368,0,,,,-0.02,-0.05,1.0,0,-0,0,0.06,0,,,,,,,
3373,0,,,,0.01,-0.04,1.02,0,0,-0,0.04,0,,,,,,,
3378,0,,,,0.03,-0.03,0.98,0,0,-0,0.04,0,,,,,,,
3383,0,,,,0.02,-0.03,0.98,0,-0,-0,0.03,0,,,,,,,
3388,0,,,,-0.02,-0.04,1.03,0,0,-0,0.04,0,,,,,,,
3393,0,,,,-0.06,-0.04,0.99,1,1,-0,0.07,0,,,,,,,
3398,0,,,,-0.06,-0.04,0.98,1,-0,0,0.07,0,,,,,,,
3403,0,2.78,3.263,,-0.02,-0.03,1.03,0,-0,-0,0.04,0,,,,,,,
3408,0,,,,-0.0,-0.02,1.0,0,0,-0,0.02,0,,,,,,,
3413,0,,,,0.0,-0.01,0.95,0,-0,-0,0.01,0,,,,,,,
3418,0,,,,-0.02,-0.02,1.02,0,-0,-0,0.03,0,,,,,,,
3423,0,,,,-0.04,-0.02,1.04,0,0,-0,0.05,0,,,,,,,
3428,0,,,,-0.07,-0.01,0.99,0,0,-0,0.07,0,,,,,,,
3433,0,,,,-0.07,-0.03,1.01,0,-0,-0,0.08,0,,,,,,,
3438,0,,,,-0.03,-0.03,1.04,0,-0,-0,0.04,0,,,,,,,
3443,0,2.82,3.161,,-0.01,-0.03,1.02,0,0,-0,0.04,0,0.0,0.0,0.0,0.0,0,0,0.0
3448,0,,,,-0.01,-0.02,0.99,0,-0,-0,0.02,0,,,,,,,
3453,0,,,,-0.01,-0.03,1.01,0,-0,-0,0.03,0,,,,,,,
3458,0,,,,-0.06,-0.04,1.02,0,1,-0,0.07,0,,,,,,,
3463,0,,,,-0.08,-0.03,0.97,0,0,-0,0.08,0,,,,,,,
3468,0,,,,-0.05,-0.03,1.0,0,-1,-0,0.06,0,,,,,,,
3473,0,,,,-0.02,-0.03,1.03,0,0,-0,0.03,0,,,,,,,
3478,0,,,,0.0,-0.03,0.97,0,0,-0,0.03,0,,,,,,,
3483,0,2.8,3.003,,-0.0,-0.03,0.96,0,-0,-0,0.03,0,,,,,,,
3488,0,,,,-0.02,-0.04,1.02,0,0,-0,0.05,0,,,,,,,
3493,0,,,,-0.06,-0.04,0.99,0,1,-0,0.07,0,,,,,,,
3498,0,,,,-0.06,-0.04,0.96,0,0,-0,0.07,0,,,,,,,
3503,0,,,,-0.04,-0.03,1.01,0,-0,-0,0.05,0,,,,,,,
3508,0,,,,-0.01,-0.03,1.01,0,0,-0,0.03,0,,,,,,,
3513,0,,,,0.01,-0.03,0.97,0,0,-0,0.03,0,,,,,,,
3518,0,,,,0.01,-0.03,0.96,0,-0,-0,0.03,0,,,,,,,
3523,0,2.79,3.439,,-0.04,-0.04,1.01,0,0,-0,0.05,0,,,,,,,
3528,0,,,,-0.08,-0.04,0.97,0,1,-0,0.09,0,,,,,,,
3533,0,,,,-0.08,-0.05,0.95,0,-0,-0,0.09,0,,,,,,,
3538,0,,,,-0.03,-0.04,1.01,0,-0,-0,0.05,0,,,,,,,
3543,0,,,,-0.01,-0.03,0.98,0,0,-0,0.03,0,0.0,0.0,0.0,0.0,0,0,0.0
3548,0,,,,-0.0,-0.02,0.94,0,-0,-0,0.02,0,,,,,,,
3553,0,,,,-0.03,-0.03,1.0,0,-0,-0,0.04,0,,,,,,,
3558,0,,,,-0.05,-0.02,1.02,0,0,-0,0.05,0,,,,,,,
3563,0,2.79,3.298,,-0.08,-0.02,0.99,0,0,-0,0.08,0,,,,,,,
3568,0,,,,-0.07,-0.03,0.99,0,-0,-0,0.08,0,,,,,,,
3573,0,,,,-0.03,-0.03,1.03,0,-0,-0,0.04,0,,,,,,,
3578,0,,,,-0.01,-0.03,1.01,0,0,-0,0.03,0,,,,,,,
3583,0,,,,-0.0,-0.01,0.99,0,-0,-0,0.01,0,,,,,,,
3588,0,,,,-0.01,-0.03,1.02,0,-0,-0,0.03,0,,,,,,,
3593,0,,,,-0.06,-0.03,1.03,0,1,-0,0.07,0,,,,,,,
3598,0,,,,-0.09,-0.02,0.99,0,0,-0,0.09,0,,,,,,,
3603,0,2.81,3.587,,-0.07,-0.03,1.02,0,-1,-0,0.07,0,,,,,,,
3608,0,,,,-0.04,-0.03,1.05,0,0,-0,0.05,0,,,,,,,
3613,0,,,,-0.02,-0.04,0.98,0,0,-0,0.04,0,,,,,,,
3618,0,,,,-0.01,-0.04,0.97,0,-0,-0,0.05,0,,,,,,,
3623,0,,,,-0.03,-0.05,1.02,0,0,-0,0.06,0,,,,,,,
3628,0,,,,-0.07,-0.04,0.99,0,1,-0,0.08,0,,,,,,,
3633,0,,,,-0.07,-0.04,0.95,0,-0,-0,0.08,0,,,,,,,
3638,0,,,,-0.04,-0.04,1.0,0,-0,-0,0.06,0,,,,,,,
3643,0,2.75,3.671,,-0.01,-0.04,1.0,0,0,-0,0.04,0,0.0,0.0,0.0,0.0,0,0,0.0
3648,0,,,,0.01,-0.04,0.98,0,0,-0,0.04,0,,,,,,,
3653,0,,,,-0.0,-0.04,0.97,0,-0,-0,0.04,0,,,,,,,
3658,0,,,,-0.04,-0.05,1.02,0,0,-0,0.06,0,,,,,,,
3663,0,,,,-0.07,-0.05,0.97,0,1,-0,0.09,0,,,,,,,
3668,0,,,,-0.06,-0.04,0.97,0,-0,-0,0.07,0,,,,,,,
3673,0,,,,-0.02,-0.04,1.02,0,-0,-0,0.04,0,,,,,,,
3678,0,,,,0.01,-0.03,0.97,0,0,-0,0.04,0,,,,,,,
3683,0,2.8,3.717,,0.01,-0.03,0.92,0,-0,-0,0.03,0,,,,,,,
3688,0,,,,-0.01,-0.03,0.99,0,-0,-0,0.03,0,,,,,,,
3693,0,,,,-0.04,-0.03,1.0,0,0,-0,0.05,0,,,,,,,
3698,0,,,,-0.06,-0.03,0.95,0,0,-0,0.06,0,,,,,,,
3703,0,,,,-0.07,-0.03,0.98,0,-1,-0,0.07,0,,,,,,,
3708,0,,,,-0.01,-0.03,1.01,0,-0,-0,0.03,0,,,,,,,
3713,0,,,,0.01,-0.03,0.97,0,-0,-0,0.03,0,,,,,,,
3718,0,,,,0.03,-0.01,0.94,0,-0,-0,0.03,0,,,,,,,
3723,0,2.79,3.894,,0.01,-0.03,0.99,0,-0,-0,0.03,0,,,,,,,
3728,0,,,,-0.04,-0.04,0.98,0,0,-0,0.05,0,,,,,,,
3733,0,,,,-0.06,-0.03,0.94,0,-0,-0,0.06,0,,,,,,,
3738,0,,,,-0.03,-0.03,0.99,0,-1,-0,0.04,0,,,,,,,
3743,0,,,,0.01,-0.02,1.01,0,-0,-0,0.02,0,0.0,0.0,0.0,0.0,0,0,0.0
3748,0,,,,0.02,-0.02,0.94,0,-0,-0,0.03,0,,,,,,,
3753,0,,,,0.02,-0.03,0.97,0,-0,-0,0.04,0,,,,,,,
3758,0,,,,-0.0,-0.03,1.01,0,0,-0,0.03,0,,,,,,,
3763,0,2.79,3.705,,-0.04,-0.03,0.98,0,1,-0,0.05,0,,,,,,,
3768,0,,,,-0.05,-0.03,0.95,0,-0,-0,0.06,0,,,,,,,
3773,0,,,,-0.01,-0.03,1.01,0,-0,-0,0.03,0,,,,,,,
3778,0,,,,0.02,-0.03,1.0,0,0,-0,0.04,0,,,,,,,
3783,0,,,,0.03,-0.02,0.96,0,-0,-0,0.04,0,,,,,,,
3788,0,,,,0.02,-0.03,0.98,0,-0,-0,0.04,0,,,,,,,
3793,0,,,,-0.03,-0.05,1.01,0,0,-0,0.05,0,,,,,,,
3798,0,,,,-0.07,-0.04,0.97,0,0,-0,0.08,0,,,,,,,
3803,0,2.78,3.441,,-0.05,-0.05,0.98,0,-0,-0,0.07,0,,,,,,,
3808,0,,,,-0.01,-0.05,1.02,0,-0,-0,0.05,0,,,,,,,
3813,0,,,,0.01,-0.05,0.96,0,0,-0,0.05,0,,,,,,,
3818,0,,,,0.02,-0.04,0.93,0,-0,-0,0.05,0,,,,,,,
3823,0,,,,-0.01,-0.04,1.02,0,0,-0,0.04,0,,,,,,,
3828,0,,,,-0.04,-0.04,1.0,0,1,-0,0.05,0,,,,,,,
3833,0,,,,-0.06,-0.03,0.98,0,0,-0,0.07,0,,,,,,,
3838,0,,,,-0.05,-0.04,1.01,0,-0,-0,0.06,0,,,,,,,
3843,0,2.79,3.262,,-0.01,-0.04,1.04,0,0,-0,0.04,0,0.0,0.0,0.0,0.0,0,0,0.0
3848,0,,,,0.01,-0.04,0.99,0,0,-0,0.04,0,,,,,,,
3853,0,,,,0.01,-0.04,0.98,0,-0,-0,0.04,0,,,,,,,
3858,0,,,,-0.02,-0.04,1.03,0,0,-0,0.05,0,,,,,,,
3863,0,,,,-0.07,-0.04,0.99,0,1,-0,0.08,0,,,,,,,
3868,0,,,,-0.06,-0.05,0.96,0,-0,-0,0.08,0,,,,,,,
3873,0,,,,-0.03,-0.04,1.02,0,-0,-0,0.05,0,,,,,,,
3878,0,,,,0.0,-0.03,1.0,0,0,-0,0.03,0,,,,,,,
3883,0,2.74,3.082,,0.01,-0.03,0.93,0,-0,-0,0.03,0,,,,,,,
3888,0,,,,-0.02,-0.03,0.99,0,-0,-0,0.04,0,,,,,,,
3893,0,,,,-0.04,-0.04,1.02,0,1,-0,0.06,0,,,,,,,
3898,0,,,,-0.07,-0.04,0.97,0,1,-0,0.08,0,,,,,,,
3903,0,,,,-0.08,-0.05,0.97,0,-0,-0,0.09,0,,,,,,,
3908,0,,,,-0.03,-0.05,1.01,0,0,-0,0.06,0,,,,,,,
3913,0,,,,-0.0,-0.05,0.99,0,0,-0,0.05,0,,,,,,,
3918,0,,,,0.0,-0.03,0.95,0,0,-0,0.03,0,,,,,,,
3923,0,2.79,2.56,,-0.01,-0.04,1.0,0,0,-0,0.04,0,,,,,,,
3928,0,,,,-0.06,-0.05,0.98,0,1,-0,0.07,0,,,,,,,
3933,0,,,,-0.09,-0.04,0.95,1,0,-0,0.1,0,,,,,,,
3938,0,,,,-0.06,-0.04,0.98,0,-0,-0,0.07,0,,,,,,,
3943,0,,,,-0.03,-0.03,1.01,1,0,-0,0.04,0,0.0,0.0,0.0,0.0,0,0,0.0
3948,0,,,,-0.01,-0.04,0.94,1,0,-0,0.04,0,,,,,,,
3953,0,,,,-0.02,-0.04,0.95,1,-0,0,0.04,0,,,,,,,
3958,0,,,,-0.03,-0.04,1.01,1,1,0,0.06,0,,,,,,,
3963,0,2.79,1.042,,-0.08,-0.04,0.98,1,1,0,0.09,0,,,,,,,
3968,0,,,,-0.08,-0.04,0.94,0,-0,0,0.09,0,,,,,,,
3973,0,,,,-0.05,-0.04,1.01,0,-0,0,0.06,0,,,,,,,
3978,0,,,,-0.01,-0.03,1.01,0,0,-0,0.03,0,,,,,,,
3983,0,,,,-0.0,-0.02,0.98,0,-0,-0,0.02,0,,,,,,,
3988,0,,,,-0.01,-0.02,0.99,0,-0,0,0.02,0,,,,,,,
3993,0,,,,-0.05,-0.03,1.03,0,0,-0,0.06,0,,,,,,,
3998,0,,,,-0.09,-0.03,0.98,0,0,-0,0.09,0,,,,,,,
4003,0,2.77,0.716,,-0.08,-0.03,0.99,0,-0,0,0.09,0,,,,,,,
4008,0,,,,-0.04,-0.03,1.04,0,-0,-0,0.04,0,,,,,,,
4013,0,,,,-0.0,-0.03,0.99,0,0,-0,0.03,0,,,,,,,
4018,0,,,,0.0,-0.01,0.94,0,-0,-0,0.01,0,,,,,,,
4023,0,,,,-0.01,-0.0,1.01,0,0,-0,0.01,0,,,,,,,
4028,0,,,,-0.04,-0.01,1.0,0,1,-0,0.04,0,,,,,,,
4033,0,,,,-0.06,-0.01,0.95,0,0,-0,0.06,0,,,,,,,
4038,0,,,,-0.06,-0.02,0.99,0,-0,-0,0.06,0,,,,,,,
4043,0,2.76,0.778,13.32,-0.01,-0.02,1.02,0,0,-0,0.02,0,0.0,0.0,0.0,0.0,0,0,0.0
4048,0,,,,0.02,-0.02,0.97,0,0,-0,0.03,0,,,,,,,
4053,0,,,,0.02,-0.01,0.95,0,-0,0,0.02,0,,,,,,,
4058,0,,,,-0.01,-0.02,1.0,0,0,-0,0.03,0,,,,,,,
4063,0,,,,-0.06,-0.02,0.99,0,1,-0,0.06,0,,,,,,,
4068,0,,,,-0.06,-0.02,0.96,0,-0,-0,0.06,0,,,,,,,
4073,0,,,,-0.03,-0.02,1.02,0,-0,-0,0.03,0,,,,,,,
4078,0,,,,0.01,-0.01,1.02,0,0,-0,0.02,0,,,,,,,
4083,0,2.8,0.004,,0.02,-0.02,0.96,0,-0,-0,0.02,0,,,,,,,
4088,0,,,,0.0,-0.02,1.02,0,-0,-0,0.02,0,,,,,,,
4093,0,,,,-0.02,-0.04,1.05,0,1,-0,0.04,0,,,,,,,
4098,0,,,,-0.06,-0.03,0.97,0,1,-0,0.07,0,,,,,,,
4103,0,,,,-0.08,-0.04,0.96,0,-0,-0,0.09,0,,,,,,,
4108,0,,,,-0.03,-0.04,1.0,0,-0,-0,0.05,0,,,,,,,
4113,0,,,,-0.02,-0.04,0.97,0,0,-0,0.04,0,,,,,,,
4118,0,,,,-0.01,-0.03,0.93,0,-0,-0,0.03,0,,,,,,,
4123,0,2.76,0.398,,-0.02,-0.03,0.98,0,-0,-0,0.04,0,,,,,,,
4128,0,,,,-0.07,-0.03,0.98,0,0,-0,0.08,0,,,,,,,
4133,0,,,,-0.09,-0.03,0.94,0,-0,-0,0.09,0,,,,,,,
4138,0,,,,-0.06,-0.03,0.97,0,-1,-0,0.07,0,,,,,,,
4143,0,,,,-0.02,-0.03,1.02,0,-0,-0,0.03,0,0.0,0.0,0.0,0.0,0,0,0.0
4148,0,,,,0.01,-0.02,0.95,0,-0,-0,0.02,0,,,,,,,
4153,0,,,,0.01,-0.02,0.94,0,-1,-0,0.02,0,,,,,,,
4158,0,,,,-0.0,-0.03,1.02,0,-0,-0,0.03,0,,,,,,,
4163,0,2.8,1.104,,-0.04,-0.03,0.98,0,0,-0,0.05,0,,,,,,,
4168,0,,,,-0.05,-0.02,0.95,0,-0,-0,0.05,0,,,,,,,
4173,0,,,,-0.02,-0.02,1.01,0,-1,-0,0.03,0,,,,,,,
4178,0,,,,0.02,-0.02,1.01,0,-0,-0,0.03,0,,,,,,,
4183,0,,,,0.04,-0.02,0.98,0,-0,-1,0.04,0,,,,,,,
4188,0,,,,0.03,-0.02,0.99,0,-0,-0,0.04,0,,,,,,,
4193,0,,,,-0.01,-0.03,1.03,0,1,-0,0.04,0,,,,,,,
4198,0,,,,-0.07,-0.03,0.98,0,1,-0,0.08,0,,,,,,,
4203,0,2.81,0.928,,-0.06,-0.04,0.99,0,0,-0,0.08,0,,,,,,,
4208,0,,,,-0.02,-0.03,1.04,0,0,-0,0.04,0,,,,,,,
4213,0,,,,0.01,-0.02,0.99,0,1,-1,0.02,0,,,,,,,
4218,0,,,,0.01,-0.02,0.95,0,0,-0,0.02,0,,,,,,,
4223,0,,,,-0.01,-0.03,1.02,0,1,-0,0.03,0,,,,,,,
4228,0,,,,-0.05,-0.03,1.0,0,1,-0,0.06,0,,,,,,,
4233,0,,,,-0.07,-0.02,0.95,0,1,-0,0.07,0,,,,,,,
4238,0,,,,-0.08,-0.02,1.0,0,0,-0,0.09,0,,,,,,,
4243,0,2.78,0.855,,-0.02,-0.03,1.02,0,1,-0,0.04,0,0.0,0.0,0.0,0.0,0,0,0.0
4248,0,,,,-0.0,-0.03,0.97,0,1,-0,0.03,0,,,,,,,
4253,0,,,,-0.01,-0.03,0.95,0,0,-0,0.03,0,,,,,,,
4258,0,,,,-0.04,-0.05,1.0,0,1,-0,0.06,0,,,,,,,
4263,0,,,,-0.09,-0.05,0.97,1,1,-0,0.1,0,,,,,,,
4268,0,,,,-0.09,-0.05,0.95,1,0,-0,0.1,0,,,,,,,
4273,0,,,,-0.05,-0.04,1.0,0,0,-0,0.07,0,,,,,,,
4278,0,,,,-0.02,-0.03,0.98,1,1,-0,0.04,0,,,,,,,
4283,0,2.77,0.383,,-0.02,-0.03,0.93,1,0,-0,0.04,0,,,,,,,
4288,0,,,,-0.04,-0.04,0.99,1,0,-0,0.06,0,,,,,,,
4293,0,,,,-0.07,-0.05,1.02,1,1,-0,0.09,0,,,,,,,
4298,0,,,,-0.1,-0.05,0.96,1,0,-0,0.12,0,,,,,,,
4303,0,,,,-0.12,-0.04,0.98,0,-0,-0,0.12,0,,,,,,,
4308,0,,,,-0.05,-0.05,1.01,1,0,-0,0.07,0,,,,,,,
4313,0,,,,-0.03,-0.04,0.98,1,0,-0,0.05,0,,,,,,,
4318,0,,,,-0.02,-0.03,0.95,0,-0,-0,0.03,0,,,,,,,
4323,0,2.78,1.209,,-0.04,-0.04,1.0,0,0,-0,0.06,0,,,,,,,
4328,0,,,,-0.09,-0.04,0.98,0,1,-0,0.1,0,,,,,,,
4333,0,,,,-0.11,-0.03,0.95,0,0,-0,0.11,0,,,,,,,
4338,0,,,,-0.07,-0.03,1.0,0,-0,-0,0.08,0,,,,,,,
4343,0,,,,-0.05,-0.03,1.01,0,0,-0,0.05,0,0.0,0.0,0.0,0.0,0,0,0.0
4348,0,,,,-0.03,-0.03,0.94,0,-0,-0,0.04,0,,,,,,,
4353,0,,,,-0.03,-0.03,0.97,0,-0,-0,0.05,0,,,,,,,
4358,0,,,,-0.05,-0.04,1.01,0,0,-0,0.06,0,,,,,,,
4363,0,2.8,1.268,,-0.09,-0.04,0.98,0,0,-0,0.09,0,,,,,,,
4368,0,,,,-0.09,-0.04,0.97,0,-0,-0,0.1,0,,,,,,,
4373,0,,,,-0.04,-0.04,1.02,0,-0,-0,0.06,0,,,,,,,
4378,0,,,,-0.01,-0.04,1.02,0,0,-0,0.04,0,,,,,,,
4383,0,,,,0.0,-0.02,0.97,0,-0,-0,0.02,0,,,,,,,
4388,0,,,,-0.01,-0.03,1.0,0,-0,-0,0.03,0,,,,,,,
4393,0,,,,-0.06,-0.04,1.03,0,0,-0,0.07,0,,,,,,,
4398,0,,,,-0.09,-0.03,0.98,0,0,0,0.09,0,,,,,,,
4403,0,2.79,1.511,,-0.07,-0.04,1.01,0,-1,0,0.08,0,,,,,,,
4408,0,,,,-0.02,-0.04,1.05,0,-0,-0,0.05,0,,,,,,,
4413,0,,,,0.0,-0.04,0.99,0,0,-0,0.04,0,,,,,,,
4418,0,,,,0.01,-0.03,0.97,0,-0,-0,0.03,0,,,,,,,
4423,0,,,,-0.0,-0.03,1.03,0,0,-0,0.03,0,,,,,,,
4428,0,,,,-0.04,-0.03,0.99,0,1,-0,0.05,0,,,,,,,
4433,0,,,,-0.05,-0.03,0.95,0,-0,-0,0.06,0,,,,,,,
4438,0,,,,-0.04,-0.03,1.01,0,-0,-0,0.05,0,,,,,,,
4443,0,2.77,1.941,,0.01,-0.02,1.0,0,0,-0,0.02,0,0.0,0.0,0.0,0.0,0,0,0.0
4603,0,2.78,1.961,,-0.03,-0.04,1.01,0,-0,-0,0.05,0,,,,,,,
4608,0,,,,0.01,-0.03,1.0,0,0,-0,0.03,0,,,,,,,
4613,0,,,,0.02,-0.04,0.94,0,0,-0,0.04,0,,,,,,,
4618,0,,,,0.0,-0.04,1.0,0,0,-0,0.04,0,,,,,,,
4623,0,,,,-0.03,-0.06,1.03,0,1,-0,0.07,0,,,,,,,
4628,0,,,,-0.06,-0.05,0.98,0,0,-0,0.08,0,,,,,,,
4633,0,,,,-0.08,-0.05,0.98,0,-0,-0,0.09,0,,,,,,,
4638,0,,,,-0.02,-0.06,1.02,0,0,-0,0.07,0,,,,,,,
4643,0,2.77,1.579,,0.0,-0.06,1.0,0,0,-0,0.06,0,0.0,0.0,0.0,0.0,0,0,0.0
4648,0,,,,0.01,-0.05,0.96,0,-0,-0,0.06,0,,,,,,,
4653,0,,,,-0.01,-0.06,1.01,0,0,-0,0.06,0,,,,,,,
4658,0,,,,-0.06,-0.06,1.0,0,1,-0,0.08,0,,,,,,,
4663,0,,,,-0.08,-0.05,0.96,0,0,-0,0.1,0,,,,,,,
4668,0,,,,-0.06,-0.05,1.0,0,-0,-0,0.08,0,,,,,,,
4673,0,,,,-0.03,-0.03,1.01,0,0,-0,0.05,0,,,,,,,
4678,0,,,,-0.01,-0.04,0.92,0,-0,-0,0.04,0,,,,,,,
4683,0,2.79,0.899,,-0.01,-0.04,0.93,0,-0,-0,0.04,0,,,,,,,
4688,0,,,,-0.02,-0.03,0.98,0,0,-0,0.04,0,,,,,,,
4693,0,,,,-0.06,-0.04,0.95,0,0,-0,0.07,0,,,,,,,
4698,0,,,,-0.07,-0.04,0.92,0,-0,-0,0.08,0,,,,,,,
4798,0,,,,-0.08,-0.03,0.96,0,-0,-0,0.08,0,,,,,,,
4803,0,2.75,1.761,,-0.04,-0.02,1.01,0,-0,-0,0.05,0,,,,,,,
4808,0,,,,-0.01,-0.02,0.98,0,0,-0,0.03,0,,,,,,,
4813,0,,,,-0.0,-0.01,0.93,0,-1,-0,0.01,0,,,,,,,
4818,0,,,,-0.01,-0.03,0.99,0,-0,-0,0.03,0,,,,,,,
4823,0,,,,-0.04,-0.03,1.01,0,0,-0,0.05,0,,,,,,,
4828,0,,,,-0.07,-0.03,0.96,0,0,-0,0.08,0,,,,,,,
4833,0,,,,-0.08,-0.02,0.98,0,-1,-0,0.09,0,,,,,,,
4838,0,,,,-0.02,-0.03,1.01,0,-0,-0,0.04,0,,,,,,,
4843,0,2.74,1.642,,0.01,-0.04,0.97,0,-0,-0,0.04,0,0.0,0.0,0.0,0.0,0,0,0.0
4943,0,,,,0.03,-0.01,0.91,0,-0,-0,0.03,0,0.0,0.0,0.0,0.0,0,0,0.0
4948,0,,,,0.03,-0.02,0.95,0,-1,-0,0.03,0,,,,,,,
4953,0,,,,0.01,-0.02,0.99,0,0,-0,0.03,0,,,,,,,
4958,0,,,,-0.03,-0.03,0.95,0,1,-0,0.04,0,,,,,,,
4963,0,2.76,1.799,,-0.04,-0.02,0.94,0,-0,-0,0.05,0,,,,,,,
4968,0,,,,0.01,-0.03,1.0,0,-0,-0,0.03,0,,,,,,,
4973,0,,,,0.03,-0.02,0.98,0,-0,-1,0.04,0,,,,,,,
4978,0,,,,0.04,-0.02,0.94,0,-0,-1,0.05,0,,,,,,,
4983,0,,,,0.03,-0.02,0.98,0,-0,-0,0.04,0,,,,,,,
4988,0,,,,-0.02,-0.03,0.99,0,1,-0,0.03,0,,,,,,,
5088,0,,,,-0.03,-0.02,1.01,0,1,-0,0.04,0,,,,,,,
5093,0,,,,-0.06,-0.02,0.95,0,1,-0,0.06,0,,,,,,,
5098,0,,,,-0.07,-0.02,1.0,0,-0,-0,0.07,0,,,,,,,
5103,0,,,,-0.01,-0.03,1.01,0,0,-0,0.03,0,,,,,,,
5108,0,,,,0.01,-0.03,0.97,0,0,-0,0.03,0,,,,,,,
5113,0,,,,0.02,-0.02,0.95,0,-0,-0,0.03,0,,,,,,,
5118,0,,,,-0.01,-0.04,1.0,0,0,-0,0.04,0,,,,,,,
5123,0,2.78,1.922,,-0.06,-0.04,0.99,0,1,-0,0.07,0,,,,,,,
5128,0,,,,-0.08,-0.04,0.95,0,0,-0,0.09,0,,,,,,,
5133,0,,,,-0.05,-0.03,1.0,0,-0,-0,0.06,0,,,,,,,
5233,0,,,,-0.05,-0.03,1.01,0,-0,-0,0.06,0,,,,,,,
5238,0,,,,-0.01,-0.02,1.02,0,0,-0,0.02,0,,,,,,,
5243,0,2.73,2.525,,0.01,-0.02,1.0,0,0,-0,0.02,0,0.0,0.0,0.0,0.0,0,0,0.0
5248,0,,,,0.0,-0.02,0.99,0,-0,-0,0.02,0,,,,,,,
5253,0,,,,-0.04,-0.03,1.03,0,0,-0,0.05,0,,,,,,,
5258,0,,,,-0.07,-0.04,0.98,0,1,-0,0.08,0,,,,,,,
5263,0,,,,-0.07,-0.04,0.96,0,0,-0,0.08,0,,,,,,,
5268,0,,,,-0.03,-0.03,1.02,0,-0,-0,0.04,0,,,,,,,
5273,0,,,,0.01,-0.02,0.98,0,0,-0,0.02,0,,,,,,,
5278,0,,,,0.01,-0.02,0.93,0,-0,-0,0.02,0,,,,,,,
5283,0,2.78,2.578,,-0.01,-0.01,1.0,0,-0,-0,0.02,0,,,,,,,
5383,0,,,,-0.01,-0.02,1.01,0,-0,-0,0.02,0,,,,,,,
5388,0,,,,-0.05,-0.02,1.03,0,0,-0,0.05,0,,,,,,,
5393,0,,,,-0.09,-0.02,0.99,0,0,-0,0.09,0,,,,,,,
5398,0,,,,-0.07,-0.03,1.0,0,-0,0,0.08,0,,,,,,,
5403,0,2.78,1.713,,-0.04,-0.03,1.04,0,-0,-0,0.05,0,,,,,,,
5408,0,,,,-0.01,-0.02,0.99,0,0,-0,0.03,0,,,,,,,
5413,0,,,,-0.0,-0.02,0.95,0,-0,-0,0.02,0,,,,,,,
5418,0,,,,-0.02,-0.02,1.04,0,-0,-0,0.03,0,,,,,,,
5423,0,,,,-0.05,-0.02,1.01,0,1,-0,0.05,0,,,,,,,
5428,0,,,,-0.06,-0.02,0.97,0,0,-0,0.07,0,,,,,,,
5433,0,,,,-0.06,-0.02,1.0,0,-0,-0,0.06,0,,,,,,,
5438,0,,,,-0.01,-0.03,1.04,0,0,-0,0.03,0,,,,,,,
5443,0,2.77,1.239,,0.01,-0.03,0.99,0,0,-0,0.03,0,0.0,0.0,0.0,0.0,0,0,0.0
5448,0,,,,0.01,-0.02,0.97,0,-0,0,0.02,0,,,,,,,
5453,0,,,,-0.02,-0.03,1.01,0,0,-0,0.04,0,,,,,,,
5458,0,,,,-0.07,-0.04,0.99,0,1,-0,0.08,0,,,,,,,
5463,0,,,,-0.06,-0.04,0.95,0,0,-0,0.07,0,,,,,,,
5468,0,,,,-0.03,-0.03,1.0,0,-0,-0,0.04,0,,,,,,,
5473,0,,,,0.0,-0.03,0.99,0,0,-0,0.03,0,,,,,,,
5478,0,,,,0.01,-0.03,0.92,0,-0,-0,0.03,0,,,,,,,
5483,0,2.77,0.863,,-0.0,-0.03,0.98,0,-0,0,0.03,0,,,,,,,
5488,0,,,,-0.02,-0.04,1.01,0,0,0,0.04,0,,,,,,,
5493,0,,,,-0.06,-0.04,0.97,0,0,-0,0.07,0,,,,,,,
5498,0,,,,-0.06,-0.04,0.97,0,-0,-0,0.08,0,,,,,,,
5503,0,,,,-0.02,-0.04,1.01,0,-0,-0,0.04,0,,,,,,,
5508,0,,,,0.01,-0.03,1.0,0,-0,-0,0.03,0,,,,,,,
5513,0,,,,0.02,-0.02,0.96,0,-0,-0,0.02,0,,,,,,,
5518,0,,,,0.01,-0.03,1.0,0,-0,-0,0.03,0,,,,,,,
5523,0,2.76,0.838,,-0.04,-0.04,1.0,0,0,-0,0.05,0,,,,,,,
5528,0,,,,-0.06,-0.03,0.98,0,0,-0,0.07,0,,,,,,,
5533,0,,,,-0.05,-0.03,1.0,0,-0,0,0.06,0,,,,,,,
5538,0,,,,-0.02,-0.03,1.04,1,0,0,0.04,0,,,,,,,
5543,0,,,,0.0,-0.03,0.97,1,0,-0,0.03,0,0.0,0.0,0.0,0.0,0,0,0.0
5548,0,,,,-0.0,-0.03,0.96,0,-0,-0,0.03,0,,,,,,,
5553,0,,,,-0.02,-0.03,1.03,0,1,-0,0.04,0,,,,,,,
5558,0,,,,-0.05,-0.03,1.0,0,1,-0,0.06,0,,,,,,,
5563,0,2.78,1.246,,-0.08,-0.02,0.96,0,0,-0,0.08,0,,,,,,,
5568,0,,,,-0.05,-0.02,1.01,0,-0,-0,0.05,0,,,,,,,
5573,0,,,,-0.01,-0.01,1.01,0,0,-0,0.02,0,,,,,,,
5578,0,,,,-0.0,-0.01,0.97,0,0,-0,0.01,0,,,,,,,
5583,0,,,,-0.0,-0.01,0.96,0,0,-0,0.01,0,,,,,,,
5588,0,,,,-0.04,-0.02,1.01,0,1,-0,0.05,0,,,,,,,
5593,0,,,,-0.09,-0.03,0.96,0,1,-0,0.09,0,,,,,,,
5598,0,,,,-0.09,-0.03,0.96,0,-0,-0,0.09,0,,,,,,,
5603,0,2.78,1.554,,-0.04,-0.02,1.0,0,-0,-0,0.05,0,,,,,,,
5608,0,,,,-0.01,-0.02,0.97,0,0,-0,0.02,0,,,,,,,
5613,0,,,,-0.0,-0.02,0.91,0,-0,-0,0.02,0,,,,,,,
5618,0,,,,-0.03,-0.02,0.99,0,-0,-0,0.03,0,,,,,,,
5623,0,,,,-0.05,-0.02,1.0,0,1,-0,0.05,0,,,,,,,
5628,0,,,,-0.07,-0.02,0.95,0,0,-0,0.07,0,,,,,,,
5633,0,,,,-0.07,-0.03,0.98,0,-0,-0,0.08,0,,,,,,,
5638,0,,,,-0.01,-0.03,1.01,0,-0,-0,0.03,0,,,,,,,
5643,0,2.72,1.752,,0.01,-0.03,0.98,0,0,-0,0.04,0,0.0,0.0,0.0,0.0,0,0,0.0
5648,0,,,,0.01,-0.02,0.95,0,-0,0,0.03,0,,,,,,,
5653,0,,,,-0.01,-0.04,1.01,0,0,-0,0.05,0,,,,,,,
5658,0,,,,-0.06,-0.04,1.01,0,1,-0,0.08,0,,,,,,,
5663,0,,,,-0.07,-0.04,0.96,0,0,-0,0.08,0,,,,,,,
5668,0,,,,-0.04,-0.04,1.01,0,-0,-0,0.06,0,,,,,,,
5673,0,,,,-0.01,-0.03,1.02,0,0,-0,0.03,0,,,,,,,
5678,0,,,,0.0,-0.04,0.95,0,0,-0,0.04,0,,,,,,,
5683,0,2.74,1.903,,-0.0,-0.05,0.98,0,-0,-0,0.05,0,,,,,,,
5688,0,,,,-0.02,-0.06,1.02,0,1,-0,0.06,0,,,,,,,
5693,0,,,,-0.07,-0.06,0.99,0,1,-0,0.09,0,,,,,,,
5698,0,,,,-0.08,-0.06,0.97,0,-0,-0,0.1,0,,,,,,,
5703,0,,,,-0.04,-0.06,1.04,0,-0,-0,0.07,0,,,,,,,
5708,0,,,,-0.01,-0.06,1.02,0,0,-0,0.06,0,,,,,,,
5713,0,,,,-0.0,-0.05,0.98,0,-0,-0,0.05,0,,,,,,,
5718,0,,,,-0.01,-0.05,1.0,0,-0,-0,0.06,0,,,,,,,
5723,0,2.78,1.429,,-0.05,-0.05,1.02,0,1,-0,0.08,0,,,,,,,
5728,0,,,,-0.08,-0.05,0.97,0,0,-0,0.1,0,,,,,,,
5733,0,,,,-0.06,-0.05,1.0,0,-1,-0,0.08,0,,,,,,,
5738,0,,,,-0.02,-0.06,1.03,0,-0,-0,0.06,0,,,,,,,
5743,0,,,,0.0,-0.05,0.97,0,-0,-0,0.05,0,0.0,0.0,0.0,0.0,0,0,0.0
5748,0,,,,0.01,-0.05,0.96,0,-1,-0,0.05,0,,,,,,,
5753,0,,,,-0.01,-0.05,1.03,0,0,-0,0.05,0,,,,,,,
5758,0,,,,-0.05,-0.05,1.0,0,1,-0,0.07,0,,,,,,,
5763,0,2.78,1.33,,-0.08,-0.04,0.97,0,-0,-0,0.09,0,,,,,,,
5768,0,,,,-0.05,-0.04,1.03,0,-0,-0,0.06,0,,,,,,,
5773,0,,,,-0.01,-0.03,1.03,0,0,-0,0.03,0,,,,,,,
5778,0,,,,0.01,-0.03,0.99,0,-0,-0,0.03,0,,,,,,,
5783,0,,,,0.01,-0.03,0.99,0,-0,-0,0.03,0,,,,,,,
5788,0,,,,-0.03,-0.05,1.02,0,0,-0,0.05,0,,,,,,,
5793,0,,,,-0.07,-0.05,0.97,0,1,-0,0.09,0,,,,,,,
5798,0,,,,-0.07,-0.04,0.97,0,-0,0,0.08,0,,,,,,,
5803,0,2.78,1.618,,-0.03,-0.03,1.02,0,-0,-0,0.04,0,,,,,,,
5808,0,,,,0.0,-0.03,0.98,0,0,-0,0.03,0,,,,,,,
5813,0,,,,0.01,-0.03,0.93,0,-0,-0,0.03,0,,,,,,,
5818,0,,,,-0.01,-0.02,1.01,0,0,-0,0.02,0,,,,,,,
5823,0,,,,-0.04,-0.03,0.99,0,1,-0,0.05,0,,,,,,,
5828,0,,,,-0.07,-0.03,0.95,0,0,-0,0.08,0,,,,,,,
5833,0,,,,-0.07,-0.03,0.99,0,-0,0,0.07,0,,,,,,,
5838,0,,,,-0.01,-0.02,1.01,0,0,-0,0.02,0,,,,,,,
5843,0,2.77,1.497,,0.02,-0.02,0.96,0,0,0,0.03,0,0.0,0.0,0.0,0.0,0,0,0.0
5848,0,,,,0.02,-0.01,0.95,0,0,0,0.03,0,,,,,,,
5853,0,,,,-0.01,-0.03,1.01,0,1,0,0.04,0,,,,,,,
5858,0,,,,-0.07,-0.03,0.98,0,1,-0,0.07,0,,,,,,,
5863,0,,,,-0.07,-0.03,0.95,0,0,-0,0.08,0,,,,,,,
5868,0,,,,-0.04,-0.02,1.0,0,-0,-0,0.04,0,,,,,,,
5873,0,,,,-0.0,-0.02,0.98,0,0,-0,0.02,0,,,,,,,
5878,0,,,,0.01,-0.02,0.91,0,-0,-0,0.02,0,,,,,,,
5883,0,2.78,1.183,,-0.01,-0.02,0.98,0,-0,-0,0.03,0,,,,,,,
5888,0,,,,-0.04,-0.03,1.01,0,1,-0,0.05,0,,,,,,,
5893,0,,,,-0.07,-0.03,0.95,0,0,-0,0.08,0,,,,,,,
5898,0,,,,-0.08,-0.03,0.98,0,-0,-0,0.08,0,,,,,,,
5903,0,,,,-0.03,-0.04,1.02,0,0,-0,0.05,0,,,,,,,
5908,0,,,,0.0,-0.04,0.99,0,0,-0,0.04,0,,,,,,,
5913,0,,,,0.01,-0.03,0.95,0,-0,-0,0.03,0,,,,,,,
5918,0,,,,-0.01,-0.04,1.0,0,0,-0,0.04,0,,,,,,,
5923,0,2.78,1.073,,-0.06,-0.05,1.0,0,1,-0,0.07,0,,,,,,,
5928,0,,,,-0.08,-0.03,0.95,0,0,-0,0.08,0,,,,,,,
5933,0,,,,-0.05,-0.03,1.0,0,-0,-0,0.06,0,,,,,,,
5938,0,,,,-0.01,-0.03,1.02,0,0,-0,0.03,0,,,,,,,
5943,0,,,,0.01,-0.04,0.95,0,0,-0,0.04,0,0.0,0.0,0.0,0.0,0,0,0.0
5948,0,,,,-0.0,-0.03,0.97,0,-0,-0,0.03,0,,,,,,,
5953,0,,,,-0.02,-0.04,1.02,0,0,-0,0.04,0,,,,,,,
5958,0,,,,-0.06,-0.04,0.99,0,1,-0,0.07,0,,,,,,,
5963,0,2.78,1.32,,-0.07,-0.03,0.96,0,-0,-0,0.08,0,,,,,,,
5968,0,,,,-0.03,-0.03,1.04,0,-0,-0,0.05,0,,,,,,,
5973,0,,,,-0.0,-0.03,1.02,0,0,-0,0.03,0,,,,,,,
5978,0,,,,0.01,-0.02,0.98,0,-0,-0,0.03,0,,,,,,,
5983,0,,,,0.01,-0.02,0.99,0,-0,-0,0.03,0,,,,,,,
5988,0,,,,-0.03,-0.03,1.02,0,0,-0,0.04,0,,,,,,,
5993,0,,,,-0.07,-0.03,0.97,0,0,-0,0.07,0,,,,,,,
5998,0,,,,-0.06,-0.04,0.99,0,-1,-0,0.07,0,,,,,,,
6003,0,2.78,1.79,,-0.02,-0.04,1.03,0,-0,-0,0.04,0,,,,,,,
6008,0,,,,0.01,-0.04,0.98,0,-0,-0,0.04,0,,,,,,,
6013,0,,,,0.01,-0.02,0.94,0,-0,-0,0.02,0,,,,,,,
6018,0,,,,-0.01,-0.02,1.03,0,0,-0,0.02,0,,,,,,,
6023,0,,,,-0.03,-0.02,1.0,0,1,-0,0.04,0,,,,,,,
6028,0,,,,-0.06,-0.02,0.95,0,-0,-0,0.06,0,,,,,,,
6033,0,,,,-0.04,-0.02,1.0,0,-1,-0,0.05,0,,,,,,,
6038,0,,,,-0.01,-0.01,1.03,0,0,-0,0.02,0,,,,,,,
6043,0,2.77,1.658,13.33,0.01,-0.01,0.98,0,-0,-0,0.02,0,0.0,0.0,0.0,0.0,0,0,0.0
6048,0,,,,0.01,-0.01,0.98,0,-0,-0,0.01,0,,,,,,,
6053,0,,,,-0.02,-0.02,1.02,0,0,-0,0.03,0,,,,,,,
6058,0,,,,-0.07,-0.03,0.98,0,0,-0,0.07,0,,,,,,,
6063,0,,,,-0.08,-0.02,0.97,0,-0,-0,0.08,0,,,,,,,
6068,0,,,,-0.03,-0.02,1.03,0,-1,-0,0.04,0,,,,,,,
6073,0,,,,-0.01,-0.02,1.0,0,-0,-1,0.02,0,,,,,,,
6078,0,,,,-0.0,-0.01,0.93,0,-1,-0,0.01,0,,,,,,,
6083,0,2.76,1.317,,-0.02,-0.01,0.99,0,-1,-0,0.02,0,,,,,,,
6088,0,,,,-0.03,-0.02,1.02,0,0,-0,0.04,0,,,,,,,
6093,0,,,,-0.07,-0.02,0.96,0,0,-0,0.07,0,,,,,,,
6098,0,,,,-0.08,-0.03,0.99,0,-1,-0,0.09,0,,,,,,,
6103,0,,,,-0.03,-0.03,1.01,0,-0,-0,0.04,0,,,,,,,
6108,0,,,,0.0,-0.03,0.98,0,-0,-0,0.03,0,,,,,,,
6113,0,,,,0.01,-0.02,0.95,0,-0,-0,0.02,0,,,,,,,
6118,0,,,,-0.01,-0.03,1.0,0,-0,-0,0.03,0,,,,,,,
6123,0,2.76,1.145,,-0.05,-0.03,0.99,0,1,-0,0.06,0,,,,,,,
6128,0,,,,-0.08,-0.02,0.95,0,0,-0,0.08,0,,,,,,,
6133,0,,,,-0.05,-0.02,0.99,0,-1,-0,0.05,0,,,,,,,
6138,0,,,,-0.01,-0.02,1.02,0,-0,-0,0.02,0,,,,,,,
6143,0,,,,0.0,-0.01,0.95,0,-0,-0,0.01,0,0.0,0.0,0.0,0.0,0,0,0.0
6148,0,,,,-0.01,-0.02,0.98,0,-1,-0,0.02,0,,,,,,,
6153,0,,,,-0.01,-0.03,1.02,0,0,-0,0.03,0,,,,,,,
6158,0,,,,-0.05,-0.02,0.98,0,0,-0,0.06,0,,,,,,,
6163,0,2.78,1.657,,-0.07,-0.01,0.95,0,-1,-0,0.07,0,,,,,,,
6168,0,,,,-0.02,-0.02,1.01,0,-1,-0,0.03,0,,,,,,,
6173,0,,,,0.01,-0.02,1.0,0,-0,-0,0.02,0,,,,,,,
6178,0,,,,0.02,-0.01,0.95,0,-0,-0,0.02,0,,,,,,,
6183,0,,,,0.01,-0.01,0.98,0,-1,-0,0.02,0,,,,,,,
6188,0,,,,-0.03,-0.03,1.02,0,0,-0,0.04,0,,,,,,,
6193,0,,,,-0.07,-0.02,0.97,0,0,-0,0.07,0,,,,,,,
6198,0,,,,-0.05,-0.03,0.98,0,-1,-0,0.06,0,,,,,,,
6203,0,2.78,2.169,,-0.01,-0.03,1.03,0,-0,-0,0.03,0,,,,,,,
6208,0,,,,0.02,-0.03,0.97,0,-0,-0,0.03,0,,,,,,,
6213,0,,,,0.01,-0.02,0.94,0,-1,-0,0.03,0,,,,,,,
6218,0,,,,-0.01,-0.03,1.03,0,-0,-0,0.03,0,,,,,,,
6223,0,,,,-0.03,-0.03,1.0,0,1,-0,0.05,0,,,,,,,
6228,0,,,,-0.06,-0.03,0.95,0,-0,-0,0.06,0,,,,,,,
6233,0,,,,-0.05,-0.03,1.0,0,-0,-0,0.06,0,,,,,,,
6238,0,,,,0.01,-0.02,1.02,0,-0,-0,0.02,0,,,,,,,
6243,0,2.75,2.03,,0.03,-0.02,0.98,0,-0,-0,0.03,0,0.0,0.0,0.0,0.0,0,0,0.0
6248,0,,,,0.02,-0.02,0.96,0,-0,-0,0.03,0,,,,,,,
6253,0,,,,-0.02,-0.04,1.02,0,0,-0,0.05,0,,,,,,,
6258,0,,,,-0.06,-0.05,0.97,0,1,-0,0.07,0,,,,,,,
6263,0,,,,-0.06,-0.04,0.96,0,-0,-0,0.07,0,,,,,,,
6268,0,,,,-0.03,-0.02,1.01,0,-0,-0,0.04,0,,,,,,,
6273,0,,,,0.0,-0.02,0.99,0,0,-0,0.02,0,,,,,,,
6278,0,,,,0.0,-0.01,0.93,0,-0,-0,0.01,0,,,,,,,
6283,0,2.76,1.779,,-0.02,-0.02,1.0,0,-0,-0,0.03,0,,,,,,,
6288,0,,,,-0.04,-0.03,1.02,0,1,-0,0.05,0,,,,,,,
6293,0,,,,-0.07,-0.03,0.96,0,0,-0,0.08,0,,,,,,,
6298,0,,,,-0.08,-0.03,0.99,0,-0,-0,0.08,0,,,,,,,
6303,0,,,,-0.03,-0.04,1.02,0,0,-0,0.05,0,,,,,,,
6308,0,,,,0.0,-0.05,0.98,0,0,-0,0.05,0,,,,,,,
6313,0,,,,0.01,-0.04,0.96,0,-0,-0,0.04,0,,,,,,,
6318,0,,,,-0.01,-0.05,1.0,0,0,-0,0.05,0,,,,,,,
6323,0,2.75,2.152,,-0.06,-0.05,0.99,0,1,-0,0.08,0,,,,,,,
6328,0,,,,-0.08,-0.03,0.96,0,0,-0,0.08,0,,,,,,,
6333,0,,,,-0.05,-0.03,1.01,0,-0,-0,0.05,0,,,,,,,
6338,0,,,,-0.02,-0.02,1.01,0,0,-0,0.03,0,,,,,,,
6343,0,,,,-0.0,-0.02,0.95,0,0,-0,0.02,0,0.0,0.0,0.0,0.0,0,0,0.0
6348,0,,,,-0.01,-0.03,0.99,0,-0,-0,0.03,0,,,,,,,
6353,0,,,,-0.02,-0.04,1.03,0,1,-0,0.04,0,,,,,,,
6358,0,,,,-0.06,-0.04,0.99,0,1,-0,0.07,0,,,,,,,
6363,0,2.77,2.475,,-0.07,-0.03,0.98,0,-0,-0,0.08,0,,,,,,,
6368,0,,,,-0.03,-0.04,1.03,0,-0,-0,0.05,0,,,,,,,
6373,0,,,,0.0,-0.03,1.01,0,0,-0,0.03,0,,,,,,,
6378,0,,,,0.01,-0.02,0.98,0,-0,-0,0.02,0,,,,,,,
6383,0,,,,0.0,-0.03,1.01,0,-0,-0,0.03,0,,,,,,,
6388,0,,,,-0.04,-0.03,1.03,0,1,-0,0.05,0,,,,,,,
6393,0,,,,-0.07,-0.02,0.98,0,0,-0,0.08,0,,,,,,,
6398,0,,,,-0.06,-0.04,1.0,0,-0,-0,0.07,0,,,,,,,
6403,0,2.78,2.846,,-0.03,-0.03,1.04,0,0,-0,0.04,0,,,,,,,
6408,0,,,,-0.0,-0.03,0.97,0,0,-0,0.03,0,,,,,,,
6413,0,,,,-0.0,-0.03,0.95,0,-0,-0,0.03,0,,,,,,,
6418,0,,,,-0.02,-0.03,1.03,0,0,-0,0.04,0,,,,,,,
6423,0,,,,-0.05,-0.03,1.0,0,1,-0,0.06,0,,,,,,,
6428,0,,,,-0.07,-0.02,0.96,0,0,-0,0.07,0,,,,,,,
6433,0,,,,-0.05,-0.03,1.02,0,-0,-0,0.06,0,,,,,,,
6438,0,,,,-0.01,-0.02,1.03,0,0,-0,0.02,0,,,,,,,
6443,0,2.78,2.836,,0.0,-0.02,0.99,0,0,-0,0.02,0,0.0,0.0,0.0,0.0,0,0,0.0
6448,0,,,,0.0,-0.01,0.99,0,-0,-0,0.01,0,,,,,,,
6453,0,,,,-0.04,-0.03,1.04,0,1,-0,0.05,0,,,,,,,
6458,0,,,,-0.08,-0.03,0.99,0,1,-0,0.08,0,,,,,,,
6463,0,,,,-0.07,-0.03,0.98,0,-0,-0,0.08,0,,,,,,,
6468,0,,,,-0.03,-0.03,1.03,0,-0,-0,0.04,0,,,,,,,
6473,0,,,,0.01,-0.03,1.0,0,0,-0,0.03,0,,,,,,,
6478,0,,,,0.01,-0.02,0.94,0,-0,-0,0.02,0,,,,,,,
6483,0,2.78,2.539,,-0.01,-0.03,1.02,0,0,-0,0.03,0,,,,,,,
6488,0,,,,-0.04,-0.03,1.02,0,1,-0,0.05,0,,,,,,,
6493,0,,,,-0.07,-0.04,0.97,0,0,-0,0.08,0,,,,,,,
6498,0,,,,-0.08,-0.05,1.0,0,-0,-0,0.09,0,,,,,,,
6503,0,,,,-0.02,-0.04,1.02,0,0,-0,0.04,0,,,,,,,
6508,0,,,,0.01,-0.04,0.98,0,0,-0,0.04,0,,,,,,,
6513,0,,,,0.01,-0.03,0.96,0,-0,0,0.03,0,,,,,,,
6518,0,,,,-0.01,-0.05,1.01,0,0,-0,0.05,0,,,,,,,
6523,0,2.77,2.597,,-0.06,-0.04,1.0,0,1,-0,0.07,0,,,,,,,
6528,0,,,,-0.08,-0.02,0.96,0,0,-0,0.08,0,,,,,,,
6533,0,,,,-0.04,-0.02,1.02,0,-0,-0,0.05,0,,,,,,,
6538,0,,,,-0.01,-0.02,1.02,0,0,-0,0.03,0,,,,,,,
6543,0,,,,0.0,-0.02,0.96,0,-0,-0,0.02,0,0.0,0.0,0.0,0.0,0,0,0.0
6548,0,,,,-0.01,-0.03,1.0,0,-0,-0,0.03,0,,,,,,,
6553,0,,,,-0.03,-0.03,1.04,0,0,-0,0.05,0,,,,,,,
6558,0,,,,-0.06,-0.03,0.99,0,0,-0,0.07,0,,,,,,,
6563,0,2.8,2.728,,-0.08,-0.03,0.98,0,-0,-0,0.09,0,,,,,,,
6568,0,,,,-0.03,-0.04,1.03,0,0,-0,0.04,0,,,,,,,
6573,0,,,,-0.0,-0.03,1.01,0,0,-0,0.03,0,,,,,,,
6578,0,,,,0.01,-0.02,0.97,0,0,-0,0.02,0,,,,,,,
6583,0,,,,-0.0,-0.02,0.99,0,0,-0,0.02,0,,,,,,,
6588,0,,,,-0.05,-0.02,1.02,0,1,-0,0.06,0,,,,,,,
6593,0,,,,-0.08,-0.02,0.97,0,0,-0,0.08,0,,,,,,,
6598,0,,,,-0.06,-0.03,0.99,0,-0,-0,0.06,0,,,,,,,
6603,0,2.8,2.974,,-0.03,-0.02,1.03,0,0,-0,0.04,0,,,,,,,
6608,0,,,,0.0,-0.02,0.95,0,0,-0,0.02,0,,,,,,,
6743,0,,,,-0.01,-0.03,0.94,0,0,-0,0.04,0,0.0,0.0,0.0,0.0,0,0,0.0
6748,0,,,,-0.03,-0.04,0.99,0,0,-0,0.05,0,,,,,,,
6753,0,,,,-0.05,-0.04,1.03,0,1,-0,0.07,0,,,,,,,
6758,0,,,,-0.08,-0.05,0.98,0,1,-0,0.1,0,,,,,,,
6763,0,2.77,1.217,,-0.1,-0.04,1.02,0,0,-0,0.11,0,,,,,,,
6768,0,,,,-0.04,-0.04,1.05,0,1,-0,0.06,0,,,,,,,
6773,0,,,,-0.01,-0.04,1.02,0,1,-0,0.04,0,,,,,,,
6778,0,,,,-0.0,-0.02,0.99,0,1,-0,0.02,0,,,,,,,
6783,0,,,,-0.02,-0.03,1.0,0,1,-0,0.04,0,,,,,,,
6788,0,,,,-0.08,-0.03,1.0,0,1,-1,0.09,0,,,,,,,
6793,0,,,,-0.09,-0.02,0.95,0,1,-0,0.09,0,,,,,,,
6798,0,,,,-0.07,-0.04,0.98,0,-0,-0,0.08,0,,,,,,,
6803,0,2.81,1.941,,-0.03,-0.02,1.01,0,0,-0,0.04,0,,,,,,,
6808,0,,,,-0.0,-0.02,0.96,0,0,-0,0.02,0,,,,,,,
6813,0,,,,-0.01,-0.02,0.99,0,-0,-0,0.02,0,,,,,,,
6818,0,,,,-0.03,-0.03,1.05,0,0,-0,0.04,0,,,,,,,
6823,0,,,,-0.06,-0.02,1.02,0,0,-1,0.07,0,,,,,,,
6828,0,,,,-0.12,0.0,0.99,0,0,-0,0.12,0,,,,,,,
6833,0,,,,-0.05,0.01,1.02,0,-0,-0,0.05,0,,,,,,,
6838,0,,,,0.01,-0.01,1.06,0,0,-0,0.02,0,,,,,,,
6843,0,2.79,4.197,,0.05,0.01,1.01,0,0,-1,0.05,0,0.0,0.0,0.0,0.0,0,0,0.0
6943,0,,,,0.06,-0.04,0.92,0,1,0,0.07,0,0.0,0.0,0.0,0.0,0,0,0.0
6948,0,,,,-0.0,-0.07,0.9,0,2,1,0.07,0,,,,,,,
6953,0,,,,-0.16,-0.06,0.95,1,3,1,0.17,0,,,,,,,
6958,0,,,,-0.03,-0.08,0.98,0,1,1,0.08,0,,,,,,,
6963,0,2.82,4.358,,0.08,-0.04,1.06,0,1,0,0.08,0,,,,,,,
6968,0,,,,0.08,-0.0,0.95,0,2,1,0.08,0,,,,,,,
6973,0,,,,0.04,-0.06,0.99,1,2,1,0.07,0,,,,,,,
6978,0,,,,-0.03,-0.1,0.97,1,3,1,0.11,0,,,,,,,
6983,0,,,,-0.07,-0.07,1.03,1,3,1,0.1,0,,,,,,,
6988,0,,,,0.04,-0.12,0.9,1,2,1,0.13,0,,,,,,,
7088,0,,,,-0.14,-0.12,1.0,0,1,0,0.18,0,,,,,,,
7093,0,,,,0.03,-0.14,1.0,0,1,1,0.15,0,,,,,,,
7098,0,,,,0.1,-0.11,1.09,0,1,1,0.15,0,,,,,,,
7103,0,,,,-0.0,-0.07,1.06,0,2,1,0.07,0,,,,,,,
7108,0,,,,-0.04,-0.1,1.0,0,3,1,0.11,0,,,,,,,
7113,0,,,,-0.15,-0.13,1.03,0,3,1,0.2,0,,,,,,,
7118,0,,,,-0.03,-0.11,1.01,1,2,1,0.12,0,,,,,,,
7123,0,2.79,2.655,,-0.03,-0.16,1.02,1,2,1,0.16,0,,,,,,,
7128,0,,,,-0.04,-0.15,1.03,1,2,0,0.16,0,,,,,,,
7133,0,,,,-0.03,-0.17,1.04,1,3,0,0.17,2,,,,,,,
7233,0,,,,-0.13,-0.03,0.89,1,4,0,0.14,2,,,,,,,
7238,0,,,,-0.16,-0.02,0.85,1,4,0,0.16,2,,,,,,,
7243,0,2.88,4.339,,-0.16,-0.07,0.93,1,3,0,0.17,2,0.0,0.0,0.0,0.0,0,0,0.0
7248,0,,,,-0.09,-0.04,0.98,1,4,0,0.1,2,,,,,,,
7253,0,,,,-0.08,-0.07,0.95,0,4,1,0.11,2,,,,,,,
7258,0,,,,-0.15,0.01,0.97,0,4,1,0.15,2,,,,,,,
7263,0,,,,-0.18,-0.01,0.94,0,4,1,0.19,2,,,,,,,
7268,0,,,,-0.2,-0.07,0.94,0,5,1,0.21,2,,,,,,,
7273,0,,,,-0.24,0.01,0.92,0,5,0,0.24,2,,,,,,,
7278,0,,,,-0.17,-0.01,0.94,0,4,1,0.17,2,,,,,,,
7283,0,2.88,4.51,,-0.28,0.01,1.04,1,6,0,0.28,0,,,,,,,
7388,0,,,,-0.47,-0.02,0.9,5,11,1,0.47,100,,,,,,,
7393,0,,,,-0.55,0.04,0.94,5,10,1,0.56,100,,,,,,,
7398,0,,,,-0.43,-0.01,0.87,5,10,1,0.43,100,,,,,,,
7403,0,2.92,3.341,,-0.48,0.01,0.83,5,10,1,0.48,110,,,,,,,
7408,0,,,,-0.53,0.05,0.79,5,10,1,0.53,110,,,,,,,
7413,0,,,,-0.6,0.05,0.76,5,9,1,0.6,110,,,,,,,
7418,0,,,,-0.58,0.06,0.83,6,9,1,0.58,110,,,,,,,
7423,0,,,,-0.53,0.02,0.8,6,9,2,0.53,122,,,,,,,
7428,0,,,,-0.46,-0.05,0.82,6,8,1,0.46,122,,,,,,,
7433,0,,,,-0.49,-0.0,0.78,5,9,1,0.49,122,,,,,,,
7533,0,,,,-0.51,-0.16,0.86,2,1,-1,0.54,128,,,,,,,
7538,0,,,,-0.45,-0.16,0.82,2,0,0,0.47,128,,,,,,,
7543,0,,,,-0.52,-0.19,0.92,2,-0,1,0.55,128,0.0,0.0,0.0,0.0,0,0,0.0
7548,0,,,,-0.3,-0.26,0.92,2,-0,1,0.4,118,,,,,,,
7553,0,,,,-0.39,-0.19,0.93,2,-0,1,0.43,118,,,,,,,
7558,0,,,,-0.39,-0.17,0.93,2,0,2,0.43,118,,,,,,,
7563,0,3.0,3.416,,-0.48,-0.17,0.94,2,0,2,0.51,118,,,,,,,
7568,0,,,,-0.44,-0.15,0.99,2,1,2,0.46,118,,,,,,,
7573,0,,,,-0.43,-0.08,0.96,2,1,3,0.44,118,,,,,,,
7578,0,,,,-0.35,-0.14,0.98,2,0,3,0.38,118,,,,,,,
7583,0,,,,-0.31,-0.18,1.07,2,1,3,0.36,118,,,,,,,
7588,0,,,,-0.3,-0.18,1.08,2,2,3,0.35,118,,,,,,,
7593,0,,,,-0.42,-0.11,1.12,2,3,3,0.43,120,,,,,,,
7598,0,,,,-0.39,-0.13,1.12,2,3,2,0.41,120,,,,,,,
7603,0,2.91,3.891,,-0.47,-0.18,1.17,2,3,1,0.5,120,,,,,,,
7608,0,,,,-0.43,-0.12,1.07,2,4,1,0.44,120,,,,,,,
7613,0,,,,-0.37,-0.09,1.07,2,3,1,0.38,120,,,,,,,
7618,0,,,,-0.5,-0.1,1.16,3,5,1,0.51,120,,,,,,,
7623,0,,,,-0.43,-0.18,1.04,3,5,0,0.47,120,,,,,,,
7628,0,,,,-0.46,-0.16,0.94,3,5,1,0.49,120,,,,,,,
7633,0,,,,-0.36,-0.16,0.88,3,5,1,0.39,118,,,,,,,
7638,0,,,,-0.48,-0.14,0.98,4,6,0,0.5,118,,,,,,,
7643,0,2.85,3.487,,-0.41,-0.13,0.93,4,6,-0,0.43,118,0.0,0.0,0.0,0.0,0,0,0.0
7648,0,,,,-0.44,-0.11,0.92,4,6,0,0.46,118,,,,,,,
7653,0,,,,-0.51,-0.13,0.97,4,6,-0,0.52,120,,,,,,,
7658,0,,,,-0.43,-0.13,1.0,4,6,-1,0.45,120,,,,,,,
7663,0,,,,-0.41,-0.09,1.01,4,5,-0,0.42,120,,,,,,,
7668,0,,,,-0.45,-0.04,1.04,4,6,0,0.45,120,,,,,,,
7673,0,,,,-0.53,-0.06,1.05,4,6,0,0.53,115,,,,,,,
7678,0,,,,-0.64,-0.08,1.03,4,6,-0,0.64,115,,,,,,,
7683,0,2.84,2.988,,-0.64,0.03,0.99,4,6,-0,0.64,115,,,,,,,
7688,0,,,,-0.57,0.05,1.04,3,6,-0,0.57,115,,,,,,,
7693,0,,,,-0.67,0.12,1.08,3,7,-0,0.69,115,,,,,,,
7698,0,,,,-0.53,0.01,0.95,3,7,-1,0.53,110,,,,,,,
7703,0,,,,-0.6,0.05,0.96,3,7,-1,0.61,110,,,,,,,
7708,0,,,,-0.61,0.06,0.89,2,7,-1,0.62,110,,,,,,,
7713,0,,,,-0.72,0.08,0.93,2,7,-0,0.73,110,,,,,,,
7718,0,,,,-0.6,0.04,0.86,2,6,-1,0.6,118,,,,,,,
7723,0,2.91,3.796,,-0.56,-0.01,0.88,2,6,-1,0.56,118,,,,,,,
7728,0,,,,-0.54,-0.05,0.88,2,5,-1,0.54,118,,,,,,,
7733,0,,,,-0.53,-0.05,0.9,1,5,-1,0.53,118,,,,,,,
7738,0,,,,-0.57,-0.11,0.94,1,5,-0,0.58,118,,,,,,,
7743,0,,,,-0.63,-0.1,0.89,1,5,0,0.64,112,0.0,0.0,0.0,0.0,0,0,0.0
7748,0,,,,-0.66,-0.11,0.86,1,5,1,0.67,112,,,,,,,
7753,0,,,,-0.75,-0.13,0.91,1,5,1,0.76,112,,,,,,,
7758,0,,,,-0.62,-0.03,0.83,0,4,1,0.62,112,,,,,,,
7763,0,2.9,3.914,,-0.56,-0.03,0.87,0,3,2,0.56,108,,,,,,,
7768,0,,,,-0.67,-0.01,0.94,-0,4,2,0.67,108,,,,,,,
7773,0,,,,-0.61,-0.06,0.92,-0,4,2,0.61,108,,,,,,,
7778,0,,,,-0.61,-0.01,0.95,-0,3,2,0.61,108,,,,,,,
7783,0,,,,-0.6,0.04,0.92,-0,3,2,0.6,112,,,,,,,
7788,0,,,,-0.57,0.02,0.92,-0,3,2,0.57,112,,,,,,,
7793,0,,,,-0.51,-0.02,0.96,-0,3,2,0.51,112,,,,,,,
7798,0,,,,-0.54,0.02,0.97,-0,3,2,0.54,112,,,,,,,
7803,0,2.81,3.997,,-0.54,-0.03,1.02,-0,3,1,0.54,112,,,,,,,
7808,0,,,,-0.66,0.02,1.05,-0,4,1,0.66,120,,,,,,,
7813,0,,,,-0.56,0.0,1.0,-0,3,1,0.56,120,,,,,,,
7818,0,,,,-0.62,0.08,0.99,-0,3,1,0.63,120,,,,,,,
7823,0,,,,-0.55,0.05,0.87,0,2,0,0.55,120,,,,,,,
7828,0,,,,-0.66,0.07,0.9,0,2,0,0.67,112,,,,,,,
7833,0,,,,-0.55,0.1,0.81,0,2,-0,0.56,112,,,,,,,
7838,0,,,,-0.59,0.12,0.86,0,1,0,0.6,112,,,,,,,
7843,0,2.74,4.031,,-0.63,0.11,0.85,1,0,-0,0.64,112,0.0,0.0,0.0,0.0,0,0,0.0
7848,0,,,,-0.5,0.12,0.81,1,-1,-0,0.51,115,,,,,,,
7853,0,,,,-0.43,0.08,0.84,0,-2,-1,0.44,115,,,,,,,
7858,0,,,,-0.52,0.09,0.81,1,-2,-0,0.53,115,,,,,,,
7863,0,,,,-0.55,0.04,0.78,1,-2,0,0.55,115,,,,,,,
7868,0,,,,-0.66,-0.08,0.83,1,-2,1,0.67,115,,,,,,,
7873,0,,,,-0.58,0.03,0.66,1,-3,1,0.58,118,,,,,,,
7878,0,,,,-0.54,0.09,0.69,0,-4,3,0.55,118,,,,,,,
7883,0,2.72,3.829,,-0.65,0.22,0.74,0,-4,3,0.69,118,,,,,,,
7888,0,,,,-0.43,0.12,0.65,1,-5,2,0.45,118,,,,,,,
7893,0,,,,-0.46,0.12,0.68,0,-6,2,0.48,115,,,,,,,
7898,0,,,,-0.47,0.1,0.71,0,-6,2,0.48,115,,,,,,,
7903,0,,,,-0.55,0.08,0.7,0,-6,2,0.56,115,,,,,,,
7908,0,,,,-0.54,0.02,0.72,0,-7,2,0.54,115,,,,,,,
7913,0,,,,-0.49,0.06,0.75,0,-7,2,0.49,120,,,,,,,
7918,0,,,,-0.4,0.02,0.83,0,-7,2,0.4,120,,,,,,,
7923,0,2.75,3.274,,-0.37,0.04,0.89,0,-7,2,0.38,120,,,,,,,
7928,0,,,,-0.35,0.04,0.93,-0,-7,3,0.35,120,,,,,,,
7933,0,,,,-0.44,0.07,0.99,-0,-6,4,0.44,120,,,,,,,
7938,0,,,,-0.43,0.09,0.96,-0,-6,5,0.43,120,,,,,,,
7943,0,,,,-0.51,0.03,1.06,-0,-6,5,0.51,120,0.0,0.0,0.0,0.0,0,0,0.0
7948,0,,,,-0.35,0.08,1.0,-0,-6,5,0.36,120,,,,,,,
7953,0,,,,-0.32,0.12,1.07,-0,-6,5,0.34,128,,,,,,,
7958,0,,,,-0.44,0.13,1.16,-0,-4,5,0.46,128,,,,,,,
7963,0,2.67,3.725,,-0.37,0.06,1.11,-0,-4,4,0.37,128,,,,,,,
7968,0,,,,-0.31,0.11,1.03,-1,-4,3,0.33,128,,,,,,,
7973,0,,,,-0.27,0.11,1.0,-1,-4,3,0.29,122,,,,,,,
7978,0,,,,-0.36,0.11,0.98,-1,-4,2,0.38,122,,,,,,,
7983,0,,,,-0.31,0.14,1.0,-1,-3,1,0.34,122,,,,,,,
7988,0,,,,-0.4,0.21,0.97,-1,-3,0,0.45,122,,,,,,,
7993,0,,,,-0.35,0.15,0.93,-1,-3,-0,0.38,125,,,,,,,
7998,0,,,,-0.33,0.18,1.03,-2,-3,-0,0.37,125,,,,,,,
8003,0,2.65,4.047,,-0.29,0.17,0.97,-2,-3,-1,0.34,125,,,,,,,
8008,0,,,,-0.35,0.23,0.94,-3,-3,0,0.42,125,,,,,,,
8013,0,,,,-0.4,0.17,0.96,-3,-2,1,0.43,125,,,,,,,
8018,0,,,,-0.44,0.08,0.99,-3,-2,1,0.44,125,,,,,,,
8023,0,,,,-0.44,0.12,0.88,-3,-2,1,0.46,125,,,,,,,
8028,0,,,,-0.38,0.08,0.89,-3,-4,2,0.39,125,,,,,,,
8033,0,,,,-0.43,0.05,0.95,-3,-3,3,0.43,122,,,,,,,
8038,0,,,,-0.31,-0.05,0.86,-3,-3,3,0.32,122,,,,,,,
8043,0,2.59,3.689,13.32,-0.45,0.0,0.88,-3,-3,4,0.45,122,0.0,0.0,0.0,0.0,0,0,0.0
8048,0,,,,-0.45,-0.02,0.81,-3,-4,5,0.45,122,,,,,,,
8053,0,,,,-0.53,-0.03,0.88,-3,-4,6,0.53,125,,,,,,,
8058,0,,,,-0.42,-0.01,0.78,-3,-5,6,0.42,125,,,,,,,
8063,0,,,,-0.4,0.03,0.82,-3,-6,6,0.4,125,,,,,,,
8068,0,,,,-0.47,0.03,0.85,-2,-5,6,0.47,125,,,,,,,
8073,0,,,,-0.31,-0.07,0.81,-2,-6,5,0.32,128,,,,,,,
8078,0,,,,-0.42,-0.02,0.81,-2,-6,5,0.42,128,,,,,,,
8083,0,2.52,3.56,,-0.32,-0.01,0.74,-2,-7,4,0.32,128,,,,,,,
8088,0,,,,-0.46,0.03,0.84,-2,-7,3,0.46,128,,,,,,,
8093,0,,,,-0.29,0.03,0.77,-2,-7,3,0.29,128,,,,,,,
8098,0,,,,-0.4,0.08,0.83,-2,-7,3,0.4,128,,,,,,,
8103,0,,,,-0.37,0.14,0.83,-2,-8,2,0.4,128,,,,,,,
8108,0,,,,-0.26,0.15,0.9,-2,-8,1,0.3,128,,,,,,,
8113,0,,,,-0.28,0.22,0.95,-3,-9,0,0.35,128,,,,,,,
8118,0,,,,-0.27,0.18,0.98,-3,-8,0,0.32,128,,,,,,,
8123,0,2.6,3.402,,-0.3,0.16,1.01,-3,-8,-1,0.34,128,,,,,,,
8128,0,,,,-0.18,0.08,1.03,-3,-8,-2,0.2,132,,,,,,,
8133,0,,,,-0.28,0.1,1.08,-3,-8,-3,0.3,132,,,,,,,
8138,0,,,,-0.2,0.12,1.12,-3,-9,-3,0.24,132,,,,,,,
8143,0,,,,-0.14,0.1,1.21,-3,-9,-3,0.18,132,0.0,0.0,0.0,0.0,0,0,0.0
8148,0,,,,-0.12,0.06,1.17,-3,-9,-3,0.13,130,,,,,,,
8153,0,,,,-0.21,0.05,1.13,-2,-8,-2,0.21,130,,,,,,,
8158,0,,,,-0.24,0.03,1.11,-2,-8,-2,0.24,130,,,,,,,
8163,0,2.68,3.782,,-0.19,-0.0,1.11,-2,-8,-3,0.19,130,,,,,,,
8168,0,,,,-0.26,0.07,1.1,-2,-7,-3,0.27,132,,,,,,,
8173,0,,,,-0.21,0.09,1.09,-1,-8,-2,0.23,132,,,,,,,
8178,0,,,,-0.24,0.13,1.17,-1,-7,-2,0.27,132,,,,,,,
8183,0,,,,-0.16,0.07,1.09,-1,-6,-2,0.17,135,,,,,,,
8188,0,,,,-0.3,0.11,1.11,-0,-5,-2,0.32,135,,,,,,,
8193,0,,,,-0.26,0.09,1.02,-0,-5,-2,0.27,135,,,,,,,
8198,0,,,,-0.21,0.09,1.09,-0,-5,-3,0.23,135,,,,,,,
8203,0,2.76,2.441,,-0.23,0.11,1.05,-0,-5,-3,0.25,138,,,,,,,
8208,0,,,,-0.22,0.14,1.04,-0,-5,-2,0.26,138,,,,,,,
8213,0,,,,-0.27,0.18,1.13,-0,-4,-3,0.33,138,,,,,,,
8218,0,,,,-0.14,0.12,1.09,-0,-4,-5,0.18,138,,,,,,,
8223,0,,,,-0.29,0.18,1.1,-1,-3,-5,0.34,135,,,,,,,
8228,0,,,,-0.26,0.15,1.03,-1,-3,-4,0.3,135,,,,,,,
8233,0,,,,-0.28,0.1,1.12,-1,-3,-5,0.3,135,,,,,,,
8238,0,,,,-0.25,0.09,1.03,-1,-3,-5,0.26,142,,,,,,,
8243,0,2.79,2.453,,-0.23,0.07,1.0,-1,-3,-4,0.24,142,0.0,0.0,0.0,0.0,0,0,0.0
8248,0,,,,-0.31,0.03,1.06,-1,-3,-3,0.31,142,,,,,,,
8253,0,,,,-0.12,-0.02,1.08,-1,-4,-4,0.13,142,,,,,,,
8258,0,,,,-0.24,0.01,1.09,-1,-3,-4,0.24,140,,,,,,,
8263,0,,,,-0.21,0.0,1.04,-1,-4,-3,0.21,140,,,,,,,
8268,0,,,,-0.26,-0.06,1.13,-1,-4,-2,0.27,140,,,,,,,
8273,0,,,,-0.19,-0.14,1.06,-1,-4,-0,0.24,148,,,,,,,
8278,0,,,,-0.14,-0.11,1.06,-1,-4,2,0.18,148,,,,,,,
