"Interval"|"ms"|0|0|1,"Utc"|"ms"|0|0|1,"Analog1"|"V"|0.0|5.0|25,"Analog2"|""|0.0|5.0|25,"Battery"|"Volts"|0.0|20.0|1,"AccelX"|"G"|-3.0|3.0|200,"AccelY"|"G"|-3.0|3.0|200,"AccelZ"|"G"|-3.0|3.0|200,"Yaw"|"Deg/Sec"|-120|120|200,"Pitch"|"Deg/Sec"|-120|120|200,"Roll"|"Deg/Sec"|-120|120|200,"Gsum"|"G"|0.0|3.0|200,"RPM2"|"rpm"|0|8000|200,"Latitude"|"Degrees"|-180.0|180.0|10,"Longitude"|"Degrees"|-180.0|180.0|10,"Speed"|"mph"|0.0|150.0|10,"Altitude"|"ft"|0.0|4000.0|10,"GPSSats"|""|0|20|10,"GPSQual"|""|0|5|10,"GPSDOP"|""|0.0|20.0|10
,,,,,,,,,,,,,,,,,,,
438,0,,,,-0.04,-0.03,1.02,0,1,-0,0.06,0,,,,,,,
443,0,2.68,3.145,,-0.07,-0.03,0.97,0,1,-0,0.08,0,0.0,0.0,0.0,0.0,0,0,0.0
448,0,,,,-0.06,-0.03,0.98,0,-0,-0,0.06,0,,,,,,,
453,0,,,,-0.02,-0.02,1.0,0,0,-0,0.03,0,,,,,,,
458,0,,,,-0.01,-0.01,0.96,0,0,-0,0.02,0,,,,,,,
463,0,,,,-0.01,-0.01,0.93,0,-0,-0,0.02,0,,,,,,,
468,0,,,,-0.02,-0.02,0.99,0,0,-0,0.03,0,,,,,,,
473,0,,,,-0.04,-0.04,0.99,0,1,-0,0.05,0,,,,,,,
478,0,,,,-0.05,-0.03,0.95,0,0,-0,0.06,0,,,,,,,
483,0,2.71,2.993,,-0.06,-0.03,0.98,0,-0,-0,0.07,0,,,,,,,
583,0,,,,-0.05,-0.03,0.94,0,0,-0,0.06,0,,,,,,,
588,0,,,,-0.02,-0.02,0.98,0,-0,-0,0.03,0,,,,,,,
593,0,,,,-0.01,-0.02,0.99,0,0,-0,0.02,0,,,,,,,
598,0,,,,0.0,-0.0,0.95,0,0,-0,0.0,0,,,,,,,
603,0,2.66,3.023,,-0.01,-0.01,0.98,0,0,-0,0.01,0,,,,,,,
608,0,,,,-0.03,-0.01,1.01,0,1,-0,0.03,0,,,,,,,
613,0,,,,-0.05,-0.01,0.98,0,0,-1,0.05,0,,,,,,,
618,0,,,,-0.06,-0.01,0.98,0,-0,-0,0.06,0,,,,,,,
623,0,,,,-0.02,-0.01,1.02,0,-0,-0,0.02,0,,,,,,,
628,0,,,,0.0,-0.0,1.01,0,0,-0,0.0,0,,,,,,,
633,0,,,,0.02,0.0,0.98,0,-0,-0,0.02,0,,,,,,,
733,0,,,,-0.01,-0.03,0.94,0,-0,-0,0.03,0,,,,,,,
738,0,,,,-0.01,-0.04,0.99,0,-0,-0,0.04,0,,,,,,,
743,0,,,,-0.03,-0.04,1.02,0,0,-0,0.05,0,0.0,0.0,0.0,0.0,0,0,0.0
748,0,,,,-0.06,-0.05,0.98,0,0,-0,0.08,0,,,,,,,
753,0,,,,-0.07,-0.04,0.98,0,-0,-0,0.08,0,,,,,,,
758,0,,,,-0.03,-0.04,1.01,0,-0,-0,0.05,0,,,,,,,
763,0,2.61,3.191,,-0.01,-0.03,1.0,0,-0,-0,0.03,0,,,,,,,
768,0,,,,0.0,-0.03,0.97,0,-0,-0,0.03,0,,,,,,,
773,0,,,,-0.0,-0.04,0.99,0,-0,-0,0.04,0,,,,,,,
778,0,,,,-0.04,-0.05,1.03,0,0,-0,0.06,0,,,,,,,
878,0,,,,-0.02,-0.03,1.02,0,0,-0,0.03,0,,,,,,,
883,0,2.59,2.721,,-0.04,-0.03,0.98,0,1,-0,0.05,0,,,,,,,
888,0,,,,-0.04,-0.02,0.95,0,-0,-0,0.05,0,,,,,,,
893,0,,,,-0.03,-0.02,1.0,0,-0,0,0.04,0,,,,,,,
898,0,,,,0.0,-0.02,1.0,0,-0,-0,0.02,0,,,,,,,
903,0,,,,0.02,-0.02,0.97,0,-0,-0,0.03,0,,,,,,,
908,0,,,,0.02,-0.02,0.96,0,-0,0,0.03,0,,,,,,,
913,0,,,,-0.02,-0.04,1.0,0,0,-0,0.04,0,,,,,,,
918,0,,,,-0.05,-0.04,0.98,0,1,-0,0.06,0,,,,,,,
923,0,2.58,3.125,,-0.04,-0.03,0.94,0,0,-0,0.05,0,,,,,,,
928,0,,,,-0.02,-0.01,0.99,0,-0,-0,0.02,0,,,,,,,
933,0,,,,-0.0,-0.02,0.98,0,0,-0,0.02,0,,,,,,,
938,0,,,,0.0,-0.01,0.94,0,-0,-0,0.01,0,,,,,,,
943,0,,,,-0.01,-0.02,0.98,0,-0,-0,0.03,0,0.0,0.0,0.0,0.0,0,0,0.0
948,0,,,,-0.03,-0.02,1.01,0,0,-0,0.03,0,,,,,,,
953,0,,,,-0.05,-0.01,0.97,0,0,-0,0.05,0,,,,,,,
958,0,,,,-0.05,-0.02,0.97,0,-0,0,0.05,0,,,,,,,
963,0,2.48,3.105,,-0.01,-0.02,1.0,0,-0,0,0.02,0,,,,,,,
968,0,,,,0.01,-0.01,0.99,0,0,-0,0.02,0,,,,,,,
973,0,,,,0.02,-0.01,0.96,0,-0,0,0.02,0,,,,,,,
978,0,,,,0.01,-0.02,0.99,1,-0,0,0.02,0,,,,,,,
983,0,,,,-0.03,-0.04,1.02,0,1,-0,0.05,0,,,,,,,
988,0,,,,-0.06,-0.03,0.97,0,1,-0,0.07,0,,,,,,,
993,0,,,,-0.05,-0.03,0.98,0,-0,0,0.06,0,,,,,,,
998,0,,,,-0.02,-0.01,1.02,0,0,-0,0.02,0,,,,,,,
1003,0,2.5,3.296,,0.0,-0.01,0.97,0,0,-0,0.01,0,,,,,,,
1008,0,,,,0.0,-0.01,0.95,1,0,-0,0.01,0,,,,,,,
1013,0,,,,-0.01,-0.03,1.01,1,0,-0,0.03,0,,,,,,,
1018,0,,,,-0.04,-0.03,0.98,1,1,-0,0.05,0,,,,,,,
1023,0,,,,-0.05,-0.03,0.95,0,0,-0,0.06,0,,,,,,,
1028,0,,,,-0.05,-0.03,0.99,0,0,0,0.06,0,,,,,,,
1033,0,,,,-0.01,-0.03,1.01,1,0,-0,0.03,0,,,,,,,
1038,0,,,,0.0,-0.03,0.98,0,0,-0,0.03,0,,,,,,,
1043,0,2.49,3.288,13.36,0.0,-0.02,0.96,1,0,-0,0.02,0,0.0,0.0,0.0,0.0,0,0,0.0
1048,0,,,,-0.01,-0.03,1.0,1,0,-0,0.04,0,,,,,,,
1053,0,,,,-0.05,-0.04,0.99,0,1,-0,0.06,0,,,,,,,
1058,0,,,,-0.07,-0.03,0.96,0,0,-0,0.07,0,,,,,,,
1063,0,,,,-0.04,-0.04,1.0,0,-0,0,0.05,0,,,,,,,
1068,0,,,,-0.02,-0.03,1.02,0,0,-0,0.03,0,,,,,,,
1073,0,,,,-0.0,-0.01,0.96,0,0,-0,0.01,0,,,,,,,
1078,0,,,,-0.0,-0.02,0.97,0,-0,0,0.02,0,,,,,,,
1083,0,2.48,3.127,,-0.01,-0.03,1.01,0,0,0,0.03,0,,,,,,,
1088,0,,,,-0.04,-0.03,0.98,0,1,-0,0.05,0,,,,,,,
1093,0,,,,-0.05,-0.03,0.97,0,-0,0,0.06,0,,,,,,,
1098,0,,,,-0.03,-0.03,1.01,0,-0,0,0.04,0,,,,,,,
1103,0,,,,0.0,-0.02,1.0,0,0,-0,0.02,0,,,,,,,
1108,0,,,,0.02,-0.01,0.98,0,0,-0,0.02,0,,,,,,,
1113,0,,,,0.01,-0.02,0.99,0,0,0,0.02,0,,,,,,,
1118,0,,,,-0.02,-0.03,1.01,0,1,-0,0.03,0,,,,,,,
1123,0,2.49,3.219,,-0.06,-0.02,0.98,0,1,-0,0.06,0,,,,,,,
1128,0,,,,-0.05,-0.02,0.96,0,0,-0,0.06,0,,,,,,,
1133,0,,,,-0.02,-0.01,1.0,0,-0,-0,0.02,0,,,,,,,
1138,0,,,,0.0,-0.01,0.97,0,0,-0,0.01,0,,,,,,,
1143,0,,,,0.0,0.0,0.93,0,0,-0,0.0,0,0.0,0.0,0.0,0.0,0,0,0.0
1148,0,,,,-0.02,-0.01,0.98,0,-0,-0,0.02,0,,,,,,,
1153,0,,,,-0.04,-0.01,1.0,0,0,-0,0.04,0,,,,,,,
1158,0,,,,-0.06,-0.01,0.97,0,0,-0,0.06,0,,,,,,,
1163,0,2.51,3.234,,-0.06,-0.01,0.98,0,-0,-0,0.06,0,,,,,,,
1168,0,,,,-0.03,-0.01,1.0,0,-0,-0,0.03,0,,,,,,,
1173,0,,,,-0.01,-0.01,0.98,0,-0,-0,0.02,0,,,,,,,
1178,0,,,,-0.0,0.0,0.97,0,-0,-0,0.0,0,,,,,,,
1183,0,,,,-0.01,-0.01,0.99,0,-0,-0,0.02,0,,,,,,,
1188,0,,,,-0.04,-0.02,1.02,0,0,-1,0.05,0,,,,,,,
1193,0,,,,-0.07,-0.02,0.98,0,0,-0,0.07,0,,,,,,,
1198,0,,,,-0.06,-0.02,0.98,0,-0,-0,0.06,0,,,,,,,
1203,0,2.51,3.312,,-0.02,-0.02,1.01,0,-0,-0,0.03,0,,,,,,,
1208,0,,,,-0.01,-0.02,0.97,0,0,-0,0.02,0,,,,,,,
1213,0,,,,-0.02,-0.03,0.96,0,-0,-0,0.03,0,,,,,,,
1218,0,,,,-0.03,-0.03,1.01,0,0,-0,0.05,0,,,,,,,
1223,0,,,,-0.05,-0.04,0.99,0,0,-1,0.07,0,,,,,,,
1228,0,,,,-0.06,-0.04,0.96,0,0,-0,0.07,0,,,,,,,
1233,0,,,,-0.07,-0.04,0.99,0,-0,-0,0.08,0,,,,,,,
1238,0,,,,-0.03,-0.03,1.0,0,0,-0,0.04,0,,,,,,,
1273,0,,,,-0.03,-0.04,1.02,0,-0,-0,0.05,0,,,,,,,
1278,0,,,,-0.01,-0.04,0.97,0,0,-0,0.04,0,,,,,,,
1283,0,2.52,3.17,,-0.01,-0.04,0.95,0,-0,0,0.04,0,,,,,,,
1288,0,,,,-0.03,-0.05,1.0,0,0,-0,0.06,0,,,,,,,
1318,0,,,,-0.01,-0.04,0.98,0,0,0,0.04,0,,,,,,,
1323,0,2.51,3.243,,-0.04,-0.05,1.02,0,0,-0,0.06,0,,,,,,,
1328,0,,,,-0.06,-0.05,1.0,0,1,-0,0.08,0,,,,,,,
1333,0,,,,-0.07,-0.05,0.96,0,0,0,0.08,0,,,,,,,
1338,0,,,,-0.04,-0.04,1.0,0,-0,0,0.06,0,,,,,,,
1343,0,,,,-0.02,-0.04,1.01,0,0,0,0.04,0,0.0,0.0,0.0,0.0,0,0,0.0
1348,0,,,,-0.0,-0.03,0.96,0,0,0,0.03,0,,,,,,,
1353,0,,,,-0.01,-0.04,0.99,0,-0,0,0.04,0,,,,,,,
1358,0,,,,-0.02,-0.04,1.01,0,0,-0,0.05,0,,,,,,,
1363,0,2.52,2.7,,-0.05,-0.04,0.99,0,0,-0,0.06,0,,,,,,,
1368,0,,,,-0.05,-0.04,0.98,0,-0,-0,0.06,0,,,,,,,
1373,0,,,,-0.04,-0.03,1.02,0,0,-0,0.05,0,,,,,,,
1378,0,,,,-0.01,-0.02,1.01,0,0,-0,0.03,0,,,,,,,
1383,0,,,,0.01,-0.02,0.99,0,-0,-0,0.02,0,,,,,,,
1388,0,,,,0.0,-0.02,0.99,0,0,-0,0.02,0,,,,,,,
1393,0,,,,-0.03,-0.03,1.02,0,0,-0,0.05,0,,,,,,,
1398,0,,,,-0.06,-0.03,0.99,0,1,-0,0.07,0,,,,,,,
1403,0,2.53,3.125,,-0.05,-0.02,0.97,0,0,-0,0.06,0,,,,,,,
1408,0,,,,-0.02,-0.01,1.01,0,-0,-0,0.03,0,,,,,,,
1413,0,,,,-0.01,-0.02,0.99,0,0,-0,0.02,0,,,,,,,
1418,0,,,,-0.0,-0.01,0.95,0,-0,-0,0.01,0,,,,,,,
1423,0,,,,-0.02,-0.02,1.0,0,-0,-0,0.03,0,,,,,,,
1428,0,,,,-0.03,-0.02,1.02,0,0,-0,0.04,0,,,,,,,
1433,0,,,,-0.05,-0.02,0.98,0,0,-0,0.06,0,,,,,,,
1438,0,,,,-0.05,-0.03,0.99,0,-0,-0,0.06,0,,,,,,,
1443,0,2.56,3.215,,-0.03,-0.02,1.03,0,0,-0,0.04,0,0.0,0.0,0.0,0.0,0,0,0.0
1448,0,,,,-0.01,-0.02,1.01,0,0,-0,0.02,0,,,,,,,
1453,0,,,,0.0,-0.02,0.99,0,-0,-0,0.02,0,,,,,,,
1458,0,,,,-0.0,-0.03,1.0,0,-0,-0,0.03,0,,,,,,,
1463,0,,,,-0.04,-0.05,1.02,0,0,-0,0.06,0,,,,,,,
1468,0,,,,-0.07,-0.04,0.99,0,0,-0,0.08,0,,,,,,,
1473,0,,,,-0.06,-0.04,0.98,0,-0,-0,0.07,0,,,,,,,
1478,0,,,,-0.02,-0.03,1.01,0,-0,-0,0.03,0,,,,,,,
1483,0,2.58,3.282,,-0.0,-0.03,0.99,0,0,-0,0.03,0,,,,,,,
1488,0,,,,-0.0,-0.03,0.95,0,-0,-0,0.03,0,,,,,,,
1493,0,,,,-0.02,-0.04,1.01,0,-0,-0,0.05,0,,,,,,,
1498,0,,,,-0.04,-0.04,1.0,0,0,-0,0.06,0,,,,,,,
1503,0,,,,-0.06,-0.04,0.97,0,0,-0,0.07,0,,,,,,,
1508,0,,,,-0.06,-0.04,0.99,0,-0,-0,0.07,0,,,,,,,
1513,0,,,,-0.03,-0.04,1.0,0,-0,-0,0.05,0,,,,,,,
1518,0,,,,-0.01,-0.03,0.99,0,-0,-0,0.04,0,,,,,,,
1523,0,2.6,3.147,,0.0,-0.03,0.97,0,-0,-0,0.03,0,,,,,,,
1528,0,,,,-0.02,-0.04,1.01,0,0,-0,0.05,0,,,,,,,
1533,0,,,,-0.05,-0.05,1.02,0,0,-0,0.07,0,,,,,,,
1538,0,,,,-0.07,-0.05,0.98,0,0,-0,0.09,0,,,,,,,
1543,0,,,,-0.06,-0.05,0.99,0,-0,-0,0.08,0,0.0,0.0,0.0,0.0,0,0,0.0
1548,0,,,,-0.02,-0.05,1.01,0,-0,-0,0.05,0,,,,,,,
1553,0,,,,-0.01,-0.04,0.97,0,0,-0,0.04,0,,,,,,,
1558,0,,,,-0.02,-0.04,0.96,0,-0,-0,0.04,0,,,,,,,
1563,0,2.56,2.896,,-0.03,-0.05,1.02,0,0,-0,0.06,0,,,,,,,
1568,0,,,,-0.05,-0.05,0.99,0,0,-0,0.07,0,,,,,,,
1573,0,,,,-0.06,-0.05,0.96,0,-0,-0,0.07,0,,,,,,,
1578,0,,,,-0.06,-0.05,1.0,0,-0,-0,0.07,0,,,,,,,
1583,0,,,,-0.02,-0.04,0.99,0,0,-0,0.05,0,,,,,,,
1588,0,,,,-0.01,-0.04,0.98,0,0,-0,0.04,0,,,,,,,
1593,0,,,,0.0,-0.04,0.96,0,0,0,0.04,0,,,,,,,
1598,0,,,,-0.03,-0.05,1.0,0,0,-0,0.06,0,,,,,,,
1603,0,2.61,2.626,,-0.06,-0.05,0.98,0,0,-0,0.08,0,,,,,,,
1608,0,,,,-0.06,-0.05,0.95,0,0,-0,0.08,0,,,,,,,
1613,0,,,,-0.04,-0.04,0.99,0,-0,0,0.06,0,,,,,,,
1618,0,,,,-0.02,-0.04,1.0,0,0,-0,0.05,0,,,,,,,
1623,0,,,,-0.01,-0.03,0.95,0,0,-0,0.03,0,,,,,,,
1628,0,,,,-0.02,-0.03,0.98,0,-0,0,0.04,0,,,,,,,
1633,0,,,,-0.03,-0.03,1.01,0,0,0,0.05,0,,,,,,,
1638,0,,,,-0.06,-0.03,0.99,0,0,-0,0.07,0,,,,,,,
1643,0,2.6,2.97,,-0.06,-0.03,0.98,0,-0,0,0.07,0,0.0,0.0,0.0,0.0,0,0,0.0
1648,0,,,,-0.05,-0.03,1.02,0,-0,0,0.06,0,,,,,,,
1653,0,,,,-0.02,-0.02,1.01,0,0,-0,0.03,0,,,,,,,
1658,0,,,,0.0,-0.02,0.99,0,-0,-0,0.02,0,,,,,,,
1663,0,,,,-0.01,-0.02,0.99,0,0,-0,0.02,0,,,,,,,
1668,0,,,,-0.04,-0.03,1.01,0,0,-0,0.05,0,,,,,,,
1673,0,,,,-0.06,-0.03,0.99,0,0,-0,0.07,0,,,,,,,
1678,0,,,,-0.06,-0.02,0.97,0,-0,-0,0.06,0,,,,,,,
1683,0,2.56,3.051,,-0.03,-0.02,1.0,0,-0,-0,0.03,0,,,,,,,
1688,0,,,,-0.01,-0.02,0.99,0,0,-0,0.02,0,,,,,,,
1693,0,,,,-0.0,-0.01,0.95,0,-0,-0,0.01,0,,,,,,,
1698,0,,,,-0.01,-0.01,0.99,0,-0,-0,0.02,0,,,,,,,
1703,0,,,,-0.03,-0.02,1.01,0,0,-0,0.03,0,,,,,,,
1708,0,,,,-0.05,-0.02,0.98,0,0,-0,0.05,0,,,,,,,
1713,0,,,,-0.05,-0.03,0.98,0,-0,-0,0.06,0,,,,,,,
1718,0,,,,-0.03,-0.02,1.02,0,-0,-0,0.04,0,,,,,,,
1723,0,2.55,3.141,,-0.01,-0.02,1.01,0,-0,-0,0.02,0,,,,,,,
1728,0,,,,0.01,-0.02,0.98,0,-0,-0,0.02,0,,,,,,,
1733,0,,,,-0.0,-0.03,0.98,0,0,-0,0.03,0,,,,,,,
1738,0,,,,-0.04,-0.04,1.02,0,0,-0,0.06,0,,,,,,,
1743,0,,,,-0.06,-0.03,0.99,0,1,-0,0.07,0,0.0,0.0,0.0,0.0,0,0,0.0
1748,0,,,,-0.05,-0.03,0.98,0,-0,-0,0.06,0,,,,,,,
1753,0,,,,-0.01,-0.02,1.02,0,-0,-0,0.02,0,,,,,,,
1758,0,,,,-0.0,-0.02,0.99,0,0,-0,0.02,0,,,,,,,
1763,0,2.55,3.176,,-0.0,-0.02,0.95,0,-0,-0,0.02,0,,,,,,,
1768,0,,,,-0.02,-0.03,1.01,0,-0,-0,0.03,0,,,,,,,
1773,0,,,,-0.04,-0.04,1.02,0,0,-0,0.06,0,,,,,,,
1778,0,,,,-0.06,-0.03,0.98,0,-0,-0,0.06,0,,,,,,,
1783,0,,,,-0.06,-0.03,1.0,0,-0,-0,0.07,0,,,,,,,
1788,0,,,,-0.02,-0.03,1.02,0,-0,-0,0.04,0,,,,,,,
1793,0,,,,-0.01,-0.03,1.0,0,-0,-0,0.03,0,,,,,,,
1798,0,,,,0.01,-0.02,0.98,0,-0,-0,0.02,0,,,,,,,
1803,0,2.55,3.146,,-0.01,-0.04,1.01,0,-0,-0,0.04,0,,,,,,,
1808,0,,,,-0.05,-0.05,1.03,0,0,-0,0.07,0,,,,,,,
1813,0,,,,-0.07,-0.04,0.99,0,0,-0,0.08,0,,,,,,,
1818,0,,,,-0.06,-0.04,1.0,0,-0,0,0.07,0,,,,,,,
1823,0,,,,-0.03,-0.03,1.03,0,-0,-0,0.04,0,,,,,,,
1828,0,,,,-0.01,-0.03,0.99,0,0,-0,0.03,0,,,,,,,
1833,0,,,,-0.01,-0.04,0.97,0,-0,-0,0.04,0,,,,,,,
1838,0,,,,-0.03,-0.04,1.03,0,-0,-0,0.05,0,,,,,,,
1843,0,2.53,3.044,,-0.05,-0.05,1.01,0,0,-0,0.07,0,0.0,0.0,0.0,0.0,0,0,0.0
1848,0,,,,-0.06,-0.04,0.98,0,-0,-0,0.07,0,,,,,,,
1853,0,,,,-0.06,-0.03,1.01,0,-0,0,0.07,0,,,,,,,
1858,0,,,,-0.02,-0.04,1.01,0,0,-0,0.04,0,,,,,,,
1863,0,,,,-0.0,-0.03,0.99,0,0,-0,0.03,0,,,,,,,
1868,0,,,,0.01,-0.02,0.97,0,0,-0,0.03,0,,,,,,,
1873,0,,,,-0.02,-0.04,1.01,0,0,-0,0.05,0,,,,,,,
1878,0,,,,-0.05,-0.05,1.0,0,0,-0,0.07,0,,,,,,,
1883,0,2.55,3.039,,-0.06,-0.04,0.97,0,0,-0,0.08,0,,,,,,,
1888,0,,,,-0.04,-0.04,1.0,0,-0,-0,0.06,0,,,,,,,
1893,0,,,,-0.02,-0.03,1.02,0,0,-0,0.04,0,,,,,,,
1898,0,,,,-0.01,-0.02,0.96,0,0,-0,0.02,0,,,,,,,
1903,0,,,,-0.02,-0.03,0.98,0,-0,0,0.04,0,,,,,,,
1908,0,,,,-0.03,-0.04,1.02,0,0,-0,0.05,0,,,,,,,
1913,0,,,,-0.06,-0.04,1.0,0,0,-0,0.07,0,,,,,,,
1918,0,,,,-0.06,-0.04,0.98,0,-0,-0,0.07,0,,,,,,,
1923,0,2.56,3.157,,-0.05,-0.03,1.03,0,-0,-0,0.06,0,,,,,,,
1928,0,,,,-0.02,-0.02,1.01,0,0,-0,0.03,0,,,,,,,
1933,0,,,,-0.0,-0.02,0.99,0,-0,-0,0.02,0,,,,,,,
1938,0,,,,-0.0,-0.03,0.99,0,0,0,0.03,0,,,,,,,
1943,0,,,,-0.04,-0.04,1.01,0,0,-0,0.05,0,0.0,0.0,0.0,0.0,0,0,0.0
1948,0,,,,-0.06,-0.04,0.99,0,0,-0,0.07,0,,,,,,,
1953,0,,,,-0.06,-0.03,0.96,0,0,0,0.07,0,,,,,,,
1958,0,,,,-0.03,-0.02,1.0,0,-0,0,0.04,0,,,,,,,
1963,0,2.56,3.294,,-0.02,-0.03,1.0,0,0,-0,0.03,0,,,,,,,
1968,0,,,,-0.01,-0.01,0.95,0,-0,-0,0.01,0,,,,,,,
1973,0,,,,-0.02,-0.02,1.0,0,-0,-0,0.03,0,,,,,,,
1978,0,,,,-0.03,-0.03,1.02,0,0,-0,0.04,0,,,,,,,
1983,0,,,,-0.06,-0.03,0.99,0,-0,-0,0.06,0,,,,,,,
1988,0,,,,-0.06,-0.03,0.99,0,-0,-0,0.07,0,,,,,,,
1993,0,,,,-0.03,-0.03,1.03,0,-0,-0,0.04,0,,,,,,,
1998,0,,,,-0.01,-0.02,1.01,0,-0,-0,0.02,0,,,,,,,
2003,0,2.56,3.151,,0.0,-0.01,0.98,0,-0,-0,0.01,0,,,,,,,
2008,0,,,,-0.01,-0.03,1.0,0,-0,-0,0.03,0,,,,,,,
2013,0,,,,-0.04,-0.04,1.02,0,0,-0,0.06,0,,,,,,,
2018,0,,,,-0.07,-0.03,0.99,0,0,-0,0.08,0,,,,,,,
2023,0,,,,-0.06,-0.03,0.98,0,-0,-0,0.07,0,,,,,,,
2028,0,,,,-0.02,-0.02,1.02,0,-0,-0,0.03,0,,,,,,,
2033,0,,,,-0.0,-0.02,0.99,0,0,-0,0.02,0,,,,,,,
2038,0,,,,-0.0,-0.02,0.95,0,-0,-0,0.02,0,,,,,,,
2043,0,2.56,3.022,13.38,-0.02,-0.03,1.01,0,0,-0,0.03,0,0.0,0.0,0.0,0.0,0,0,0.0
2048,0,,,,-0.04,-0.04,1.01,0,0,-0,0.06,0,,,,,,,
2053,0,,,,-0.05,-0.04,0.97,0,-0,-0,0.06,0,,,,,,,
2058,0,,,,-0.06,-0.04,0.99,0,-0,-0,0.07,0,,,,,,,
2063,0,,,,-0.02,-0.04,1.01,0,-0,-0,0.04,0,,,,,,,
2068,0,,,,-0.0,-0.03,0.99,0,-0,-0,0.03,0,,,,,,,
2073,0,,,,0.02,-0.03,0.97,0,0,-0,0.03,0,,,,,,,
2078,0,,,,-0.01,-0.04,1.0,0,0,-0,0.05,0,,,,,,,
2083,0,2.54,2.7,,-0.05,-0.05,1.01,0,0,-0,0.07,0,,,,,,,
2088,0,,,,-0.07,-0.05,0.98,0,0,-0,0.08,0,,,,,,,
2093,0,,,,-0.05,-0.05,0.99,0,-0,-0,0.07,0,,,,,,,
2098,0,,,,-0.02,-0.04,1.02,0,-0,-0,0.05,0,,,,,,,
2103,0,,,,-0.01,-0.03,0.97,0,0,-0,0.03,0,,,,,,,
2108,0,,,,-0.01,-0.04,0.96,0,-0,-0,0.04,0,,,,,,,
2113,0,,,,-0.02,-0.05,1.01,0,0,-0,0.05,0,,,,,,,
2118,0,,,,-0.04,-0.05,0.99,0,0,-0,0.07,0,,,,,,,
2123,0,2.55,3.043,,-0.05,-0.05,0.97,0,-0,-0,0.07,0,,,,,,,
2128,0,,,,-0.05,-0.04,1.01,0,-0,-0,0.07,0,,,,,,,
2133,0,,,,-0.01,-0.03,1.0,0,0,-0,0.04,0,,,,,,,
2138,0,,,,0.0,-0.03,0.98,0,0,-0,0.03,0,,,,,,,
2143,0,,,,0.01,-0.03,0.96,0,0,0,0.03,0,0.0,0.0,0.0,0.0,0,0,0.0
2148,0,,,,-0.02,-0.04,1.0,0,0,-0,0.05,0,,,,,,,
2153,0,,,,-0.05,-0.05,0.99,0,1,-0,0.07,0,,,,,,,
2158,0,,,,-0.05,-0.04,0.95,0,0,-0,0.07,0,,,,,,,
2163,0,2.56,3.116,,-0.03,-0.03,0.99,0,-0,-0,0.05,0,,,,,,,
2168,0,,,,-0.01,-0.03,0.99,0,0,-0,0.03,0,,,,,,,
2173,0,,,,0.0,-0.02,0.95,0,0,-0,0.02,0,,,,,,,
2178,0,,,,-0.01,-0.02,0.99,0,-0,-0,0.02,0,,,,,,,
2183,0,,,,-0.03,-0.03,1.01,0,0,-0,0.04,0,,,,,,,
2188,0,,,,-0.05,-0.03,0.98,0,0,-0,0.06,0,,,,,,,
2193,0,,,,-0.06,-0.03,0.98,0,-0,-0,0.06,0,,,,,,,
2198,0,,,,-0.04,-0.02,1.02,0,-0,-0,0.04,0,,,,,,,
2203,0,2.53,3.093,,-0.01,-0.01,1.01,0,-0,-0,0.02,0,,,,,,,
2208,0,,,,0.0,-0.01,0.98,0,-0,-0,0.01,0,,,,,,,
2213,0,,,,-0.01,-0.01,1.0,0,0,-0,0.02,0,,,,,,,
2218,0,,,,-0.04,-0.02,1.02,0,0,-0,0.05,0,,,,,,,
2223,0,,,,-0.07,-0.02,0.99,0,0,-0,0.07,0,,,,,,,
2228,0,,,,-0.06,-0.02,0.97,0,-0,-0,0.06,0,,,,,,,
2233,0,,,,-0.03,-0.01,1.01,0,-0,-0,0.03,0,,,,,,,
2238,0,,,,-0.01,-0.01,0.99,0,0,-0,0.02,0,,,,,,,
2243,0,2.56,3.16,,-0.0,-0.01,0.95,0,-0,-0,0.01,0,0.0,0.0,0.0,0.0,0,0,0.0
2248,0,,,,-0.02,-0.02,1.01,0,-0,-0,0.03,0,,,,,,,
2253,0,,,,-0.04,-0.03,1.01,0,0,-0,0.05,0,,,,,,,
2258,0,,,,-0.06,-0.02,0.98,0,-0,-0,0.06,0,,,,,,,
2263,0,,,,-0.06,-0.03,0.99,0,-0,-0,0.07,0,,,,,,,
2268,0,,,,-0.03,-0.03,1.01,0,-0,-0,0.04,0,,,,,,,
2273,0,,,,-0.0,-0.02,0.99,0,-0,-0,0.02,0,,,,,,,
2278,0,,,,0.01,-0.02,0.97,0,-0,-0,0.02,0,,,,,,,
2283,0,2.51,3.004,,-0.02,-0.04,1.01,0,-0,-0,0.04,0,,,,,,,
2288,0,,,,-0.05,-0.05,1.02,0,0,-0,0.07,0,,,,,,,
2293,0,,,,-0.07,-0.04,0.98,0,0,-0,0.08,0,,,,,,,
2298,0,,,,-0.06,-0.05,0.99,0,-0,-0,0.08,0,,,,,,,
2303,0,,,,-0.03,-0.03,1.02,0,-0,-0,0.04,0,,,,,,,
2308,0,,,,-0.01,-0.03,0.98,0,0,-0,0.03,0,,,,,,,
2313,0,,,,-0.01,-0.03,0.96,0,-0,-0,0.03,0,,,,,,,
2318,0,,,,-0.03,-0.04,1.02,0,0,-0,0.05,0,,,,,,,
2453,0,,,,-0.02,-0.03,1.01,0,0,-0,0.04,0,,,,,,,
2458,0,,,,-0.04,-0.03,1.01,0,0,-0,0.05,0,,,,,,,
2463,0,,,,-0.06,-0.03,0.97,0,0,-0,0.07,0,,,,,,,
2468,0,,,,-0.06,-0.04,0.99,0,-0,-0,0.07,0,,,,,,,
2473,0,,,,-0.02,-0.03,1.01,0,0,-0,0.03,0,,,,,,,
2478,0,,,,0.0,-0.02,0.98,0,0,-0,0.02,0,,,,,,,
2483,0,2.58,2.999,,0.02,-0.02,0.97,0,0,-0,0.03,0,,,,,,,
2488,0,,,,-0.01,-0.04,1.0,0,0,-0,0.04,0,,,,,,,
2493,0,,,,-0.05,-0.04,1.01,0,0,-0,0.07,0,,,,,,,
2498,0,,,,-0.07,-0.03,0.98,0,0,-0,0.08,0,,,,,,,
2503,0,,,,-0.05,-0.03,1.01,0,-0,-0,0.06,0,,,,,,,
2508,0,,,,-0.02,-0.03,1.03,0,0,-0,0.03,0,,,,,,,
2513,0,,,,-0.0,-0.02,0.97,0,0,-0,0.02,0,,,,,,,
2518,0,,,,-0.0,-0.02,0.98,0,-0,-0,0.02,0,,,,,,,
2523,0,2.6,3.102,,-0.02,-0.03,1.02,0,0,-0,0.04,0,,,,,,,
2528,0,,,,-0.05,-0.04,1.0,0,0,-0,0.06,0,,,,,,,
2533,0,,,,-0.05,-0.03,0.98,0,-0,-0,0.06,0,,,,,,,
2538,0,,,,-0.04,-0.03,1.02,0,-0,-0,0.05,0,,,,,,,
2543,0,,,,-0.0,-0.03,1.01,0,-0,-0,0.03,0,0.0,0.0,0.0,0.0,0,0,0.0
2548,0,,,,0.01,-0.02,0.99,0,-0,-0,0.03,0,,,,,,,
2648,0,,,,-0.0,-0.01,0.96,0,0,-0,0.01,0,,,,,,,
2653,0,,,,-0.01,-0.02,0.98,0,-0,-0,0.02,0,,,,,,,
2658,0,,,,-0.03,-0.04,1.02,0,0,-0,0.04,0,,,,,,,
2663,0,,,,-0.05,-0.04,0.99,0,0,-0,0.07,0,,,,,,,
2668,0,,,,-0.06,-0.03,0.98,0,-0,-0,0.07,0,,,,,,,
2673,0,,,,-0.05,-0.03,1.03,0,-0,-0,0.06,0,,,,,,,
2678,0,,,,-0.01,-0.02,1.0,0,-0,-0,0.03,0,,,,,,,
2683,0,2.55,2.984,,0.0,-0.02,0.99,0,-0,-0,0.02,0,,,,,,,
2688,0,,,,-0.01,-0.02,1.0,0,0,-0,0.03,0,,,,,,,
2693,0,,,,-0.04,-0.03,1.02,0,0,-0,0.05,0,,,,,,,
2698,0,,,,-0.07,-0.04,0.99,0,0,-0,0.08,0,,,,,,,
2798,0,,,,-0.05,-0.06,0.95,0,0,-0,0.08,0,,,,,,,
2803,0,2.54,2.886,,-0.06,-0.06,0.94,0,-0,-0,0.08,0,,,,,,,
2808,0,,,,-0.04,-0.05,0.98,0,-0,-0,0.06,0,,,,,,,
2813,0,,,,-0.01,-0.04,0.97,0,-0,-0,0.04,0,,,,,,,
2818,0,,,,0.01,-0.03,0.95,0,-0,-0,0.04,0,,,,,,,
2823,0,,,,-0.01,-0.05,0.97,0,0,-0,0.05,0,,,,,,,
2828,0,,,,-0.04,-0.05,0.99,0,0,-0,0.06,0,,,,,,,
2833,0,,,,-0.07,-0.05,0.97,0,1,-0,0.09,0,,,,,,,
2838,0,,,,-0.06,-0.05,0.95,0,0,-0,0.08,0,,,,,,,
2843,0,2.55,3.034,,-0.02,-0.04,0.99,0,-0,-0,0.05,0,0.0,0.0,0.0,0.0,0,0,0.0
2943,0,,,,-0.04,-0.04,1.02,0,-0,-0,0.05,0,0.0,0.0,0.0,0.0,0,0,0.0
2948,0,,,,-0.0,-0.03,1.0,0,-0,-0,0.03,0,,,,,,,
2953,0,,,,0.01,-0.03,0.98,0,-0,-0,0.03,0,,,,,,,
2958,0,,,,0.0,-0.04,0.99,0,0,-0,0.04,0,,,,,,,
2963,0,2.55,3.051,,-0.04,-0.04,1.02,0,0,-0,0.05,0,,,,,,,
2968,0,,,,-0.07,-0.04,0.99,0,1,-0,0.08,0,,,,,,,
2973,0,,,,-0.06,-0.04,0.96,0,-0,-0,0.07,0,,,,,,,
2978,0,,,,-0.02,-0.03,1.0,0,-0,-0,0.04,0,,,,,,,
2983,0,,,,-0.0,-0.03,0.97,0,0,-0,0.03,0,,,,,,,
2988,0,,,,-0.0,-0.02,0.94,0,-0,-0,0.02,0,,,,,,,
3088,0,,,,0.0,-0.05,0.98,0,0,-0,0.05,0,,,,,,,
3093,0,,,,-0.0,-0.05,0.99,0,0,-0,0.05,0,,,,,,,
3098,0,,,,-0.04,-0.06,1.02,0,1,-0,0.07,0,,,,,,,
3103,0,,,,-0.07,-0.06,0.98,0,1,-0,0.09,0,,,,,,,
3108,0,,,,-0.07,-0.06,0.96,0,-0,-0,0.09,0,,,,,,,
3113,0,,,,-0.02,-0.05,1.0,0,-0,-0,0.05,0,,,,,,,
3118,0,,,,0.0,-0.05,0.96,0,0,-0,0.05,0,,,,,,,
3123,0,2.47,3.04,,0.0,-0.04,0.93,0,0,-0,0.04,0,,,,,,,
3128,0,,,,-0.01,-0.04,1.0,0,0,-0,0.05,0,,,,,,,
3133,0,,,,-0.05,-0.04,0.99,0,1,-1,0.06,0,,,,,,,
3138,0,,,,-0.07,-0.03,0.95,0,0,-0,0.07,0,,,,,,,
3238,0,,,,-0.07,-0.03,0.98,0,0,-0,0.08,0,,,,,,,
3243,0,2.51,2.999,,-0.06,-0.03,0.98,0,-0,-0,0.07,0,0.0,0.0,0.0,0.0,0,0,0.0
3248,0,,,,-0.03,-0.02,1.01,0,-0,-0,0.03,0,,,,,,,
3253,0,,,,-0.0,-0.02,0.97,0,0,-0,0.02,0,,,,,,,
3258,0,,,,0.0,-0.02,0.94,0,-0,-0,0.02,0,,,,,,,
3263,0,,,,-0.02,-0.03,1.01,0,0,-0,0.04,0,,,,,,,
3268,0,,,,-0.05,-0.03,0.99,0,0,-0,0.06,0,,,,,,,
3273,0,,,,-0.06,-0.03,0.97,0,0,-0,0.07,0,,,,,,,
3278,0,,,,-0.06,-0.03,1.0,0,0,-0,0.07,0,,,,,,,
3283,0,2.53,3.015,,-0.0,-0.03,1.0,0,0,-0,0.03,0,,,,,,,
3288,0,,,,0.01,-0.02,0.97,0,0,-0,0.02,0,,,,,,,
3293,0,,,,0.02,-0.02,0.96,0,0,-0,0.03,0,,,,,,,
3298,0,,,,-0.02,-0.05,1.01,0,0,-0,0.05,0,,,,,,,
3303,0,,,,-0.05,-0.05,0.99,0,1,-0,0.07,0,,,,,,,
3308,0,,,,-0.06,-0.04,0.97,0,0,-0,0.08,0,,,,,,,
3313,0,,,,-0.03,-0.04,1.0,0,-0,-0,0.05,0,,,,,,,
3318,0,,,,-0.01,-0.03,1.01,0,0,-0,0.03,0,,,,,,,
3323,0,2.49,3.117,,0.01,-0.02,0.95,0,0,-0,0.03,0,,,,,,,
3328,0,,,,0.0,-0.03,0.99,0,0,-0,0.03,0,,,,,,,
3333,0,,,,-0.02,-0.04,1.02,0,0,-0,0.04,0,,,,,,,
3338,0,,,,-0.05,-0.04,0.99,0,0,-0,0.06,0,,,,,,,
3343,0,,,,-0.06,-0.04,0.98,0,-0,-0,0.07,0,0.0,0.0,0.0,0.0,0,0,0.0
3348,0,,,,-0.03,-0.04,1.02,0,-0,-0,0.05,0,,,,,,,
3353,0,,,,0.0,-0.04,1.0,0,0,-0,0.04,0,,,,,,,
3358,0,,,,0.01,-0.03,0.98,0,-0,-0,0.03,0,,,,,,,
3363,0,2.53,2.95,,-0.0,-0.04,1.0,0,0,-0,0.04,0,,,,,,,
3368,0,,,,-0.04,-0.05,1.02,0,1,-0,0.07,0,,,,,,,
3373,0,,,,-0.07,-0.05,0.98,0,1,-0,0.09,0,,,,,,,
3378,0,,,,-0.06,-0.05,0.98,0,-0,-0,0.08,0,,,,,,,
3383,0,,,,-0.02,-0.04,1.02,0,0,-0,0.05,0,,,,,,,
3388,0,,,,0.0,-0.04,0.97,0,0,-0,0.04,0,,,,,,,
3393,0,,,,0.01,-0.04,0.95,0,-0,-0,0.04,0,,,,,,,
3398,0,,,,-0.02,-0.05,1.02,0,0,-0,0.06,0,,,,,,,
3403,0,2.57,2.745,,-0.05,-0.05,1.0,0,1,-1,0.07,0,,,,,,,
3408,0,,,,-0.07,-0.04,0.98,0,0,-0,0.08,0,,,,,,,
3413,0,,,,-0.06,-0.04,1.0,0,-0,-0,0.07,0,,,,,,,
3418,0,,,,-0.01,-0.04,1.0,0,0,-0,0.04,0,,,,,,,
3423,0,,,,0.01,-0.03,0.98,0,0,-0,0.03,0,,,,,,,
3428,0,,,,0.02,-0.03,0.96,0,0,-0,0.03,0,,,,,,,
3433,0,,,,-0.02,-0.04,1.01,0,0,-0,0.05,0,,,,,,,
3438,0,,,,-0.06,-0.04,0.99,0,1,-0,0.07,0,,,,,,,
3443,0,2.6,2.861,,-0.07,-0.03,0.96,0,0,-0,0.08,0,0.0,0.0,0.0,0.0,0,0,0.0
3448,0,,,,-0.04,-0.03,1.0,0,-0,-0,0.05,0,,,,,,,
3453,0,,,,-0.01,-0.03,1.01,0,0,-0,0.03,0,,,,,,,
3458,0,,,,-0.0,-0.02,0.95,0,-0,-0,0.02,0,,,,,,,
3463,0,,,,-0.01,-0.02,0.99,0,-0,-0,0.02,0,,,,,,,
3468,0,,,,-0.02,-0.02,1.01,0,0,-0,0.03,0,,,,,,,
3473,0,,,,-0.05,-0.04,0.98,0,0,-0,0.06,0,,,,,,,
3478,0,,,,-0.06,-0.04,0.98,0,-0,-0,0.07,0,,,,,,,
3483,0,2.6,2.872,,-0.03,-0.03,1.03,0,-0,-0,0.05,0,,,,,,,
3488,0,,,,-0.0,-0.03,1.01,0,-0,-0,0.03,0,,,,,,,
3493,0,,,,0.01,-0.02,0.98,0,-0,-0,0.02,0,,,,,,,
3498,0,,,,-0.0,-0.03,1.0,0,-0,-0,0.03,0,,,,,,,
3503,0,,,,-0.05,-0.04,1.02,0,0,-0,0.06,0,,,,,,,
3508,0,,,,-0.08,-0.04,0.99,0,0,-0,0.09,0,,,,,,,
3513,0,,,,-0.06,-0.04,0.99,0,-0,-0,0.07,0,,,,,,,
3518,0,,,,-0.02,-0.03,1.02,0,-0,-0,0.04,0,,,,,,,
3523,0,2.61,3.063,,0.0,-0.03,0.97,0,0,-0,0.03,0,,,,,,,
3528,0,,,,0.0,-0.03,0.95,0,-0,-0,0.03,0,,,,,,,
3533,0,,,,-0.02,-0.04,1.02,0,0,-0,0.04,0,,,,,,,
3538,0,,,,-0.04,-0.04,1.0,0,1,-0,0.06,0,,,,,,,
3543,0,,,,-0.06,-0.04,0.97,0,0,-0,0.07,0,0.0,0.0,0.0,0.0,0,0,0.0
3548,0,,,,-0.05,-0.04,0.99,0,-0,-0,0.07,0,,,,,,,
3553,0,,,,-0.01,-0.04,1.0,0,0,-0,0.04,0,,,,,,,
3558,0,,,,0.01,-0.03,0.97,0,0,-0,0.03,0,,,,,,,
3563,0,2.67,2.841,,0.02,-0.03,0.96,0,0,-0,0.03,0,,,,,,,
3568,0,,,,-0.02,-0.04,1.01,0,0,-0,0.05,0,,,,,,,
3573,0,,,,-0.06,-0.05,0.99,0,0,-0,0.07,0,,,,,,,
3578,0,,,,-0.06,-0.04,0.97,0,-0,-0,0.07,0,,,,,,,
3583,0,,,,-0.03,-0.03,1.0,0,-0,-0,0.05,0,,,,,,,
3588,0,,,,-0.01,-0.03,1.0,0,0,-0,0.03,0,,,,,,,
3593,0,,,,0.01,-0.02,0.95,0,-0,-0,0.02,0,,,,,,,
3598,0,,,,-0.01,-0.02,1.0,0,-0,-0,0.02,0,,,,,,,
3603,0,2.64,2.839,,-0.03,-0.02,1.01,0,0,-0,0.04,0,,,,,,,
3608,0,,,,-0.05,-0.03,0.98,0,0,-0,0.06,0,,,,,,,
3613,0,,,,-0.06,-0.03,0.99,0,-0,-0,0.07,0,,,,,,,
3618,0,,,,-0.03,-0.02,1.02,0,-0,-0,0.03,0,,,,,,,
3623,0,,,,-0.0,-0.02,1.01,0,0,-0,0.02,0,,,,,,,
3628,0,,,,0.02,-0.01,0.97,0,-0,-0,0.02,0,,,,,,,
3633,0,,,,0.0,-0.02,0.99,0,0,-0,0.02,0,,,,,,,
3638,0,,,,-0.04,-0.03,1.01,0,0,-0,0.05,0,,,,,,,
3643,0,2.62,2.809,,-0.07,-0.03,0.97,0,1,-0,0.07,0,0.0,0.0,0.0,0.0,0,0,0.0
3648,0,,,,-0.05,-0.03,0.97,0,-0,-0,0.06,0,,,,,,,
3653,0,,,,-0.01,-0.02,1.01,0,0,-0,0.03,0,,,,,,,
3658,0,,,,0.01,-0.02,0.96,0,0,-0,0.02,0,,,,,,,
3663,0,,,,0.0,-0.02,0.94,0,0,-0,0.02,0,,,,,,,
3668,0,,,,-0.02,-0.03,1.01,0,0,-0,0.04,0,,,,,,,
3673,0,,,,-0.05,-0.03,1.0,0,1,-0,0.06,0,,,,,,,
3678,0,,,,-0.06,-0.02,0.97,0,0,-0,0.07,0,,,,,,,
3683,0,2.57,2.873,,-0.06,-0.03,1.0,0,-0,-0,0.07,0,,,,,,,
3688,0,,,,-0.0,-0.03,1.01,0,0,-0,0.03,0,,,,,,,
3693,0,,,,0.01,-0.02,0.99,0,0,-0,0.02,0,,,,,,,
3698,0,,,,0.01,-0.01,0.97,0,-0,-0,0.02,0,,,,,,,
3703,0,,,,-0.03,-0.03,1.01,0,0,-0,0.04,0,,,,,,,
3708,0,,,,-0.06,-0.03,0.99,0,0,-0,0.07,0,,,,,,,
3713,0,,,,-0.07,-0.02,0.97,0,-0,-0,0.07,0,,,,,,,
3718,0,,,,-0.03,-0.02,1.01,0,-0,-0,0.04,0,,,,,,,
3723,0,2.56,3.176,,-0.01,-0.02,1.0,0,0,-0,0.02,0,,,,,,,
3728,0,,,,0.0,-0.0,0.95,0,-0,-0,0.0,0,,,,,,,
3733,0,,,,-0.0,-0.0,1.0,0,-0,-0,0.01,0,,,,,,,
3738,0,,,,-0.03,-0.01,1.01,0,0,-0,0.03,0,,,,,,,
3743,0,,,,-0.05,-0.02,0.98,0,-0,-0,0.06,0,0.0,0.0,0.0,0.0,0,0,0.0
3748,0,,,,-0.07,-0.03,1.0,0,-0,-0,0.07,0,,,,,,,
3753,0,,,,-0.02,-0.02,1.01,0,-0,-0,0.03,0,,,,,,,
3758,0,,,,0.0,-0.02,1.0,0,-0,-0,0.02,0,,,,,,,
3763,0,2.58,3.039,,0.02,-0.01,0.97,0,-0,-0,0.02,0,,,,,,,
3768,0,,,,0.0,-0.03,1.0,0,-0,-0,0.03,0,,,,,,,
3773,0,,,,-0.05,-0.04,1.01,0,0,-0,0.06,0,,,,,,,
3778,0,,,,-0.07,-0.03,0.98,0,-0,-0,0.08,0,,,,,,,
3783,0,,,,-0.05,-0.04,1.01,0,-1,0,0.07,0,,,,,,,
3788,0,,,,-0.03,-0.03,1.03,0,-0,0,0.04,0,,,,,,,
3793,0,,,,0.0,-0.02,0.97,0,-0,-0,0.02,0,,,,,,,
3798,0,,,,-0.0,-0.03,0.98,0,-0,0,0.03,0,,,,,,,
3803,0,2.58,2.989,,-0.02,-0.04,1.03,0,0,0,0.05,0,,,,,,,
3808,0,,,,-0.06,-0.04,1.0,0,0,-0,0.07,0,,,,,,,
3813,0,,,,-0.07,-0.03,0.98,0,-0,0,0.07,0,,,,,,,
3818,0,,,,-0.05,-0.03,1.03,0,-0,0,0.06,0,,,,,,,
3823,0,,,,-0.0,-0.03,1.01,0,-0,-0,0.03,0,,,,,,,
3828,0,,,,0.01,-0.02,1.0,0,-0,-0,0.02,0,,,,,,,
3833,0,,,,0.0,-0.02,1.01,0,0,-0,0.02,0,,,,,,,
3838,0,,,,-0.04,-0.04,1.03,0,0,-0,0.05,0,,,,,,,
3843,0,2.57,2.936,,-0.07,-0.04,1.0,0,1,-0,0.09,0,0.0,0.0,0.0,0.0,0,0,0.0
3848,0,,,,-0.06,-0.05,0.98,0,-0,0,0.08,0,,,,,,,
3853,0,,,,-0.03,-0.04,1.02,0,-0,0,0.05,0,,,,,,,
3858,0,,,,0.0,-0.04,0.97,0,0,-0,0.04,0,,,,,,,
3863,0,,,,0.01,-0.03,0.94,0,0,-0,0.03,0,,,,,,,
3868,0,,,,-0.01,-0.03,1.01,0,0,-0,0.03,0,,,,,,,
3873,0,,,,-0.05,-0.04,1.0,0,1,-0,0.06,0,,,,,,,
3878,0,,,,-0.06,-0.03,0.96,0,0,-0,0.07,0,,,,,,,
3883,0,2.58,2.885,,-0.06,-0.04,1.01,0,-0,0,0.08,0,,,,,,,
3888,0,,,,-0.01,-0.04,1.0,0,0,-0,0.04,0,,,,,,,
3893,0,,,,0.01,-0.03,0.97,0,0,-0,0.04,0,,,,,,,
3898,0,,,,0.03,-0.03,0.96,0,0,0,0.04,0,,,,,,,
3903,0,,,,-0.01,-0.05,1.0,0,0,0,0.05,0,,,,,,,
3908,0,,,,-0.05,-0.05,0.98,0,1,-0,0.08,0,,,,,,,
3913,0,,,,-0.06,-0.04,0.96,0,0,-0,0.08,0,,,,,,,
3918,0,,,,-0.03,-0.04,1.0,0,-0,-0,0.05,0,,,,,,,
3923,0,2.6,3.16,,-0.0,-0.04,1.0,0,0,-0,0.04,0,,,,,,,
3928,0,,,,0.02,-0.03,0.94,0,0,-0,0.03,0,,,,,,,
3933,0,,,,0.01,-0.02,1.0,0,-0,-0,0.02,0,,,,,,,
3938,0,,,,-0.02,-0.03,1.02,0,0,-0,0.04,0,,,,,,,
3943,0,,,,-0.05,-0.03,0.98,0,0,-0,0.06,0,0.0,0.0,0.0,0.0,0,0,0.0
3948,0,,,,-0.06,-0.04,0.98,0,-0,-0,0.08,0,,,,,,,
3953,0,,,,-0.03,-0.04,1.01,0,-0,-0,0.05,0,,,,,,,
3958,0,,,,-0.0,-0.04,1.0,0,0,-0,0.04,0,,,,,,,
3963,0,2.6,3.004,,0.02,-0.03,0.97,0,-0,-0,0.03,0,,,,,,,
3968,0,,,,-0.01,-0.04,1.01,0,0,-0,0.04,0,,,,,,,
3973,0,,,,-0.05,-0.04,1.02,0,0,-0,0.06,0,,,,,,,
3978,0,,,,-0.07,-0.03,0.98,0,0,-0,0.08,0,,,,,,,
3983,0,,,,-0.06,-0.04,1.0,0,-0,-0,0.07,0,,,,,,,
3988,0,,,,-0.02,-0.03,1.02,0,-0,-0,0.04,0,,,,,,,
3993,0,,,,-0.0,-0.03,0.97,0,0,-0,0.03,0,,,,,,,
3998,0,,,,-0.0,-0.03,0.97,0,-0,-0,0.03,0,,,,,,,
4003,0,2.57,2.81,,-0.02,-0.04,1.03,0,0,-0,0.05,0,,,,,,,
4008,0,,,,-0.06,-0.04,1.0,0,0,-0,0.08,0,,,,,,,
4013,0,,,,-0.07,-0.03,0.97,0,-0,-0,0.08,0,,,,,,,
4018,0,,,,-0.06,-0.04,1.02,0,-0,0,0.07,0,,,,,,,
4023,0,,,,-0.01,-0.03,1.01,0,0,-0,0.03,0,,,,,,,
4028,0,,,,0.01,-0.03,0.98,0,0,-0,0.03,0,,,,,,,
4033,0,,,,0.01,-0.03,0.99,0,0,0,0.03,0,,,,,,,
4038,0,,,,-0.03,-0.04,1.02,0,0,-0,0.05,0,,,,,,,
4043,0,2.6,3.105,13.36,-0.07,-0.05,0.99,0,1,-0,0.09,0,0.0,0.0,0.0,0.0,0,0,0.0
4048,0,,,,-0.06,-0.05,0.97,0,-0,-0,0.08,0,,,,,,,
4053,0,,,,-0.03,-0.04,1.01,0,-0,-0,0.05,0,,,,,,,
4058,0,,,,-0.0,-0.04,0.99,0,0,-0,0.04,0,,,,,,,
4063,0,,,,0.0,-0.03,0.94,0,-0,-0,0.03,0,,,,,,,
4068,0,,,,-0.01,-0.03,1.0,0,-0,-0,0.03,0,,,,,,,
4073,0,,,,-0.04,-0.03,1.01,0,0,-0,0.05,0,,,,,,,
4078,0,,,,-0.06,-0.04,0.97,0,-0,-0,0.07,0,,,,,,,
4083,0,2.57,2.841,,-0.08,-0.05,0.99,0,-0,-0,0.09,0,,,,,,,
4088,0,,,,-0.02,-0.04,0.99,0,-0,-0,0.04,0,,,,,,,
4093,0,,,,-0.0,-0.04,0.98,0,-0,-0,0.04,0,,,,,,,
4098,0,,,,0.02,-0.02,0.96,0,0,-0,0.03,0,,,,,,,
4103,0,,,,-0.01,-0.04,1.0,0,0,-0,0.04,0,,,,,,,
4108,0,,,,-0.06,-0.04,1.01,0,0,-0,0.07,0,,,,,,,
4113,0,,,,-0.08,-0.03,0.97,0,0,-0,0.09,0,,,,,,,
4118,0,,,,-0.06,-0.04,1.0,0,-0,-0,0.07,0,,,,,,,
4123,0,2.59,3.151,,-0.02,-0.03,1.02,0,0,-0,0.04,0,,,,,,,
4128,0,,,,-0.0,-0.02,0.96,0,0,-0,0.02,0,,,,,,,
4133,0,,,,-0.01,-0.03,0.97,0,-0,-0,0.03,0,,,,,,,
4138,0,,,,-0.02,-0.04,1.02,0,0,-0,0.05,0,,,,,,,
4143,0,,,,-0.05,-0.04,0.99,0,0,-0,0.07,0,0.0,0.0,0.0,0.0,0,0,0.0
4148,0,,,,-0.06,-0.04,0.98,0,-0,-0,0.07,0,,,,,,,
4153,0,,,,-0.04,-0.04,1.03,0,-0,-0,0.06,0,,,,,,,
4158,0,,,,-0.0,-0.03,1.01,0,-0,-0,0.03,0,,,,,,,
4163,0,2.6,2.989,,0.01,-0.03,0.99,0,-0,-0,0.03,0,,,,,,,
4168,0,,,,0.0,-0.03,1.0,0,0,-0,0.03,0,,,,,,,
4173,0,,,,-0.04,-0.04,1.02,0,0,-0,0.05,0,,,,,,,
4178,0,,,,-0.07,-0.05,0.99,0,0,-0,0.09,0,,,,,,,
4183,0,,,,-0.06,-0.05,0.97,0,-0,-0,0.08,0,,,,,,,
4188,0,,,,-0.03,-0.04,1.01,0,-0,-0,0.05,0,,,,,,,
4193,0,,,,-0.0,-0.04,0.97,0,0,-0,0.04,0,,,,,,,
4198,0,,,,0.0,-0.03,0.94,0,0,-0,0.03,0,,,,,,,
4203,0,2.57,2.815,,-0.02,-0.03,1.0,0,0,-0,0.04,0,,,,,,,
4208,0,,,,-0.04,-0.04,1.0,0,1,-0,0.06,0,,,,,,,
4213,0,,,,-0.06,-0.04,0.96,0,0,-0,0.07,0,,,,,,,
4218,0,,,,-0.06,-0.05,0.99,0,-0,-0,0.08,0,,,,,,,
4223,0,,,,-0.01,-0.04,1.0,0,0,-0,0.04,0,,,,,,,
4228,0,,,,0.0,-0.03,0.97,0,0,-0,0.03,0,,,,,,,
4233,0,,,,0.02,-0.03,0.96,0,0,-0,0.03,0,,,,,,,
4238,0,,,,-0.01,-0.05,1.0,0,0,0,0.05,0,,,,,,,
4243,0,2.55,2.69,,-0.05,-0.06,1.0,0,0,-0,0.08,0,0.0,0.0,0.0,0.0,0,0,0.0
4248,0,,,,-0.07,-0.04,0.98,0,0,-0,0.09,0,,,,,,,
4253,0,,,,-0.05,-0.05,1.0,0,-0,-0,0.07,0,,,,,,,
4258,0,,,,-0.02,-0.04,1.02,0,0,-0,0.04,0,,,,,,,
4263,0,,,,0.0,-0.03,0.96,0,-0,-0,0.03,0,,,,,,,
4268,0,,,,0.0,-0.04,0.98,0,-0,-0,0.04,0,,,,,,,
4273,0,,,,-0.02,-0.05,1.02,0,0,-0,0.05,0,,,,,,,
4278,0,,,,-0.04,-0.06,0.99,0,0,-0,0.07,0,,,,,,,
4283,0,2.57,2.844,,-0.05,-0.05,0.98,0,-0,-0,0.07,0,,,,,,,
4288,0,,,,-0.04,-0.05,1.03,0,-0,-0,0.06,0,,,,,,,
4293,0,,,,-0.01,-0.04,1.02,0,-0,-0,0.04,0,,,,,,,
4298,0,,,,0.01,-0.03,0.98,0,-0,-0,0.03,0,,,,,,,
4303,0,,,,-0.0,-0.04,1.0,0,-0,-0,0.04,0,,,,,,,
4308,0,,,,-0.04,-0.04,1.02,0,0,-0,0.06,0,,,,,,,
4313,0,,,,-0.07,-0.04,0.99,0,0,-0,0.08,0,,,,,,,
4318,0,,,,-0.06,-0.04,0.98,0,-0,-0,0.07,0,,,,,,,
4323,0,2.59,3.078,,-0.02,-0.03,1.01,0,-0,-0,0.04,0,,,,,,,
4328,0,,,,0.0,-0.03,0.97,0,0,-0,0.03,0,,,,,,,
4333,0,,,,0.0,-0.03,0.95,0,-0,-0,0.03,0,,,,,,,
4338,0,,,,-0.02,-0.03,1.01,0,0,-0,0.03,0,,,,,,,
4343,0,,,,-0.05,-0.03,1.0,0,0,-0,0.06,0,0.0,0.0,0.0,0.0,0,0,0.0
4348,0,,,,-0.07,-0.03,0.96,0,0,-0,0.07,0,,,,,,,
4353,0,,,,-0.07,-0.04,0.99,0,-0,-0,0.08,0,,,,,,,
4358,0,,,,-0.01,-0.03,1.0,0,0,-0,0.03,0,,,,,,,
4363,0,2.59,3.019,,0.01,-0.02,0.97,0,0,-0,0.03,0,,,,,,,
4368,0,,,,0.02,-0.02,0.96,0,-0,-0,0.03,0,,,,,,,
4373,0,,,,-0.01,-0.04,1.0,0,0,-0,0.04,0,,,,,,,
4378,0,,,,-0.05,-0.05,1.0,0,0,-0,0.07,0,,,,,,,
4383,0,,,,-0.07,-0.04,0.97,0,-0,-0,0.08,0,,,,,,,
4388,0,,,,-0.04,-0.04,1.01,0,-1,-0,0.06,0,,,,,,,
4393,0,,,,-0.01,-0.04,1.01,0,-0,-0,0.04,0,,,,,,,
4398,0,,,,0.01,-0.03,0.95,0,-0,-0,0.03,0,,,,,,,
4403,0,2.58,2.872,,0.0,-0.03,0.99,0,-0,-0,0.03,0,,,,,,,
4408,0,,,,-0.02,-0.04,1.02,0,0,-0,0.05,0,,,,,,,
4413,0,,,,-0.05,-0.05,0.98,0,-0,-0,0.07,0,,,,,,,
4418,0,,,,-0.06,-0.05,0.98,0,-0,-0,0.08,0,,,,,,,
4423,0,,,,-0.03,-0.05,1.02,0,-0,-0,0.06,0,,,,,,,
4428,0,,,,-0.0,-0.04,1.01,0,-0,-0,0.04,0,,,,,,,
4433,0,,,,0.02,-0.03,0.98,0,-0,-0,0.03,0,,,,,,,
4438,0,,,,0.0,-0.03,1.01,0,-0,-0,0.03,0,,,,,,,
4443,0,2.53,2.914,,-0.04,-0.04,1.03,0,0,-0,0.05,0,0.0,0.0,0.0,0.0,0,0,0.0
4448,0,,,,-0.06,-0.04,0.99,0,0,-0,0.08,0,,,,,,,
4453,0,,,,-0.05,-0.04,0.99,0,-0,-0,0.07,0,,,,,,,
4458,0,,,,-0.02,-0.03,1.02,0,-0,-0,0.04,0,,,,,,,
4463,0,,,,0.0,-0.03,0.97,0,0,-0,0.03,0,,,,,,,
4468,0,,,,0.01,-0.03,0.95,0,-0,-0,0.03,0,,,,,,,
4613,0,,,,-0.06,-0.04,1.01,0,0,-0,0.07,0,,,,,,,
4618,0,,,,-0.06,-0.04,0.98,0,-0,-0,0.07,0,,,,,,,
4623,0,,,,-0.06,-0.04,1.02,0,-0,-0,0.07,0,,,,,,,
4628,0,,,,-0.0,-0.03,1.01,0,-0,-0,0.03,0,,,,,,,
4633,0,,,,0.01,-0.02,0.99,0,-0,-0,0.02,0,,,,,,,
4638,0,,,,0.01,-0.02,0.99,0,0,-0,0.02,0,,,,,,,
4643,0,2.57,2.731,,-0.04,-0.04,1.01,0,0,-0,0.05,0,0.0,0.0,0.0,0.0,0,0,0.0
4648,0,,,,-0.07,-0.05,0.99,0,0,-0,0.09,0,,,,,,,
4653,0,,,,-0.07,-0.04,0.97,0,-0,0,0.08,0,,,,,,,
4658,0,,,,-0.03,-0.03,1.01,0,-0,-0,0.05,0,,,,,,,
4663,0,,,,-0.0,-0.03,0.97,0,0,-0,0.03,0,,,,,,,
4668,0,,,,0.0,-0.02,0.93,0,-0,-0,0.02,0,,,,,,,
4673,0,,,,-0.01,-0.03,0.99,0,0,0,0.03,0,,,,,,,
4678,0,,,,-0.05,-0.03,1.0,0,0,-0,0.06,0,,,,,,,
4683,0,2.57,2.652,,-0.06,-0.04,0.96,0,-0,-0,0.07,0,,,,,,,
4688,0,,,,-0.08,-0.04,1.0,0,-0,0,0.09,0,,,,,,,
4693,0,,,,-0.01,-0.04,0.99,0,-0,0,0.04,0,,,,,,,
4698,0,,,,0.01,-0.03,0.98,0,-0,0,0.03,0,,,,,,,
4703,0,,,,0.02,-0.02,0.95,0,0,0,0.03,0,,,,,,,
4708,0,,,,-0.01,-0.05,1.0,0,0,0,0.06,0,,,,,,,
4808,0,,,,-0.01,-0.03,1.02,0,0,-0,0.03,0,,,,,,,
4813,0,,,,-0.06,-0.03,0.99,0,0,-0,0.07,0,,,,,,,
4818,0,,,,-0.08,-0.02,0.95,0,-0,-0,0.08,0,,,,,,,
4823,0,,,,-0.07,-0.03,1.02,0,-0,-0,0.07,0,,,,,,,
4828,0,,,,-0.0,-0.01,1.0,0,0,-0,0.02,0,,,,,,,
4833,0,,,,0.02,-0.01,0.97,0,0,-0,0.02,0,,,,,,,
4838,0,,,,0.02,-0.02,0.97,0,0,-0,0.03,0,,,,,,,
4843,0,2.58,2.785,,-0.03,-0.04,1.01,0,1,-0,0.05,0,0.0,0.0,0.0,0.0,0,0,0.0
4848,0,,,,-0.08,-0.05,0.98,0,1,0,0.09,0,,,,,,,
4853,0,,,,-0.07,-0.04,0.96,0,-0,0,0.09,0,,,,,,,
4858,0,,,,-0.03,-0.04,1.01,0,-0,0,0.05,0,,,,,,,
5038,0,,,,0.03,-0.0,1.02,0,0,-0,0.03,0,,,,,,,
5043,0,2.63,3.2,13.37,-0.01,-0.02,1.04,0,1,-0,0.02,0,0.0,0.0,0.0,0.0,0,0,0.0
5048,0,,,,-0.05,-0.03,1.01,0,1,-0,0.06,0,,,,,,,
5053,0,,,,-0.04,-0.03,1.0,0,-0,-0,0.04,0,,,,,,,
5058,0,,,,0.0,-0.02,1.04,0,-0,-0,0.02,0,,,,,,,
5063,0,,,,0.03,-0.02,0.99,0,0,-0,0.03,0,,,,,,,
5068,0,,,,0.04,-0.01,0.95,0,-0,-0,0.04,0,,,,,,,
5073,0,,,,0.02,-0.02,1.02,0,-0,-0,0.03,0,,,,,,,
5078,0,,,,-0.01,-0.03,1.01,0,0,-0,0.03,0,,,,,,,
5083,0,2.58,3.26,,-0.02,-0.03,0.97,0,-0,-0,0.04,0,,,,,,,
5183,0,,,,-0.05,-0.02,0.97,0,0,-0,0.06,0,,,,,,,
5188,0,,,,-0.03,-0.03,0.99,0,-0,-0,0.04,0,,,,,,,
5193,0,,,,0.01,-0.02,1.01,0,0,-0,0.02,0,,,,,,,
5198,0,,,,0.02,-0.02,0.95,0,0,-0,0.03,0,,,,,,,
5203,0,2.63,2.931,,0.02,-0.02,0.95,0,0,-0,0.02,0,,,,,,,
5208,0,,,,-0.0,-0.03,1.01,0,0,-0,0.03,0,,,,,,,
5213,0,,,,-0.04,-0.02,0.99,0,1,-0,0.05,0,,,,,,,
5218,0,,,,-0.05,-0.02,0.95,0,0,-0,0.05,0,,,,,,,
5223,0,,,,-0.05,-0.02,1.01,0,0,-0,0.05,0,,,,,,,
5228,0,,,,0.0,-0.01,1.01,0,0,-0,0.01,0,,,,,,,
5333,0,,,,-0.01,-0.01,0.93,0,0,-0,0.01,0,,,,,,,
5338,0,,,,-0.01,-0.01,0.98,0,-0,-0,0.02,0,,,,,,,
5343,0,,,,-0.03,-0.02,1.02,0,0,-0,0.04,0,0.0,0.0,0.0,0.0,0,0,0.0
5348,0,,,,-0.06,-0.03,0.98,0,0,-0,0.07,0,,,,,,,
5353,0,,,,-0.08,-0.03,0.99,0,-0,-0,0.08,0,,,,,,,
5358,0,,,,-0.03,-0.03,1.02,0,-0,-0,0.05,0,,,,,,,
5363,0,2.58,3.037,,-0.0,-0.03,1.0,0,-0,-0,0.03,0,,,,,,,
5368,0,,,,0.02,-0.01,0.97,0,-0,-0,0.02,0,,,,,,,
5373,0,,,,0.0,-0.02,1.0,0,-0,-0,0.02,0,,,,,,,
5378,0,,,,-0.04,-0.03,1.0,0,0,-0,0.05,0,,,,,,,
5478,0,,,,-0.05,-0.0,1.0,0,0,-0,0.05,0,,,,,,,
5483,0,2.59,2.853,,-0.07,-0.01,0.95,0,-0,-0,0.07,0,,,,,,,
5488,0,,,,-0.07,-0.01,1.0,0,-1,0,0.07,0,,,,,,,
5493,0,,,,-0.02,-0.01,1.0,0,-0,0,0.02,0,,,,,,,
5498,0,,,,-0.01,-0.01,0.97,0,-0,0,0.01,0,,,,,,,
5503,0,,,,0.01,-0.01,0.97,0,-0,0,0.01,0,,,,,,,
5508,0,,,,-0.03,-0.03,1.01,0,0,0,0.04,0,,,,,,,
5513,0,,,,-0.07,-0.03,0.99,0,0,-0,0.08,0,,,,,,,
5518,0,,,,-0.08,-0.02,0.98,0,-0,-0,0.08,0,,,,,,,
5523,0,2.55,3.101,,-0.05,-0.03,1.02,0,-1,0,0.06,0,,,,,,,
5528,0,,,,-0.01,-0.02,1.0,0,-0,-0,0.03,0,,,,,,,
5533,0,,,,-0.0,-0.01,0.95,0,-0,-0,0.01,0,,,,,,,
5538,0,,,,-0.01,-0.02,1.01,0,-0,0,0.02,0,,,,,,,
5543,0,,,,-0.03,-0.03,1.04,0,0,-0,0.05,0,0.0,0.0,0.0,0.0,0,0,0.0
5548,0,,,,-0.06,-0.04,0.99,0,-0,-0,0.07,0,,,,,,,
5553,0,,,,-0.08,-0.04,1.01,0,-1,-0,0.09,0,,,,,,,
5558,0,,,,-0.01,-0.04,1.0,0,-0,-0,0.05,0,,,,,,,
5563,0,2.59,3.095,,0.01,-0.04,0.98,0,-0,-0,0.04,0,,,,,,,
5568,0,,,,0.04,-0.03,0.97,0,-0,-0,0.05,0,,,,,,,
5573,0,,,,0.0,-0.04,1.02,0,0,-0,0.04,0,,,,,,,
5578,0,,,,-0.05,-0.03,1.01,0,0,-0,0.06,0,,,,,,,
5583,0,,,,-0.07,-0.03,0.97,0,-0,-0,0.08,0,,,,,,,
5588,0,,,,-0.05,-0.04,1.01,0,-1,-0,0.06,0,,,,,,,
5593,0,,,,-0.01,-0.03,1.02,0,-0,-0,0.04,0,,,,,,,
5598,0,,,,0.01,-0.03,0.95,0,-0,-0,0.03,0,,,,,,,
5603,0,2.58,2.844,,-0.0,-0.03,1.0,0,-0,-0,0.03,0,,,,,,,
5608,0,,,,-0.02,-0.04,1.03,0,0,-0,0.05,0,,,,,,,
5613,0,,,,-0.06,-0.04,0.99,0,0,-0,0.07,0,,,,,,,
5618,0,,,,-0.08,-0.03,0.99,0,-0,-0,0.08,0,,,,,,,
5623,0,,,,-0.04,-0.04,1.03,0,-0,-0,0.05,0,,,,,,,
5628,0,,,,0.01,-0.03,1.01,0,-0,-0,0.03,0,,,,,,,
5633,0,,,,0.03,-0.02,0.98,0,-0,-0,0.03,0,,,,,,,
5638,0,,,,0.01,-0.02,1.01,0,-0,-0,0.02,0,,,,,,,
5643,0,2.6,2.523,,-0.04,-0.02,1.02,0,0,-0,0.05,0,0.0,0.0,0.0,0.0,0,0,0.0
5648,0,,,,-0.07,-0.02,0.98,0,0,-0,0.08,0,,,,,,,
5653,0,,,,-0.06,-0.03,1.02,0,-1,-0,0.06,0,,,,,,,
5658,0,,,,-0.02,-0.02,1.04,0,-0,-0,0.03,0,,,,,,,
5663,0,,,,0.01,-0.02,0.97,0,0,-0,0.02,0,,,,,,,
5668,0,,,,0.0,-0.03,0.98,0,-0,-0,0.03,0,,,,,,,
5673,0,,,,-0.01,-0.03,1.05,0,0,-0,0.03,0,,,,,,,
5678,0,,,,-0.06,-0.02,1.02,0,0,-0,0.06,0,,,,,,,
5683,0,2.6,2.795,,-0.06,-0.01,0.99,0,-0,-0,0.07,0,,,,,,,
5688,0,,,,-0.06,-0.03,1.04,0,-0,-0,0.06,0,,,,,,,
5693,0,,,,0.0,-0.01,1.02,0,-0,-0,0.01,0,,,,,,,
5698,0,,,,0.01,-0.01,0.98,0,-0,-0,0.01,0,,,,,,,
5703,0,,,,0.01,-0.01,1.0,0,-0,-0,0.01,0,,,,,,,
5708,0,,,,-0.04,-0.03,1.03,0,0,-0,0.05,0,,,,,,,
5713,0,,,,-0.07,-0.04,0.99,0,0,-0,0.08,0,,,,,,,
5718,0,,,,-0.07,-0.03,1.0,0,-0,-0,0.08,0,,,,,,,
5723,0,2.57,2.963,,-0.03,-0.02,1.03,0,-0,-0,0.03,0,,,,,,,
5728,0,,,,0.0,-0.02,0.97,0,0,-0,0.02,0,,,,,,,
5733,0,,,,0.0,-0.02,0.96,0,-0,-0,0.02,0,,,,,,,
5738,0,,,,-0.01,-0.02,1.03,0,0,-0,0.02,0,,,,,,,
5743,0,,,,-0.06,-0.01,1.0,0,1,-0,0.06,0,0.0,0.0,0.0,0.0,0,0,0.0
5748,0,,,,-0.08,-0.01,0.96,0,-0,-0,0.08,0,,,,,,,
5753,0,,,,-0.08,-0.02,1.02,0,-0,-0,0.09,0,,,,,,,
5758,0,,,,-0.02,-0.02,1.01,0,0,-0,0.02,0,,,,,,,
5763,0,2.57,3.009,,-0.01,-0.02,0.99,0,0,-0,0.02,0,,,,,,,
5768,0,,,,-0.0,-0.02,0.99,0,0,-0,0.02,0,,,,,,,
5773,0,,,,-0.05,-0.04,1.03,0,1,-0,0.06,0,,,,,,,
5778,0,,,,-0.09,-0.04,0.99,0,1,-0,0.1,0,,,,,,,
5783,0,,,,-0.09,-0.03,0.98,0,-0,-0,0.1,0,,,,,,,
5788,0,,,,-0.05,-0.03,1.01,0,-0,-0,0.05,0,,,,,,,
5793,0,,,,-0.01,-0.03,0.97,0,0,-0,0.03,0,,,,,,,
5798,0,,,,-0.0,-0.02,0.94,0,-0,-0,0.02,0,,,,,,,
5803,0,2.53,2.777,,-0.02,-0.01,1.01,0,0,-0,0.02,0,,,,,,,
5808,0,,,,-0.06,-0.01,1.01,0,1,-0,0.06,0,,,,,,,
5813,0,,,,-0.08,-0.02,0.96,0,0,-0,0.08,0,,,,,,,
5818,0,,,,-0.09,-0.03,1.02,0,-0,-0,0.1,0,,,,,,,
5823,0,,,,-0.03,-0.03,1.02,0,0,-0,0.04,0,,,,,,,
5828,0,,,,-0.02,-0.03,0.98,0,0,-0,0.03,0,,,,,,,
5833,0,,,,-0.0,-0.02,0.98,0,-0,-0,0.02,0,,,,,,,
5838,0,,,,-0.04,-0.04,1.03,0,0,-0,0.06,0,,,,,,,
5843,0,2.52,2.996,,-0.09,-0.03,0.99,0,1,-0,0.1,0,0.0,0.0,0.0,0.0,0,0,0.0
5848,0,,,,-0.1,-0.02,0.97,0,-0,-0,0.1,0,,,,,,,
5853,0,,,,-0.05,-0.03,1.0,0,-0,-0,0.06,0,,,,,,,
5858,0,,,,-0.01,-0.03,0.97,0,0,-0,0.03,0,,,,,,,
5863,0,,,,-0.0,-0.02,0.94,0,-0,-0,0.02,0,,,,,,,
5868,0,,,,-0.01,-0.02,1.0,0,-0,-0,0.02,0,,,,,,,
5873,0,,,,-0.05,-0.03,1.01,0,0,-0,0.05,0,,,,,,,
5878,0,,,,-0.07,-0.03,0.96,0,-0,-0,0.08,0,,,,,,,
5883,0,2.55,2.826,,-0.09,-0.03,1.0,0,-1,-0,0.1,0,,,,,,,
5888,0,,,,-0.03,-0.04,1.01,0,-0,-0,0.05,0,,,,,,,
5893,0,,,,-0.01,-0.04,0.97,0,-0,-0,0.04,0,,,,,,,
5898,0,,,,0.01,-0.03,0.96,0,-1,-0,0.03,0,,,,,,,
5903,0,,,,-0.02,-0.04,1.01,0,-0,-0,0.05,0,,,,,,,
5908,0,,,,-0.07,-0.03,0.98,0,0,-0,0.08,0,,,,,,,
5913,0,,,,-0.09,-0.03,0.97,0,-0,-0,0.09,0,,,,,,,
5918,0,,,,-0.06,-0.04,1.01,0,-1,-0,0.07,0,,,,,,,
5923,0,2.5,3.101,,-0.03,-0.04,1.0,0,-0,-0,0.05,0,,,,,,,
5928,0,,,,-0.01,-0.03,0.94,0,-0,-0,0.03,0,,,,,,,
5933,0,,,,-0.01,-0.03,1.0,0,-1,-0,0.04,0,,,,,,,
5938,0,,,,-0.03,-0.05,1.01,0,0,-0,0.06,0,,,,,,,
5943,0,,,,-0.07,-0.05,0.97,0,-0,-0,0.08,0,0.0,0.0,0.0,0.0,0,0,0.0
5948,0,,,,-0.09,-0.04,0.99,0,-1,-0,0.1,0,,,,,,,
5953,0,,,,-0.02,-0.04,1.0,0,-1,-0,0.05,0,,,,,,,
5958,0,,,,0.01,-0.04,0.99,0,-0,-0,0.04,0,,,,,,,
5963,0,2.55,3.047,,0.04,-0.02,0.97,0,-1,-0,0.05,0,,,,,,,
5968,0,,,,0.02,-0.03,1.01,0,-0,-0,0.03,0,,,,,,,
5973,0,,,,-0.03,-0.02,1.0,0,0,-0,0.04,0,,,,,,,
5978,0,,,,-0.06,-0.02,0.97,0,-0,-0,0.07,0,,,,,,,
5983,0,,,,-0.04,-0.03,1.0,0,-1,-0,0.05,0,,,,,,,
5988,0,,,,-0.01,-0.03,1.02,0,-0,-0,0.03,0,,,,,,,
5993,0,,,,0.01,-0.02,0.96,0,-0,-0,0.03,0,,,,,,,
5998,0,,,,0.0,-0.03,0.99,0,-1,-0,0.03,0,,,,,,,
6003,0,2.55,2.885,,-0.01,-0.04,1.03,0,-0,-0,0.04,0,,,,,,,
6008,0,,,,-0.06,-0.04,1.01,0,0,-0,0.07,0,,,,,,,
6013,0,,,,-0.07,-0.03,0.98,0,-0,-0,0.07,0,,,,,,,
6018,0,,,,-0.05,-0.04,1.04,0,-0,-0,0.06,0,,,,,,,
6023,0,,,,-0.0,-0.02,1.01,0,-0,-0,0.02,0,,,,,,,
6028,0,,,,0.02,-0.01,0.97,0,-0,-0,0.02,0,,,,,,,
6033,0,,,,0.01,-0.02,1.0,0,-0,-0,0.02,0,,,,,,,
6038,0,,,,-0.03,-0.03,1.02,0,0,-0,0.05,0,,,,,,,
6043,0,2.53,2.831,13.35,-0.07,-0.04,0.99,0,0,-0,0.08,0,0.0,0.0,0.0,0.0,0,0,0.0
6048,0,,,,-0.06,-0.04,1.0,0,-0,-0,0.07,0,,,,,,,
6053,0,,,,-0.03,-0.03,1.03,0,-0,-0,0.04,0,,,,,,,
6058,0,,,,0.01,-0.03,0.97,0,0,-0,0.03,0,,,,,,,
6063,0,,,,0.01,-0.02,0.95,0,-0,-0,0.02,0,,,,,,,
6068,0,,,,-0.01,-0.02,1.02,0,0,-0,0.03,0,,,,,,,
6073,0,,,,-0.05,-0.02,0.99,0,0,-0,0.05,0,,,,,,,
6078,0,,,,-0.06,-0.02,0.95,0,-0,-0,0.07,0,,,,,,,
6083,0,2.52,2.861,,-0.07,-0.03,1.01,0,-0,-0,0.08,0,,,,,,,
6088,0,,,,-0.01,-0.02,1.01,0,0,-0,0.02,0,,,,,,,
6093,0,,,,-0.0,-0.02,0.99,0,0,-0,0.02,0,,,,,,,
6098,0,,,,-0.0,-0.02,0.99,0,0,0,0.02,0,,,,,,,
6103,0,,,,-0.04,-0.04,1.02,0,1,-0,0.05,0,,,,,,,
6108,0,,,,-0.08,-0.04,0.98,0,1,-0,0.09,0,,,,,,,
6113,0,,,,-0.08,-0.03,0.97,0,-0,-0,0.09,0,,,,,,,
6118,0,,,,-0.05,-0.03,1.01,0,-0,-0,0.06,0,,,,,,,
6123,0,2.55,3.067,,-0.01,-0.03,0.98,0,0,-0,0.03,0,,,,,,,
6128,0,,,,-0.01,-0.02,0.93,0,-0,-0,0.02,0,,,,,,,
6133,0,,,,-0.02,-0.02,1.0,0,-0,-0,0.03,0,,,,,,,
6138,0,,,,-0.05,-0.03,1.01,0,0,-0,0.05,0,,,,,,,
6143,0,,,,-0.07,-0.03,0.95,0,-0,-0,0.08,0,0.0,0.0,0.0,0.0,0,0,0.0
6148,0,,,,-0.09,-0.04,0.99,0,-0,-0,0.1,0,,,,,,,
6153,0,,,,-0.02,-0.05,1.0,0,-0,-0,0.05,0,,,,,,,
6158,0,,,,-0.01,-0.05,0.98,0,-0,-0,0.05,0,,,,,,,
6163,0,2.59,2.78,,0.01,-0.03,0.96,0,-1,-0,0.03,0,,,,,,,
6168,0,,,,-0.02,-0.05,1.01,0,-0,-0,0.06,0,,,,,,,
6173,0,,,,-0.08,-0.04,1.01,0,0,-0,0.09,0,,,,,,,
6178,0,,,,-0.09,-0.03,0.96,0,-0,-0,0.1,0,,,,,,,
6183,0,,,,-0.07,-0.04,1.01,0,-1,-0,0.08,0,,,,,,,
6188,0,,,,-0.03,-0.03,1.02,0,-0,-0,0.05,0,,,,,,,
6193,0,,,,-0.01,-0.02,0.95,0,-0,-0,0.03,0,,,,,,,
6198,0,,,,-0.02,-0.03,0.99,0,-1,-0,0.03,0,,,,,,,
6203,0,2.59,2.021,,-0.03,-0.04,1.03,0,0,-0,0.05,0,,,,,,,
6208,0,,,,-0.07,-0.04,0.98,0,0,-0,0.08,0,,,,,,,
6213,0,,,,-0.09,-0.04,0.98,0,-0,-0,0.09,0,,,,,,,
6218,0,,,,-0.03,-0.05,1.02,0,-0,-0,0.06,0,,,,,,,
6223,0,,,,0.0,-0.04,0.99,0,-0,-0,0.04,0,,,,,,,
6228,0,,,,0.02,-0.02,0.96,0,-0,-0,0.03,0,,,,,,,
6233,0,,,,0.01,-0.03,1.0,0,-0,-0,0.03,0,,,,,,,
6238,0,,,,-0.04,-0.03,1.02,0,1,-0,0.05,0,,,,,,,
6243,0,2.65,1.053,,-0.07,-0.03,0.97,0,0,-0,0.08,0,0.0,0.0,0.0,0.0,0,0,0.0
6248,0,,,,-0.05,-0.04,1.01,0,-0,-0,0.06,0,,,,,,,
6253,0,,,,-0.01,-0.04,1.04,0,0,-0,0.04,0,,,,,,,
6258,0,,,,0.01,-0.03,0.97,0,1,-0,0.03,0,,,,,,,
6263,0,,,,0.0,-0.03,0.98,0,0,-0,0.03,0,,,,,,,
6268,0,,,,0.0,-0.04,1.04,0,1,-0,0.04,0,,,,,,,
6273,0,,,,-0.05,-0.03,1.01,0,2,-0,0.06,0,,,,,,,
6278,0,,,,-0.07,-0.03,0.98,0,1,-0,0.07,0,,,,,,,
6283,0,2.66,0.886,,-0.03,-0.05,1.02,0,1,-0,0.06,0,,,,,,,
6288,0,,,,0.01,-0.04,1.04,0,2,-0,0.04,0,,,,,,,
6293,0,,,,0.02,-0.03,1.0,0,2,-0,0.04,0,,,,,,,
6298,0,,,,0.01,-0.03,1.03,0,1,-0,0.03,0,,,,,,,
6303,0,,,,-0.04,-0.04,1.07,0,2,-0,0.06,0,,,,,,,
6308,0,,,,-0.1,-0.05,1.04,0,3,-0,0.11,0,,,,,,,
6313,0,,,,-0.1,-0.04,1.03,0,2,-0,0.1,0,,,,,,,
6318,0,,,,-0.07,-0.04,1.07,0,2,-0,0.08,0,,,,,,,
6323,0,2.72,1.06,,-0.03,-0.03,1.01,0,3,-0,0.04,0,,,,,,,
6328,0,,,,-0.03,-0.03,0.96,0,2,-0,0.04,0,,,,,,,
6333,0,,,,-0.05,-0.03,1.03,0,2,-0,0.05,0,,,,,,,
6338,0,,,,-0.09,-0.04,1.02,0,3,-1,0.1,0,,,,,,,
6343,0,,,,-0.11,-0.04,0.95,0,2,-0,0.12,0,0.0,0.0,0.0,0.0,0,0,0.0
6348,0,,,,-0.13,-0.03,0.99,0,2,-0,0.13,0,,,,,,,
6353,0,,,,-0.01,-0.03,0.99,0,1,-0,0.03,0,,,,,,,
6358,0,,,,-0.01,-0.0,1.01,0,2,-1,0.01,0,,,,,,,
6363,0,2.65,2.584,,-0.01,0.01,0.94,0,2,-0,0.02,0,,,,,,,
6368,0,,,,-0.09,-0.01,0.99,1,2,-1,0.09,0,,,,,,,
6373,0,,,,-0.16,-0.01,0.94,1,2,-1,0.16,0,,,,,,,
6378,0,,,,-0.16,0.01,0.92,0,1,-1,0.16,0,,,,,,,
6383,0,,,,-0.14,0.0,0.95,0,1,-0,0.14,0,,,,,,,
6388,0,,,,-0.06,0.0,0.89,0,1,-1,0.06,0,,,,,,,
6393,0,,,,-0.06,0.03,0.85,0,-0,-0,0.06,0,,,,,,,
6398,0,,,,-0.06,0.01,0.9,0,-0,-0,0.06,0,,,,,,,
6403,0,2.57,4.208,,-0.12,0.01,0.9,0,0,-0,0.12,0,,,,,,,
6408,0,,,,-0.23,0.0,0.85,0,-1,-0,0.23,0,,,,,,,
6413,0,,,,-0.15,0.0,0.88,0,-2,-0,0.15,0,,,,,,,
6418,0,,,,-0.08,0.01,0.92,0,-2,-0,0.08,0,,,,,,,
6423,0,,,,-0.03,0.05,0.88,0,-2,-0,0.06,0,,,,,,,
6428,0,,,,-0.03,0.02,0.91,0,-2,-0,0.04,0,,,,,,,
6433,0,,,,-0.07,-0.0,0.96,0,-1,-0,0.07,0,,,,,,,
6438,0,,,,-0.14,-0.02,0.96,0,-1,-0,0.14,0,,,,,,,
6443,0,2.45,3.947,,-0.15,-0.01,1.01,-0,-1,-0,0.15,0,0.0,0.0,0.0,0.0,0,0,0.0
6448,0,,,,-0.07,0.02,1.05,-0,-1,-0,0.07,0,,,,,,,
6453,0,,,,-0.01,0.03,1.01,-0,-1,-0,0.03,0,,,,,,,
6458,0,,,,0.03,0.02,1.03,-0,-1,-0,0.03,0,,,,,,,
6463,0,,,,-0.01,-0.02,1.1,-0,-0,0,0.02,0,,,,,,,
6468,0,,,,-0.05,-0.02,1.08,-0,0,-0,0.06,0,,,,,,,
6473,0,,,,-0.19,-0.02,1.08,0,1,0,0.19,0,,,,,,,
6478,0,,,,-0.0,-0.01,1.08,0,-2,-0,0.01,0,,,,,,,
6483,0,2.49,4.639,,0.13,-0.0,1.14,-0,-3,-1,0.13,0,,,,,,,
6488,0,,,,0.21,0.01,1.15,-0,-1,-1,0.21,0,,,,,,,
6493,0,,,,0.11,-0.03,1.14,-0,1,-0,0.12,0,,,,,,,
6498,0,,,,0.0,-0.07,1.1,0,2,-1,0.07,0,,,,,,,
6503,0,,,,-0.09,-0.05,1.07,0,2,-1,0.11,0,,,,,,,
6508,0,,,,-0.12,-0.06,1.08,0,2,-1,0.13,0,,,,,,,
6513,0,,,,0.06,-0.05,0.99,0,1,-1,0.07,0,,,,,,,
6518,0,,,,0.1,-0.03,0.96,0,1,-1,0.1,0,,,,,,,
6523,0,2.52,3.595,,0.1,-0.05,1.02,0,2,-1,0.11,0,,,,,,,
6528,0,,,,0.02,-0.09,0.95,0,3,-1,0.09,0,,,,,,,
6533,0,,,,-0.08,-0.09,1.04,1,3,-1,0.12,0,,,,,,,
6538,0,,,,-0.02,-0.12,1.08,0,2,-1,0.12,0,,,,,,,
6543,0,,,,0.06,-0.11,1.01,1,2,-1,0.12,0,0.0,0.0,0.0,0.0,0,0,0.0
6548,0,,,,0.04,-0.07,0.91,0,2,-1,0.08,0,,,,,,,
6553,0,,,,-0.01,-0.1,0.93,1,3,-0,0.1,0,,,,,,,
6558,0,,,,-0.1,-0.11,0.9,1,3,-1,0.15,0,,,,,,,
6563,0,2.54,3.054,,-0.04,-0.08,0.95,1,2,-0,0.09,0,,,,,,,
6568,0,,,,0.01,-0.11,0.91,1,2,-0,0.11,0,,,,,,,
6573,0,,,,0.02,-0.11,0.89,1,1,-0,0.11,0,,,,,,,
6578,0,,,,0.04,-0.11,0.96,1,2,0,0.12,0,,,,,,,
6583,0,,,,0.08,-0.07,0.98,2,2,1,0.11,0,,,,,,,
6588,0,,,,0.1,-0.09,1.07,1,1,1,0.14,0,,,,,,,
6593,0,,,,0.16,-0.07,0.93,1,1,1,0.17,0,,,,,,,
6598,0,,,,0.1,-0.11,0.84,1,1,2,0.15,0,,,,,,,
6603,0,2.46,1.971,,0.06,-0.1,0.85,1,1,1,0.12,0,,,,,,,
6608,0,,,,0.02,-0.1,0.93,1,1,1,0.11,0,,,,,,,
6613,0,,,,0.13,-0.03,0.95,1,0,2,0.13,0,,,,,,,
6618,0,,,,0.14,-0.04,0.88,1,-1,1,0.15,0,,,,,,,
6623,0,,,,0.13,-0.07,0.87,1,-1,1,0.15,0,,,,,,,
6628,0,,,,0.08,-0.02,0.96,1,-1,1,0.08,0,,,,,,,
6633,0,,,,0.11,-0.06,1.04,1,-0,1,0.12,0,,,,,,,
6638,0,,,,0.05,0.0,1.07,1,1,1,0.05,0,,,,,,,
6643,0,2.49,1.546,,-0.03,-0.0,0.98,1,1,2,0.03,0,0.0,0.0,0.0,0.0,0,0,0.0
6648,0,,,,-0.02,-0.04,0.94,1,1,1,0.04,0,,,,,,,
6653,0,,,,0.03,-0.02,1.0,1,1,1,0.04,0,,,,,,,
6658,0,,,,0.02,-0.01,1.1,1,1,1,0.02,0,,,,,,,
6663,0,,,,-0.04,0.01,1.07,0,1,1,0.04,0,,,,,,,
6668,0,,,,-0.19,0.04,1.04,0,3,1,0.2,0,,,,,,,
6673,0,,,,-0.17,-0.0,1.03,0,3,1,0.17,0,,,,,,,
6678,0,,,,-0.11,-0.03,0.95,0,3,1,0.11,0,,,,,,,
6683,0,2.5,2.004,,-0.12,0.01,0.99,0,3,1,0.12,0,,,,,,,
6688,0,,,,-0.15,0.02,0.95,0,2,1,0.15,0,,,,,,,
6693,0,,,,-0.26,-0.02,0.97,-0,2,1,0.26,0,,,,,,,
6698,0,,,,-0.23,0.06,0.99,-0,2,1,0.24,0,,,,,,,
6703,0,,,,-0.2,0.08,1.07,-1,3,2,0.22,0,,,,,,,
6708,0,,,,-0.29,0.05,0.98,-0,4,1,0.29,0,,,,,,,
6713,0,,,,-0.17,0.01,1.0,-0,3,0,0.17,0,,,,,,,
6718,0,,,,-0.13,-0.08,1.0,-0,3,0,0.15,0,,,,,,,
6723,0,2.49,2.323,,-0.19,-0.06,1.06,-0,3,-0,0.2,0,,,,,,,
6728,0,,,,-0.19,-0.04,1.0,-0,3,-1,0.19,0,,,,,,,
6733,0,,,,-0.3,-0.09,1.09,-0,3,-1,0.31,0,,,,,,,
6738,0,,,,-0.26,-0.06,1.0,0,3,-0,0.26,0,,,,,,,
6743,0,,,,-0.24,-0.04,1.07,-0,3,-0,0.24,0,0.0,0.0,0.0,0.0,0,0,0.0
6748,0,,,,-0.33,-0.03,1.06,0,4,-0,0.33,0,,,,,,,
6753,0,,,,-0.21,-0.11,1.05,0,4,0,0.24,0,,,,,,,
6758,0,,,,-0.25,-0.1,1.07,0,5,0,0.27,0,,,,,,,
6763,0,2.42,2.808,,-0.24,-0.08,0.98,1,5,0,0.26,0,,,,,,,
6768,0,,,,-0.37,-0.06,1.02,1,6,1,0.37,0,,,,,,,
6773,0,,,,-0.28,-0.08,0.95,1,5,0,0.29,0,,,,,,,
6778,0,,,,-0.28,-0.04,1.0,1,5,1,0.28,0,,,,,,,
6783,0,,,,-0.3,-0.05,1.04,1,6,1,0.31,0,,,,,,,
6788,0,,,,-0.2,-0.02,1.11,1,6,0,0.2,0,,,,,,,
6793,0,,,,-0.21,-0.04,1.17,1,5,0,0.21,0,,,,,,,
6798,0,,,,-0.3,-0.02,1.21,1,7,1,0.3,0,,,,,,,
6803,0,2.42,3.307,,-0.32,-0.03,1.2,1,7,0,0.32,0,,,,,,,
6808,0,,,,-0.37,-0.07,1.22,1,8,-0,0.38,0,,,,,,,
6813,0,,,,-0.32,-0.0,1.11,2,8,-0,0.32,0,,,,,,,
6818,0,,,,-0.27,-0.03,1.15,2,8,-0,0.27,0,,,,,,,
6823,0,,,,-0.41,0.0,1.23,2,10,-0,0.41,0,,,,,,,
6828,0,,,,-0.29,-0.06,1.19,2,10,0,0.3,0,,,,,,,
6833,0,,,,-0.4,-0.03,1.23,2,12,0,0.4,0,,,,,,,
6838,0,,,,-0.35,-0.02,1.1,2,13,-0,0.35,0,,,,,,,
6843,0,2.41,3.504,,-0.48,-0.05,1.15,2,13,-0,0.48,25,0.0,0.0,0.0,0.0,0,0,0.0
6848,0,,,,-0.4,-0.03,1.05,2,13,-1,0.4,25,,,,,,,
6853,0,,,,-0.37,-0.01,1.03,2,13,0,0.37,25,,,,,,,
6858,0,,,,-0.41,-0.01,1.08,2,14,-0,0.41,25,,,,,,,
6863,0,,,,-0.31,0.02,1.05,2,14,-1,0.31,25,,,,,,,
6868,0,,,,-0.29,-0.01,1.1,2,14,-0,0.29,68,,,,,,,
6873,0,,,,-0.41,0.02,1.16,3,15,-0,0.41,68,,,,,,,
6878,0,,,,-0.44,-0.01,1.16,3,15,0,0.44,68,,,,,,,
6883,0,2.37,3.498,,-0.57,-0.06,1.19,3,16,0,0.57,68,,,,,,,
6888,0,,,,-0.49,-0.01,1.05,3,16,0,0.49,68,,,,,,,
6893,0,,,,-0.48,0.0,1.07,2,15,-0,0.48,100,,,,,,,
6898,0,,,,-0.59,0.05,1.06,3,17,-0,0.6,100,,,,,,,
6903,0,,,,-0.49,-0.05,0.95,3,17,0,0.49,100,,,,,,,
6908,0,,,,-0.53,0.0,0.89,3,17,1,0.53,100,,,,,,,
6913,0,,,,-0.51,0.01,0.86,3,17,0,0.51,105,,,,,,,
6918,0,,,,-0.56,0.01,0.84,3,17,0,0.56,105,,,,,,,
6923,0,2.38,2.912,,-0.51,-0.04,0.83,3,16,0,0.51,105,,,,,,,
6928,0,,,,-0.57,0.0,0.81,3,16,1,0.57,105,,,,,,,
6933,0,,,,-0.51,0.0,0.8,3,15,2,0.51,105,,,,,,,
6938,0,,,,-0.6,-0.0,0.88,3,15,2,0.6,110,,,,,,,
6943,0,,,,-0.5,-0.05,0.91,3,14,2,0.5,110,0.0,0.0,0.0,0.0,0,0,0.0
6948,0,,,,-0.6,-0.0,0.94,3,14,2,0.6,110,,,,,,,
6953,0,,,,-0.63,0.06,0.85,2,13,2,0.64,110,,,,,,,
6958,0,,,,-0.74,0.03,0.88,3,12,2,0.74,112,,,,,,,
6963,0,2.4,2.836,,-0.57,0.09,0.78,2,12,2,0.58,112,,,,,,,
6968,0,,,,-0.52,0.09,0.78,2,11,3,0.53,112,,,,,,,
6973,0,,,,-0.63,0.12,0.87,2,11,2,0.65,112,,,,,,,
6978,0,,,,-0.5,0.1,0.79,2,10,2,0.51,112,,,,,,,
6983,0,,,,-0.56,0.1,0.86,2,10,1,0.57,112,,,,,,,
6988,0,,,,-0.57,0.11,0.83,2,9,1,0.58,112,,,,,,,
6993,0,,,,-0.56,0.09,0.82,2,8,1,0.57,112,,,,,,,
6998,0,,,,-0.57,0.05,0.9,1,8,1,0.57,112,,,,,,,
7003,0,2.44,2.115,,-0.68,0.1,0.93,2,8,0,0.69,110,,,,,,,
7008,0,,,,-0.59,0.06,0.87,2,7,-0,0.59,110,,,,,,,
7013,0,,,,-0.7,0.03,0.89,2,8,-0,0.7,110,,,,,,,
7018,0,,,,-0.56,-0.02,0.82,2,7,0,0.56,110,,,,,,,
7023,0,,,,-0.59,0.11,0.87,2,7,0,0.6,110,,,,,,,
7028,0,,,,-0.54,0.06,0.81,2,7,0,0.54,110,,,,,,,
7033,0,,,,-0.65,0.04,0.85,2,7,0,0.65,110,,,,,,,
7038,0,,,,-0.54,0.05,0.82,2,7,0,0.54,110,,,,,,,
7043,0,2.48,2.755,13.36,-0.55,0.06,0.83,3,6,1,0.56,110,0.0,0.0,0.0,0.0,0,0,0.0
7048,0,,,,-0.62,0.05,0.88,3,6,0,0.62,120,,,,,,,
7053,0,,,,-0.48,0.0,0.9,3,5,-0,0.48,120,,,,,,,
7058,0,,,,-0.45,0.02,0.9,3,5,-1,0.45,120,,,,,,,
7063,0,,,,-0.55,0.07,0.91,3,5,-1,0.55,120,,,,,,,
7068,0,,,,-0.57,-0.01,0.91,3,5,-1,0.57,115,,,,,,,
7073,0,,,,-0.68,-0.06,0.96,3,4,-1,0.68,115,,,,,,,
7078,0,,,,-0.62,0.02,0.87,3,4,-2,0.62,115,,,,,,,
7083,0,2.52,3.136,,-0.56,0.05,0.93,3,3,-2,0.56,115,,,,,,,
7088,0,,,,-0.61,0.09,0.98,3,4,-2,0.62,118,,,,,,,
7093,0,,,,-0.49,-0.02,0.95,3,5,-2,0.49,118,,,,,,,
7098,0,,,,-0.57,0.02,0.93,3,5,-1,0.57,118,,,,,,,
7103,0,,,,-0.59,0.01,0.86,3,5,-1,0.59,118,,,,,,,
7108,0,,,,-0.7,0.04,0.91,3,5,-2,0.7,120,,,,,,,
7113,0,,,,-0.53,0.08,0.84,2,4,-2,0.54,120,,,,,,,
7118,0,,,,-0.5,0.11,0.87,2,3,-1,0.51,120,,,,,,,
7123,0,2.53,3.357,,-0.47,0.06,0.89,2,4,-2,0.47,120,,,,,,,
7128,0,,,,-0.41,0.02,0.82,2,4,-2,0.41,120,,,,,,,
7133,0,,,,-0.44,0.05,0.83,2,3,-3,0.44,118,,,,,,,
7138,0,,,,-0.54,0.06,0.84,1,3,-2,0.54,118,,,,,,,
7143,0,,,,-0.54,0.06,0.85,1,3,-2,0.55,118,0.0,0.0,0.0,0.0,0,0,0.0
7148,0,,,,-0.61,0.01,0.9,1,3,-2,0.61,118,,,,,,,
7153,0,,,,-0.59,0.04,0.84,1,3,-2,0.59,115,,,,,,,
7158,0,,,,-0.53,0.02,0.86,-0,2,-2,0.53,115,,,,,,,
7163,0,2.52,3.281,,-0.65,0.05,0.9,-0,3,-1,0.65,115,,,,,,,
7168,0,,,,-0.57,-0.01,0.95,-1,3,-1,0.57,115,,,,,,,
7173,0,,,,-0.6,-0.01,0.95,-1,2,-1,0.6,115,,,,,,,
7178,0,,,,-0.61,-0.03,0.89,-1,2,-1,0.61,115,,,,,,,
7183,0,,,,-0.71,-0.06,0.92,-1,3,-0,0.72,115,,,,,,,
7188,0,,,,-0.63,-0.02,0.88,-2,3,1,0.63,115,,,,,,,
7193,0,,,,-0.57,-0.01,0.79,-1,2,2,0.57,115,,,,,,,
7198,0,,,,-0.68,-0.04,0.88,-1,2,2,0.69,118,,,,,,,
7203,0,2.43,3.356,,-0.52,-0.07,0.77,-1,0,2,0.53,118,,,,,,,
7208,0,,,,-0.45,-0.06,0.8,-2,-0,3,0.46,118,,,,,,,
7213,0,,,,-0.5,-0.06,0.83,-2,0,3,0.5,118,,,,,,,
7218,0,,,,-0.58,-0.06,0.83,-2,-0,4,0.58,108,,,,,,,
7223,0,,,,-0.67,-0.12,0.92,-2,-0,4,0.68,108,,,,,,,
7228,0,,,,-0.73,-0.08,0.95,-2,-0,4,0.73,108,,,,,,,
7233,0,,,,-0.64,-0.05,0.95,-2,-1,3,0.64,108,,,,,,,
7238,0,,,,-0.71,-0.07,0.99,-1,-0,4,0.72,108,,,,,,,
7243,0,2.38,3.702,,-0.57,-0.15,0.94,-1,-1,4,0.59,115,0.0,0.0,0.0,0.0,0,0,0.0
7248,0,,,,-0.66,-0.13,1.03,-1,-1,4,0.68,115,,,,,,,
7253,0,,,,-0.72,-0.11,0.94,-0,-0,4,0.73,115,,,,,,,
7258,0,,,,-0.82,-0.14,0.99,-0,-1,4,0.83,115,,,,,,,
7263,0,,,,-0.59,-0.1,0.89,0,-2,4,0.6,110,,,,,,,
7268,0,,,,-0.56,-0.02,0.89,1,-3,4,0.56,110,,,,,,,
7273,0,,,,-0.5,-0.0,0.94,1,-4,3,0.5,110,,,,,,,
7278,0,,,,-0.41,0.01,0.96,1,-4,3,0.41,110,,,,,,,
7283,0,2.31,3.601,,-0.44,0.02,0.97,1,-4,2,0.44,110,,,,,,,
7288,0,,,,-0.52,0.06,0.96,1,-4,2,0.52,105,,,,,,,
7293,0,,,,-0.54,0.07,0.96,1,-5,1,0.55,105,,,,,,,
7298,0,,,,-0.58,0.09,1.05,2,-5,1,0.59,105,,,,,,,
7303,0,,,,-0.51,0.12,1.03,1,-5,0,0.52,105,,,,,,,
7308,0,,,,-0.4,0.12,1.03,1,-5,-0,0.42,115,,,,,,,
7313,0,,,,-0.53,0.2,1.11,1,-4,-1,0.57,115,,,,,,,
7318,0,,,,-0.44,0.09,1.08,1,-4,-2,0.45,115,,,,,,,
7323,0,2.39,3.221,,-0.52,0.21,1.05,1,-3,-2,0.56,115,,,,,,,
7328,0,,,,-0.47,0.19,0.94,1,-3,-2,0.51,115,,,,,,,
7333,0,,,,-0.53,0.15,1.0,1,-3,-3,0.55,115,,,,,,,
7338,0,,,,-0.37,0.09,0.93,1,-3,-4,0.38,115,,,,,,,
7343,0,,,,-0.48,0.09,0.99,0,-2,-4,0.49,115,0.0,0.0,0.0,0.0,0,0,0.0
7348,0,,,,-0.47,0.05,1.02,0,-3,-4,0.47,115,,,,,,,
7353,0,,,,-0.48,0.01,1.11,0,-2,-3,0.48,118,,,,,,,
7358,0,,,,-0.37,0.0,1.01,0,-2,-3,0.37,118,,,,,,,
7363,0,2.43,3.738,,-0.45,0.01,1.03,0,-1,-2,0.45,118,,,,,,,
7368,0,,,,-0.43,-0.03,0.99,0,-1,-2,0.43,118,,,,,,,
7373,0,,,,-0.51,-0.09,1.05,0,-1,-1,0.52,120,,,,,,,
7378,0,,,,-0.48,-0.01,0.93,0,0,-0,0.48,120,,,,,,,
7383,0,,,,-0.47,0.02,0.91,-0,-0,1,0.47,120,,,,,,,
7388,0,,,,-0.59,0.03,0.97,0,0,1,0.59,120,,,,,,,
7393,0,,,,-0.41,-0.06,0.86,-0,-0,1,0.42,120,,,,,,,
7398,0,,,,-0.44,0.06,0.85,-0,-0,2,0.44,120,,,,,,,
7403,0,2.47,3.347,,-0.4,0.05,0.77,-0,0,2,0.4,120,,,,,,,
7408,0,,,,-0.52,0.04,0.81,-1,0,2,0.52,120,,,,,,,
7413,0,,,,-0.46,0.01,0.75,-1,1,2,0.46,122,,,,,,,
7418,0,,,,-0.51,0.0,0.81,-1,1,2,0.51,122,,,,,,,
7423,0,,,,-0.5,0.04,0.77,-1,-0,1,0.51,122,,,,,,,
7428,0,,,,-0.39,0.07,0.84,-1,0,2,0.39,122,,,,,,,
7433,0,,,,-0.37,0.04,0.87,-2,0,1,0.37,120,,,,,,,
7438,0,,,,-0.44,0.08,0.85,-2,0,2,0.45,120,,,,,,,
7443,0,2.42,3.181,,-0.47,0.05,0.78,-2,0,2,0.47,120,0.0,0.0,0.0,0.0,0,0,0.0
7448,0,,,,-0.5,0.05,0.85,-2,-0,1,0.51,120,,,,,,,
7453,0,,,,-0.49,0.12,0.86,-3,-1,0,0.5,122,,,,,,,
7458,0,,,,-0.37,0.12,0.88,-3,-1,1,0.39,122,,,,,,,
7463,0,,,,-0.46,0.13,0.89,-3,0,0,0.48,122,,,,,,,
7468,0,,,,-0.36,0.05,0.86,-3,-0,0,0.37,122,,,,,,,
7473,0,,,,-0.49,0.06,0.91,-3,0,0,0.5,122,,,,,,,
7478,0,,,,-0.46,-0.0,0.85,-3,0,0,0.46,122,,,,,,,
7483,0,2.32,3.577,,-0.57,0.01,0.96,-3,-0,0,0.57,122,,,,,,,
7488,0,,,,-0.41,-0.02,0.83,-3,-1,-0,0.42,122,,,,,,,
7493,0,,,,-0.43,-0.02,0.86,-3,-1,0,0.43,125,,,,,,,
7498,0,,,,-0.52,-0.06,0.89,-3,-1,0,0.52,125,,,,,,,
7503,0,,,,-0.4,-0.11,0.8,-3,-2,-0,0.42,125,,,,,,,
7508,0,,,,-0.43,-0.05,0.81,-3,-2,-0,0.43,125,,,,,,,
7513,0,,,,-0.4,-0.06,0.78,-3,-3,0,0.4,125,,,,,,,
7518,0,,,,-0.5,-0.04,0.79,-3,-3,0,0.5,125,,,,,,,
7523,0,2.23,3.885,,-0.37,-0.09,0.77,-2,-4,0,0.38,125,,,,,,,
7528,0,,,,-0.42,-0.05,0.81,-2,-4,1,0.42,125,,,,,,,
7533,0,,,,-0.37,-0.05,0.84,-2,-5,2,0.37,128,,,,,,,
7538,0,,,,-0.31,-0.06,0.94,-2,-6,2,0.32,128,,,,,,,
7543,0,,,,-0.26,-0.0,0.9,-3,-6,2,0.26,128,0.0,0.0,0.0,0.0,0,0,0.0
7548,0,,,,-0.34,0.09,0.95,-2,-7,3,0.35,128,,,,,,,
7553,0,,,,-0.34,0.04,0.98,-2,-7,2,0.35,130,,,,,,,
7558,0,,,,-0.38,0.02,1.08,-2,-8,2,0.38,130,,,,,,,
7563,0,2.23,3.386,,-0.36,0.06,0.98,-2,-8,1,0.36,130,,,,,,,
7568,0,,,,-0.31,0.05,1.02,-2,-9,1,0.32,130,,,,,,,
7573,0,,,,-0.3,0.08,1.1,-2,-8,1,0.31,125,,,,,,,
7578,0,,,,-0.18,-0.0,1.07,-2,-8,1,0.18,125,,,,,,,
7583,0,,,,-0.33,0.01,1.13,-2,-7,2,0.33,125,,,,,,,
7588,0,,,,-0.31,-0.05,1.02,-2,-8,2,0.32,130,,,,,,,
7593,0,,,,-0.36,-0.09,1.05,-2,-8,1,0.37,130,,,,,,,
7598,0,,,,-0.3,-0.06,1.01,-2,-8,1,0.31,130,,,,,,,
7603,0,2.27,3.881,,-0.26,-0.02,1.0,-2,-9,1,0.26,130,,,,,,,
7608,0,,,,-0.38,0.0,1.09,-2,-8,0,0.38,130,,,,,,,
7613,0,,,,-0.25,-0.07,0.98,-2,-8,-0,0.25,130,,,,,,,
7618,0,,,,-0.37,0.01,0.93,-2,-8,-0,0.37,130,,,,,,,
7623,0,,,,-0.32,-0.02,0.84,-2,-9,-0,0.32,130,,,,,,,
7628,0,,,,-0.36,-0.01,0.95,-2,-9,-0,0.36,130,,,,,,,
7633,0,,,,-0.25,-0.01,0.88,-2,-9,-1,0.25,130,,,,,,,
7638,0,,,,-0.27,-0.01,0.84,-2,-9,-0,0.27,130,,,,,,,
7643,0,2.26,3.181,,-0.35,0.01,0.9,-2,-9,-1,0.35,130,0.0,0.0,0.0,0.0,0,0,0.0
7648,0,,,,-0.17,-0.02,0.85,-2,-10,-3,0.17,132,,,,,,,
7653,0,,,,-0.25,0.11,0.85,-2,-9,-3,0.27,132,,,,,,,
7658,0,,,,-0.25,0.12,0.84,-2,-9,-3,0.28,132,,,,,,,
7663,0,,,,-0.34,0.11,0.91,-2,-9,-4,0.36,135,,,,,,,
7668,0,,,,-0.17,0.08,0.8,-2,-9,-5,0.19,135,,,,,,,
7673,0,,,,-0.23,0.13,0.79,-2,-9,-5,0.27,135,,,,,,,
7678,0,,,,-0.25,0.13,0.78,-2,-10,-6,0.28,135,,,,,,,
7683,0,2.39,2.808,,-0.1,0.15,0.86,-2,-10,-7,0.18,135,,,,,,,
7688,0,,,,-0.14,0.21,0.9,-2,-9,-8,0.25,135,,,,,,,
7693,0,,,,-0.16,0.21,0.88,-2,-8,-7,0.27,135,,,,,,,
7698,0,,,,-0.24,0.17,0.92,-2,-8,-8,0.29,135,,,,,,,
7703,0,,,,-0.12,0.12,0.92,-2,-9,-9,0.17,138,,,,,,,
7708,0,,,,-0.18,0.16,0.93,-3,-8,-8,0.24,138,,,,,,,
7713,0,,,,-0.16,0.1,0.93,-3,-8,-7,0.19,138,,,,,,,
7718,0,,,,-0.03,0.12,1.03,-3,-8,-7,0.12,138,,,,,,,
7723,0,2.44,2.528,,-0.04,0.11,0.98,-3,-8,-5,0.11,138,,,,,,,
7728,0,,,,-0.07,0.05,0.95,-3,-7,-3,0.09,138,,,,,,,
7733,0,,,,-0.16,0.03,1.0,-3,-7,-3,0.16,138,,,,,,,
7738,0,,,,-0.03,0.01,0.99,-3,-7,-3,0.03,145,,,,,,,
7743,0,,,,-0.16,0.07,0.97,-3,-6,-2,0.17,145,0.0,0.0,0.0,0.0,0,0,0.0
7748,0,,,,-0.19,-0.05,1.03,-3,-6,-1,0.2,145,,,,,,,
7753,0,,,,-0.07,-0.05,1.09,-3,-6,-1,0.09,145,,,,,,,
7758,0,,,,-0.09,-0.02,1.08,-3,-6,-1,0.09,145,,,,,,,
7763,0,2.37,3.155,,-0.16,0.04,1.05,-3,-5,-0,0.16,145,,,,,,,
7768,0,,,,-0.22,0.02,1.12,-3,-5,-0,0.22,148,,,,,,,
7773,0,,,,-0.13,-0.0,1.12,-3,-5,-1,0.13,148,,,,,,,
7778,0,,,,-0.22,0.01,1.1,-3,-4,-0,0.22,148,,,,,,,
7783,0,,,,-0.18,-0.02,1.14,-3,-4,0,0.18,148,,,,,,,
7788,0,,,,-0.1,-0.04,1.23,-3,-4,0,0.11,150,,,,,,,
7793,0,,,,-0.09,-0.12,1.15,-2,-3,1,0.15,150,,,,,,,
7798,0,,,,-0.15,-0.11,1.16,-2,-1,3,0.19,150,,,,,,,
7803,0,2.3,2.8,,-0.19,-0.16,1.19,-2,-1,3,0.24,150,,,,,,,
7808,0,,,,-0.08,-0.12,1.27,-2,-1,2,0.14,150,,,,,,,
7813,0,,,,-0.16,-0.03,1.27,-2,1,3,0.16,150,,,,,,,
7818,0,,,,-0.16,-0.03,1.34,-1,1,4,0.16,152,,,,,,,
7823,0,,,,-0.08,-0.01,1.38,-1,2,3,0.08,152,,,,,,,
7828,0,,,,-0.05,-0.03,1.33,-1,3,3,0.06,152,,,,,,,
7833,0,,,,-0.09,0.02,1.32,-1,5,4,0.09,150,,,,,,,
7838,0,,,,-0.15,0.01,1.33,-1,5,3,0.15,150,,,,,,,
7843,0,2.26,3.107,,-0.18,-0.02,1.37,-0,6,2,0.18,150,0.0,0.0,0.0,0.0,0,0,0.0
7848,0,,,,-0.19,-0.0,1.28,-1,8,2,0.19,150,,,,,,,
7853,0,,,,-0.17,0.06,1.25,-0,8,1,0.18,155,,,,,,,
7858,0,,,,-0.13,0.11,1.22,-0,8,1,0.17,155,,,,,,,
7863,0,,,,-0.06,-0.0,1.13,-0,9,1,0.06,155,,,,,,,
7868,0,,,,-0.17,0.05,1.14,0,11,1,0.18,152,,,,,,,
7873,0,,,,-0.16,-0.04,1.04,0,12,1,0.16,152,,,,,,,
7878,0,,,,-0.22,-0.07,1.09,0,12,1,0.23,152,,,,,,,
7883,0,2.24,2.868,,-0.17,-0.11,0.93,0,11,0,0.21,158,,,,,,,
7888,0,,,,-0.17,-0.11,0.91,0,10,1,0.21,158,,,,,,,
7893,0,,,,-0.28,-0.11,0.94,0,11,1,0.3,158,,,,,,,
7898,0,,,,-0.23,-0.16,0.84,1,11,1,0.28,158,,,,,,,
7903,0,,,,-0.32,-0.06,0.82,0,11,2,0.33,158,,,,,,,
7908,0,,,,-0.34,-0.04,0.78,1,10,2,0.34,158,,,,,,,
7913,0,,,,-0.38,-0.04,0.83,0,9,2,0.39,158,,,,,,,
7918,0,,,,-0.32,-0.06,0.72,0,8,3,0.33,158,,,,,,,
7923,0,2.28,3.428,,-0.34,0.01,0.71,0,7,3,0.34,158,,,,,,,
7928,0,,,,-0.39,0.03,0.75,0,6,3,0.39,158,,,,,,,
7933,0,,,,-0.35,0.0,0.79,-0,5,3,0.35,158,,,,,,,
7938,0,,,,-0.42,0.11,0.68,-0,4,3,0.43,158,,,,,,,
7943,0,,,,-0.43,0.06,0.65,-0,3,4,0.43,158,0.0,0.0,0.0,0.0,0,0,0.0
7948,0,,,,-0.51,0.1,0.7,-1,2,4,0.52,162,,,,,,,
7953,0,,,,-0.43,0.12,0.71,-1,0,4,0.45,162,,,,,,,
7958,0,,,,-0.44,0.17,0.71,-2,-1,5,0.47,162,,,,,,,
7963,0,2.25,3.052,,-0.44,0.17,0.74,-2,-2,4,0.47,162,,,,,,,
7968,0,,,,-0.31,0.11,0.8,-2,-4,4,0.33,162,,,,,,,
7973,0,,,,-0.23,0.09,0.83,-3,-6,4,0.24,162,,,,,,,
7978,0,,,,-0.26,0.1,0.93,-3,-6,4,0.28,158,,,,,,,
7983,0,,,,-0.29,0.14,0.97,-4,-6,4,0.32,158,,,,,,,
7988,0,,,,-0.23,0.09,1.06,-4,-7,3,0.25,158,,,,,,,
7993,0,,,,-0.24,0.11,1.07,-4,-6,3,0.27,160,,,,,,,
7998,0,,,,-0.19,0.08,1.13,-4,-6,3,0.2,160,,,,,,,
8003,0,2.29,3.209,,-0.15,0.08,1.22,-4,-6,2,0.17,160,,,,,,,
8008,0,,,,-0.05,0.04,1.15,-4,-6,2,0.06,160,,,,,,,
8013,0,,,,-0.11,0.06,1.17,-4,-5,2,0.13,160,,,,,,,
